     3.03           OBSERVATION DATA    M: Mixed            RINEX VERSION / TYPE
sbp2rinex v2.2 (RTKL                    20210504 171524 UTC PGM / RUN BY / DATE 
log: 2020-05-21-US-MTV-1.sbp                                COMMENT             
format: Swift Navigation SBP, option: CONVBASE,EPHALL,OBSALLCOMMENT             
                                                            MARKER NAME         
                                                            MARKER NUMBER       
                                                            MARKER TYPE         
                                                            OBSERVER / AGENCY   
                                                            REC # / TYPE / VERS 
                                                            ANT # / TYPE        
 -2726238.5716 -4347374.6629  3775263.5859                  APPROX POSITION XYZ 
        0.0000        0.0000        0.0000                  ANTENNA: DELTA H/E/N
G    6 C1C L1C S1C C5I L5I S5I                              SYS / # / OBS TYPES 
E    6 C1B L1B S1B C5I L5I S5I                              SYS / # / OBS TYPES 
  2020     5    21    18     9    4.0000000     GPS         TIME OF FIRST OBS   
  2020     5    21    18    44   34.0000000     GPS         TIME OF LAST OBS    
G                                                           SYS / PHASE SHIFT   
E                                                           SYS / PHASE SHIFT   
  0                                                         GLONASS SLOT / FRQ #
 C1C    0.000 C1P    0.000 C2C    0.000 C2P    0.000        GLONASS COD/PHS/BIS 
                                                            END OF HEADER       
> 2020  5 21 18  9  4.0000000  0  6       0.000000000000
E 2  25951589.540   136376513.172          50.000    25951593.300   101839594.055          50.000  
E 7  26826183.300   140972494.828          50.000    26826189.500   105271650.738          50.000  
E15  25344763.480   133187587.918          50.000    25344769.340    99458248.293          50.000  
E27  25487014.700   133935137.027          50.000    25487019.120   100016485.336          50.000  
E30  22464889.300   118053778.793          50.000    22464892.900    88157034.102          50.000  
E36  26429007.560   138885333.027          50.000    26429013.000   103713059.016          50.000  
> 2020  5 21 18  9  5.0000000  0 15       0.000000000000
G 1  24358315.620   128003737.551          50.000    24358317.900    95587200.723          50.000  
G 6  23611001.220   124076581.258          50.000    23611005.220    92654584.922          50.000  
G13  22155808.860   116429549.555          50.000                                                  
G15  23072239.660   121245420.188          50.000                                                  
G17  20547326.500   107976930.344          50.000                                                  
G19  20258645.580   106459922.523          50.000                                                  
G24  23317550.400   122534495.113          50.000    23317553.240    91503028.461          50.000  
G28  21760613.140   114352788.793          50.000                                                  
G30  22644818.460   118999264.219          50.000    22644820.540    88863085.004          50.000  
E 2  25951894.600   136378116.234          50.000    25951898.360   101840791.145          50.000  
E 7  26826621.300   140974796.547          50.000    26826627.500   105273369.555          50.000  
E15  25344216.700   133184714.531          50.000    25344222.560    99456102.586          50.000  
E27  25486683.180   133933394.852          50.000    25486687.600   100015184.359          50.000  
E30  22464881.920   118053740.016          50.000    22464885.520    88157005.145          50.000  
E36  26429379.920   138887289.844          50.000    26429385.360   103714520.273          50.000  
> 2020  5 21 18  9  6.0000000  0 15       0.000000000000
G 1  24358737.660   128005955.320          50.000    24358739.920    95588856.848          50.000  
G 6  23610351.040   124073164.531          50.000    23610355.040    92652033.469          50.000  
G13  22156277.560   116432012.598          50.000                                                  
G15  23072517.360   121246879.563          50.000                                                  
G17  20547503.480   107977860.328          50.000                                                  
G19  20258434.580   106458813.773          50.000                                                  
G24  23316956.120   122531372.141          50.000    23316958.960    91500696.375          50.000  
G28  21760867.300   114354124.414          50.000                                                  
G30  22645392.840   119002282.578          50.000    22645394.920    88865338.973          50.000  
E 2  25952199.680   136379719.418          50.000    25952203.420   101841988.328          50.000  
E 7  26827059.320   140977098.418          50.000    26827065.540   105275088.484          50.000  
E15  25343669.940   133181841.340          50.000    25343675.800    99453957.020          50.000  
E27  25486351.660   133931652.688          50.000    25486356.060   100013883.395          50.000  
E30  22464874.560   118053701.375          50.000    22464878.160    88156976.289          50.000  
E36  26429752.360   138889247.012          50.000    26429757.800   103715981.793          50.000  
> 2020  5 21 18  9  7.0000000  0 15       0.000000000000
G 1  24359159.780   128008173.637          50.000    24359162.060    95590513.379          50.000  
G 6  23609700.880   124069747.902          50.000    23609704.880    92649482.094          50.000  
G13  22156746.340   116434476.070          50.000                                                  
G15  23072795.160   121248339.426          50.000                                                  
G17  20547680.540   107978790.789          50.000                                                  
G19  20258223.700   106457705.625          50.000                                                  
G24  23316361.880   122528249.402          50.000    23316364.720    91498364.461          50.000  
G28  21761121.480   114355460.121          50.000                                                  
G30  22645967.280   119005301.266          50.000    22645969.360    88867593.184          50.000  
E 2  25952504.780   136381322.703          50.000    25952508.520   101843185.586          50.000  
E 7  26827497.400   140979400.453          50.000    26827503.600   105276807.535          50.000  
E15  25343123.240   133178968.340          50.000    25343129.100    99451811.598          50.000  
E27  25486020.140   133929910.547          50.000    25486024.540   100012582.445          50.000  
E30  22464867.240   118053662.871          50.000    22464870.840    88156947.535          50.000  
E36  26430124.860   138891204.531          50.000    26430130.300   103717443.578          50.000  
> 2020  5 21 18  9  8.0000000  0 15       0.000000000000
G 1  24359582.020   128010392.492          50.000    24359584.300    95592170.316          50.000  
G 6  23609050.740   124066331.387          50.000    23609054.740    92646930.801          50.000  
G13  22157215.200   116436939.961          50.000                                                  
G15  23073073.060   121249799.762          50.000                                                  
G17  20547857.680   107979721.727          50.000                                                  
G19  20258012.960   106456598.082          50.000                                                  
G24  23315767.680   122525126.844          50.000    23315770.520    91496032.680          50.000  
G28  21761375.680   114356795.930          50.000                                                  
G30  22646541.780   119008320.262          50.000    22646543.860    88869847.629          50.000  
E 2  25952809.880   136382926.094          50.000    25952813.640   101844382.922          50.000  
E 7  26827935.480   140981702.625          50.000    26827941.680   105278526.688          50.000  
E15  25342576.560   133176095.531          50.000    25342582.420    99449666.320          50.000  
E27  25485688.620   133928168.426          50.000    25485693.040   100011281.508          50.000  
E30  22464859.940   118053624.504          50.000    22464863.540    88156918.887          50.000  
E36  26430497.440   138893162.418          50.000    26430502.880   103718905.637          50.000  
> 2020  5 21 18  9  9.0000000  0 15       0.000000000000
G 1  24360004.360   128012611.898          50.000    24360006.640    95593827.668          50.000  
G 6  23608400.620   124062914.988          50.000    23608404.620    92644379.594          50.000  
G13  22157684.160   116439404.277          50.000                                                  
G15  23073351.040   121251260.563          50.000                                                  
G17  20548034.940   107980653.133          50.000                                                  
G19  20257802.300   106455491.141          50.000                                                  
G24  23315173.520   122522004.523          50.000    23315176.360    91493701.078          50.000  
G28  21761629.880   114358131.840          50.000                                                  
G30  22647116.320   119011339.582          50.000    22647118.420    88872102.316          50.000  
E 2  25953115.020   136384529.625          50.000    25953118.780   101845580.363          50.000  
E 7  26828373.600   140984004.949          50.000    26828379.800   105280245.953          50.000  
E15  25342029.920   133173222.914          50.000    25342035.780    99447521.188          50.000  
E27  25485357.100   133926426.309          50.000    25485361.520   100009980.582          50.000  
E30  22464852.660   118053586.254          50.000    22464856.260    88156890.324          50.000  
E36  26430870.080   138895120.648          50.000    26430875.520   103720367.949          50.000  
> 2020  5 21 18  9 10.0000000  0 15       0.000000000000
G 1  24360426.800   128014831.859          50.000    24360429.080    95595485.426          50.000  
G 6  23607750.520   124059498.691          50.000    23607754.520    92641828.465          50.000  
G13  22158153.180   116441869.008          50.000                                                  
G15  23073629.120   121252721.844          50.000                                                  
G17  20548212.260   107981585.020          50.000                                                  
G19  20257591.780   106454384.805          50.000                                                  
G24  23314579.400   122518882.430          50.000    23314582.240    91491369.648          50.000  
G28  21761884.120   114359467.840          50.000                                                  
G30  22647690.940   119014359.219          50.000    22647693.040    88874357.238          50.000  
E 2  25953420.180   136386133.250          50.000    25953423.940   101846777.875          50.000  
E 7  26828811.740   140986307.438          50.000    26828817.960   105281965.348          50.000  
E15  25341483.320   133170350.512          50.000    25341489.180    99445376.211          50.000  
E27  25485025.600   133924684.219          50.000    25485030.020   100008679.668          50.000  
E30  22464845.400   118053548.145          50.000    22464849.000    88156861.863          50.000  
E36  26431242.780   138897079.242          50.000    26431248.220   103721830.535          50.000  
> 2020  5 21 18  9 11.0000000  0 15       0.000000000000
G 1  24360849.360   128017052.359          50.000    24360851.640    95597143.594          50.000  
G 6  23607100.440   124056082.500          50.000    23607104.440    92639277.414          50.000  
G13  22158622.280   116444334.152          50.000                                                  
G15  23073907.280   121254183.605          50.000                                                  
G17  20548389.680   107982517.375          50.000                                                  
G19  20257381.360   106453279.070          50.000                                                  
G24  23313985.320   122515760.551          50.000    23313988.160    91489038.375          50.000  
G28  21762138.380   114360803.938          50.000                                                  
G30  22648265.640   119017379.191          50.000    22648267.720    88876612.414          50.000  
E 2  25953725.380   136387736.996          50.000    25953729.120   101847975.477          50.000  
E 7  26829249.920   140988610.063          50.000    26829256.120   105283684.836          50.000  
E15  25340936.740   133167478.289          50.000    25340942.600    99443231.371          50.000  
E27  25484694.100   133922942.141          50.000    25484698.500   100007378.766          50.000  
E30  22464838.180   118053510.184          50.000    22464841.780    88156833.516          50.000  
E36  26431615.560   138899038.191          50.000    26431621.000   103723293.387          50.000  
> 2020  5 21 18  9 12.0000000  0 15       0.000000000000
G 1  24361272.000   128019273.410          50.000    24361274.280    95598802.168          50.000  
G 6  23606450.380   124052666.402          50.000    23606454.380    92636726.434          50.000  
G13  22159091.460   116446799.727          50.000                                                  
G15  23074185.540   121255645.848          50.000                                                  
G17  20548567.200   107983450.199          50.000                                                  
G19  20257171.060   106452173.941          50.000                                                  
G24  23313391.300   122512638.891          50.000    23313394.140    91486707.270          50.000  
G28  21762392.640   114362140.129          50.000                                                  
G30  22648840.360   119020399.465          50.000    22648842.460    88878867.809          50.000  
E 2  25954030.580   136389340.844          50.000    25954034.320   101849173.156          50.000  
E 7  26829688.120   140990912.832          50.000    26829694.340   105285404.438          50.000  
E15  25340390.220   133164606.273          50.000    25340396.080    99441086.688          50.000  
E27  25484362.580   133921200.078          50.000    25484367.000   100006077.879          50.000  
E30  22464830.980   118053472.344          50.000    22464834.580    88156805.258          50.000  
E36  26431988.400   138900997.484          50.000    26431993.840   103724756.496          50.000  
> 2020  5 21 18  9 13.0000000  0 15       0.000000000000
G 1  24361694.760   128021495.004          50.000    24361697.040    95600461.148          50.000  
G 6  23605800.340   124049250.418          50.000    23605804.320    92634175.539          50.000  
G13  22159560.720   116449265.703          50.000                                                  
G15  23074463.880   121257108.570          50.000                                                  
G17  20548744.800   107984383.492          50.000                                                  
G19  20256960.880   106451069.414          50.000                                                  
G24  23312797.300   122509517.473          50.000    23312800.140    91484376.340          50.000  
G28  21762646.920   114363476.410          50.000                                                  
G30  22649415.180   119023420.074          50.000    22649417.260    88881123.457          50.000  
E 2  25954335.800   136390944.805          50.000    25954339.560   101850370.914          50.000  
E 7  26830126.360   140993215.777          50.000    26830132.560   105287124.168          50.000  
E15  25339843.720   133161734.434          50.000    25339849.580    99438942.129          50.000  
E27  25484031.080   133919458.031          50.000    25484035.500   100004777.000          50.000  
E30  22464823.800   118053434.633          50.000    22464827.400    88156777.098          50.000  
E36  26432361.320   138902957.137          50.000    26432366.760   103726219.867          50.000  
> 2020  5 21 18  9 14.0000000  0 15       0.000000000000
G 1  24362117.620   128023717.145          50.000    24362119.900    95602120.539          50.000  
G 6  23605150.320   124045834.543          50.000    23605154.300    92631624.723          50.000  
G13  22160030.060   116451732.105          50.000                                                  
G15  23074742.320   121258571.773          50.000                                                  
G17  20548922.480   107985317.266          50.000                                                  
G19  20256750.800   106449965.480          50.000                                                  
G24  23312203.360   122506396.238          50.000    23312206.200    91482045.547          50.000  
G28  21762901.240   114364812.789          50.000                                                  
G30  22649990.040   119026441.000          50.000    22649992.120    88883379.344          50.000  
E 2  25954641.040   136392548.871          50.000    25954644.800   101851568.758          50.000  
E 7  26830564.620   140995518.867          50.000    26830570.840   105288844.004          50.000  
E15  25339297.260   133158862.801          50.000    25339303.120    99436797.730          50.000  
E27  25483699.600   133917716.012          50.000    25483704.000   100003476.141          50.000  
E30  22464816.660   118053397.063          50.000    22464820.260    88156749.043          50.000  
E36  26432734.280   138904917.145          50.000    26432739.740   103727683.512          50.000  
> 2020  5 21 18  9 15.0000000  0 15       0.000000000000
G 1  24362540.580   128025939.832          50.000    24362542.860    95603780.340          50.000  
G 6  23604500.320   124042418.762          50.000    23604504.300    92629073.980          50.000  
G13  22160499.480   116454198.922          50.000                                                  
G15  23075020.860   121260035.434          50.000                                                  
G17  20549100.260   107986251.504          50.000                                                  
G19  20256540.860   106448862.156          50.000                                                  
G24  23311609.440   122503275.199          50.000    23311612.280    91479714.902          50.000  
G28  21763155.560   114366149.270          50.000                                                  
G30  22650564.960   119029462.242          50.000    22650567.040    88885635.465          50.000  
E 2  25954946.300   136394153.059          50.000    25954950.060   101852766.691          50.000  
E 7  26831002.920   140997822.105          50.000    26831009.120   105290563.957          50.000  
E15  25338750.860   133155991.363          50.000    25338756.720    99434653.477          50.000  
E27  25483368.100   133915974.000          50.000    25483372.500   100002175.285          50.000  
E30  22464809.540   118053359.629          50.000    22464813.120    88156721.090          50.000  
E36  26433107.340   138906877.508          50.000    26433112.780   103729147.418          50.000  
> 2020  5 21 18  9 16.0000000  0 15       0.000000000000
G 1  24362963.660   128028163.055          50.000    24362965.940    95605440.535          50.000  
G 6  23603850.340   124039003.113          50.000    23603854.320    92626523.332          50.000  
G13  22160968.980   116456666.160          50.000                                                  
G15  23075299.480   121261499.594          50.000                                                  
G17  20549278.140   107987186.227          50.000                                                  
G19  20256331.020   106447759.438          50.000                                                  
G24  23311015.580   122500154.391          50.000    23311018.400    91477384.430          50.000  
G28  21763409.900   114367485.840          50.000                                                  
G30  22651139.940   119032483.813          50.000    22651142.040    88887891.832          50.000  
E 2  25955251.600   136395757.352          50.000    25955255.360   101853964.699          50.000  
E 7  26831441.240   141000125.488          50.000    26831447.440   105292284.016          50.000  
E15  25338204.480   133153120.117          50.000    25338210.320    99432509.367          50.000  
E27  25483036.600   133914232.012          50.000    25483041.020   100000874.453          50.000  
E30  22464802.440   118053322.324          50.000    22464806.040    88156693.230          50.000  
E36  26433480.440   138908838.230          50.000    26433485.900   103730611.590          50.000  
> 2020  5 21 18  9 17.0000000  0 15       0.000000000000
G 1  24363386.820   128030386.820          50.000    24363389.100    95607101.137          50.000  
G 6  23603200.380   124035587.555          50.000    23603204.360    92623972.754          50.000  
G13  22161438.560   116459133.824          50.000                                                  
G15  23075578.180   121262964.230          50.000                                                  
G17  20549456.100   107988121.418          50.000                                                  
G19  20256121.280   106446657.324          50.000                                                  
G24  23310421.740   122497033.809          50.000    23310424.580    91475054.125          50.000  
G28  21763664.260   114368822.520          50.000                                                  
G30  22651715.000   119035505.699          50.000    22651717.080    88890148.434          50.000  
E 2  25955556.900   136397361.762          50.000    25955560.660   101855162.797          50.000  
E 7  26831879.600   141002429.035          50.000    26831885.800   105294004.195          50.000  
E15  25337658.120   133150249.074          50.000    25337663.980    99430365.406          50.000  
E27  25482705.120   133912490.043          50.000    25482709.540    99999573.633          50.000  
E30  22464795.360   118053285.156          50.000    22464798.960    88156665.477          50.000  
E36  26433853.620   138910799.297          50.000    26433859.080   103732076.023          50.000  
> 2020  5 21 18  9 18.0000000  0 15       0.000000000000
G 1  24363810.100   128032611.141          50.000    24363812.380    95608762.156          50.000  
G 6  23602550.440   124032172.109          50.000    23602554.420    92621422.262          50.000  
G13  22161908.220   116461601.898          50.000                                                  
G15  23075856.980   121264429.355          50.000                                                  
G17  20549634.140   107989057.078          50.000                                                  
G19  20255911.680   106445555.801          50.000                                                  
G24  23309827.960   122493913.457          50.000    23309830.800    91472723.992          50.000  
G28  21763918.640   114370159.289          50.000                                                  
G30  22652290.100   119038527.902          50.000    22652292.180    88892405.273          50.000  
E 2  25955862.240   136398966.285          50.000    25955866.000   101856360.980          50.000  
E 7  26832317.980   141004732.730          50.000    26832324.180   105295724.484          50.000  
E15  25337111.820   133147378.219          50.000    25337117.680    99428221.586          50.000  
E27  25482373.640   133910748.082          50.000    25482378.040    99998272.820          50.000  
E30  22464788.320   118053248.121          50.000    22464791.920    88156637.820          50.000  
E36  26434226.880   138912760.723          50.000    26434232.320   103733540.727          50.000  
> 2020  5 21 18  9 19.0000000  0 15       0.000000000000
G 1  24364233.480   128034835.996          50.000    24364235.760    95610423.570          50.000  
G 6  23601900.520   124028756.770          50.000    23601904.500    92618871.848          50.000  
G13  22162377.960   116464070.391          50.000                                                  
G15  23076135.880   121265894.945          50.000                                                  
G17  20549812.280   107989993.219          50.000                                                  
G19  20255702.180   106444454.895          50.000                                                  
G24  23309234.200   122490793.285          50.000    23309237.040    91470393.996          50.000  
G28  21764173.040   114371496.148          50.000                                                  
G30  22652865.260   119041550.430          50.000    22652867.360    88894662.355          50.000  
E 2  25956167.580   136400570.914          50.000    25956171.340   101857559.242          50.000  
E 7  26832756.380   141007036.566          50.000    26832762.580   105297444.883          50.000  
E15  25336565.560   133144507.563          50.000    25336571.420    99426077.918          50.000  
E27  25482042.160   133909006.133          50.000    25482046.560    99996972.012          50.000  
E30  22464781.280   118053211.223          50.000    22464784.880    88156610.266          50.000  
E36  26434600.180   138914722.504          50.000    26434605.640   103735005.691          50.000  
> 2020  5 21 18  9 20.0000000  0 15       0.000000000000
G 1  24364656.960   128037061.402          50.000    24364659.240    95612085.398          50.000  
G 6  23601250.620   124025341.539          50.000    23601254.620    92616321.516          50.000  
G13  22162847.780   116466539.293          50.000                                                  
G15  23076414.860   121267361.023          50.000                                                  
G17  20549990.520   107990929.832          50.000                                                  
G19  20255492.800   106443354.582          50.000                                                  
G24  23308640.500   122487673.328          50.000    23308643.340    91468064.160          50.000  
G28  21764427.440   114372833.098          50.000                                                  
G30  22653440.500   119044573.281          50.000    22653442.580    88896919.676          50.000  
E 2  25956472.960   136402175.652          50.000    25956476.720   101858757.586          50.000  
E 7  26833194.820   141009340.563          50.000    26833201.020   105299165.398          50.000  
E15  25336019.320   133141637.098          50.000    25336025.180    99423934.391          50.000  
E27  25481710.680   133907264.207          50.000    25481715.080    99995671.223          50.000  
E30  22464774.300   118053174.453          50.000    22464777.900    88156582.809          50.000  
E36  26434973.580   138916684.637          50.000    26434979.020   103736470.922          50.000  
> 2020  5 21 18  9 21.0000000  0 15       0.000000000000
G 1  24365080.540   128039287.352          50.000    24365082.820    95613747.637          50.000  
G 6  23600600.740   124021926.414          50.000    23600604.740    92613771.262          50.000  
G13  22163317.680   116469008.621          50.000                                                  
G15  23076693.940   121268827.574          50.000                                                  
G17  20550168.840   107991866.910          50.000                                                  
G19  20255283.520   106442254.863          50.000                                                  
G24  23308046.840   122484553.602          50.000    23308049.680    91465734.496          50.000  
G28  21764681.880   114374170.145          50.000                                                  
G30  22654015.800   119047596.453          50.000    22654017.880    88899177.238          50.000  
E 2  25956778.360   136403780.508          50.000    25956782.120   101859956.016          50.000  
E 7  26833633.280   141011644.715          50.000    26833639.480   105300886.031          50.000  
E15  25335473.120   133138766.828          50.000    25335478.980    99421791.008          50.000  
E27  25481379.200   133905522.297          50.000    25481383.620    99994370.449          50.000  
E30  22464767.320   118053137.824          50.000    22464770.920    88156555.457          50.000  
E36  26435347.020   138918647.133          50.000    26435352.480   103737936.422          50.000  
> 2020  5 21 18  9 22.0000000  0 15       0.000000000000
G 1  24365504.220   128041513.820          50.000    24365506.500    95615410.250          50.000  
G 6  23599950.880   124018511.383          50.000    23599954.880    92611221.074          50.000  
G13  22163787.660   116471478.348          50.000                                                  
G15  23076973.120   121270294.570          50.000                                                  
G17  20550347.260   107992804.492          50.000                                                  
G19  20255074.380   106441155.754          50.000                                                  
G24  23307453.220   122481434.129          50.000    23307456.040    91463405.035          50.000  
G28  21764936.320   114375507.297          50.000                                                  
G30  22654591.140   119050619.934          50.000    22654593.240    88901435.031          50.000  
E 2  25957083.760   136405385.461          50.000    25957087.520   101861154.520          50.000  
E 7  26834071.780   141013949.012          50.000    26834077.980   105302606.770          50.000  
E15  25334926.980   133135896.762          50.000    25334932.820    99419647.777          50.000  
E27  25481047.740   133903780.406          50.000    25481052.140    99993069.684          50.000  
E30  22464760.380   118053101.324          50.000    22464763.980    88156528.199          50.000  
E36  26435720.540   138920609.977          50.000    26435725.980   103739402.176          50.000  
> 2020  5 21 18  9 23.0000000  0 15       0.000000000000
G 1  24365928.020   128043740.859          50.000    24365930.300    95617073.297          50.000  
G 6  23599301.060   124015096.469          50.000    23599305.040    92608670.977          50.000  
G13  22164257.720   116473948.496          50.000                                                  
G15  23077252.360   121271762.066          50.000                                                  
G17  20550525.760   107993742.512          50.000                                                  
G19  20254865.340   106440057.246          50.000                                                  
G24  23306859.620   122478314.832          50.000    23306862.460    91461075.688          50.000  
G28  21765190.800   114376844.531          50.000                                                  
G30  22655166.560   119053643.746          50.000    22655168.640    88903693.070          50.000  
E 2  25957389.200   136406990.535          50.000    25957392.960   101862353.113          50.000  
E 7  26834510.300   141016253.457          50.000    26834516.500   105304327.621          50.000  
E15  25334380.860   133133026.879          50.000    25334386.700    99417504.684          50.000  
E27  25480716.260   133902038.527          50.000    25480720.680    99991768.934          50.000  
E30  22464753.460   118053064.957          50.000    22464757.060    88156501.043          50.000  
E36  26436094.120   138922573.168          50.000    26436099.580   103740868.199          50.000  
> 2020  5 21 18  9 24.0000000  0 15       0.000000000000
G 1  24366351.920   128045968.438          50.000    24366354.200    95618736.750          50.000  
G 6  23598651.240   124011681.652          50.000    23598655.220    92606120.953          50.000  
G13  22164727.840   116476419.070          50.000                                                  
G15  23077531.720   121273230.047          50.000                                                  
G17  20550704.340   107994681.012          50.000                                                  
G19  20254656.400   106438959.336          50.000                                                  
G24  23306266.080   122475195.746          50.000    23306268.920    91458746.504          50.000  
G28  21765445.280   114378181.859          50.000                                                  
G30  22655742.020   119056667.867          50.000    22655744.120    88905951.344          50.000  
E 2  25957694.660   136408595.730          50.000    25957698.420   101863551.797          50.000  
E 7  26834948.840   141018558.051          50.000    26834955.060   105306048.586          50.000  
E15  25333834.760   133130157.211          50.000    25333840.620    99415361.750          50.000  
E27  25480384.800   133900296.664          50.000    25480389.200    99990468.191          50.000  
E30  22464746.560   118053028.719          50.000    22464750.160    88156473.980          50.000  
E36  26436467.780   138924536.715          50.000    26436473.220   103742334.480          50.000  
> 2020  5 21 18  9 25.0000000  0 15       0.000000000000
G 1  24366775.920   128048196.563          50.000    24366778.200    95620400.605          50.000  
G 6  23598001.440   124008266.957          50.000    23598005.420    92603571.020          50.000  
G13  22165198.060   116478890.051          50.000                                                  
G15  23077811.160   121274698.508          50.000                                                  
G17  20550883.020   107995619.984          50.000                                                  
G19  20254447.600   106437862.035          50.000                                                  
G24  23305672.580   122472076.867          50.000    23305675.420    91456417.469          50.000  
G28  21765699.780   114379519.281          50.000                                                  
G30  22656317.560   119059692.313          50.000    22656319.660    88908209.855          50.000  
E 2  25958000.140   136410201.020          50.000    25958003.900   101864750.551          50.000  
E 7  26835387.420   141020862.805          50.000    26835393.640   105307769.664          50.000  
E15  25333288.720   133127287.719          50.000    25333294.580    99413218.949          50.000  
E27  25480053.340   133898554.816          50.000    25480057.740    99989167.461          50.000  
E30  22464739.700   118052992.629          50.000    22464743.300    88156447.031          50.000  
E36  26436841.500   138926500.621          50.000    26436846.940   103743801.035          50.000  
> 2020  5 21 18  9 26.0000000  0 15       0.000000000000
G 1  24367200.020   128050425.242          50.000    24367202.300    95622064.879          50.000  
G 6  23597351.660   124004852.371          50.000    23597355.660    92601021.168          50.000  
G13  22165668.360   116481361.445          50.000                                                  
G15  23078090.680   121276167.441          50.000                                                  
G17  20551061.800   107996559.426          50.000                                                  
G19  20254238.900   106436765.324          50.000                                                  
G24  23305079.120   122468958.219          50.000    23305081.960    91454088.613          50.000  
G28  21765954.300   114380856.797          50.000                                                  
G30  22656893.160   119062717.082          50.000    22656895.260    88910468.609          50.000  
E 2  25958305.640   136411806.434          50.000    25958309.400   101865949.398          50.000  
E 7  26835826.040   141023167.707          50.000    26835832.240   105309490.855          50.000  
E15  25332742.720   133124418.430          50.000    25332748.580    99411076.297          50.000  
E27  25479721.880   133896813.000          50.000    25479726.280    99987866.758          50.000  
E30  22464732.840   118052956.664          50.000    22464736.440    88156420.172          50.000  
E36  26437215.280   138928464.875          50.000    26437220.720   103745267.848          50.000  
> 2020  5 21 18  9 27.0000000  0 15       0.000000000000
G 1  24367624.240   128052654.461          50.000    24367626.500    95623729.551          50.000  
G 6  23596701.900   124001437.895          50.000    23596705.900    92598471.395          50.000  
G13  22166138.720   116483833.258          50.000                                                  
G15  23078370.300   121277636.859          50.000                                                  
G17  20551240.660   107997499.344          50.000                                                  
G19  20254030.320   106435669.227          50.000                                                  
G24  23304485.700   122465839.781          50.000    23304488.540    91451759.906          50.000  
G28  21766208.840   114382194.406          50.000                                                  
G30  22657468.820   119065742.172          50.000    22657470.900    88912727.602          50.000  
E 2  25958611.160   136413411.953          50.000    25958614.920   101867148.324          50.000  
E 7  26836264.680   141025472.754          50.000    26836270.880   105311212.160          50.000  
E15  25332196.740   133121549.344          50.000    25332202.600    99408933.801          50.000  
E27  25479390.420   133895071.191          50.000    25479394.840    99986566.055          50.000  
E30  22464726.040   118052920.836          50.000    22464729.620    88156393.422          50.000  
E36  26437589.140   138930429.496          50.000    26437594.580   103746734.934          50.000  
> 2020  5 21 18  9 28.0000000  0 15       0.000000000000
G 1  24368048.540   128054884.227          50.000    24368050.820    95625394.633          50.000  
G 6  23596052.180   123998023.520          50.000    23596056.160    92595921.699          50.000  
G13  22166609.180   116486305.500          50.000                                                  
G15  23078650.020   121279106.754          50.000                                                  
G17  20551419.600   107998439.738          50.000                                                  
G19  20253821.860   106434573.734          50.000                                                  
G24  23303892.320   122462721.559          50.000    23303895.160    91449431.359          50.000  
G28  21766463.400   114383532.113          50.000                                                  
G30  22658044.540   119068767.594          50.000    22658046.620    88914986.840          50.000  
E 2  25958916.700   136415017.582          50.000    25958920.460   101868347.332          50.000  
E 7  26836703.340   141027777.973          50.000    26836709.540   105312933.586          50.000  
E15  25331650.820   133118680.445          50.000    25331656.660    99406791.441          50.000  
E27  25479058.960   133893329.398          50.000    25479063.380    99985265.363          50.000  
E30  22464719.240   118052885.145          50.000    22464722.840    88156366.766          50.000  
E36  26437963.060   138932394.457          50.000    26437968.500   103748202.273          50.000  
> 2020  5 21 18  9 29.0000000  0 15       0.000000000000
G 1  24368472.960   128057114.535          50.000    24368475.240    95627060.121          50.000  
G 6  23595402.460   123994609.262          50.000    23595406.440    92593372.090          50.000  
G13  22167079.700   116488778.152          50.000                                                  
G15  23078929.820   121280577.133          50.000                                                  
G17  20551598.660   107999380.609          50.000                                                  
G19  20253613.500   106433478.852          50.000                                                  
G24  23303298.980   122459603.547          50.000    23303301.820    91447102.977          50.000  
G28  21766717.980   114384869.922          50.000                                                  
G30  22658620.320   119071793.324          50.000    22658622.400    88917246.313          50.000  
E 2  25959222.260   136416623.324          50.000    25959226.020   101869546.426          50.000  
E 7  26837142.040   141030083.320          50.000    26837148.240   105314655.113          50.000  
E15  25331104.920   133115811.734          50.000    25331110.760    99404649.223          50.000  
E27  25478727.520   133891587.617          50.000    25478731.920    99983964.684          50.000  
E30  22464712.480   118052849.578          50.000    22464716.060    88156340.207          50.000  
E36  26438337.040   138934359.773          50.000    26438342.500   103749669.879          50.000  
> 2020  5 21 18  9 30.0000000  0 15       0.000000000000
G 1  24368897.480   128059345.391          50.000    24368899.760    95628726.020          50.000  
G 6  23594752.780   123991195.117          50.000    23594756.760    92590822.570          50.000  
G13  22167550.320   116491251.223          50.000                                                  
G15  23079209.720   121282047.984          50.000                                                  
G17  20551777.780   108000321.941          50.000                                                  
G19  20253405.280   106432384.570          50.000                                                  
G24  23302705.700   122456485.793          50.000    23302708.540    91444774.785          50.000  
G28  21766972.580   114386207.805          50.000                                                  
G30  22659196.160   119074819.363          50.000    22659198.240    88919506.016          50.000  
E 2  25959527.840   136418229.184          50.000    25959531.600   101870745.605          50.000  
E 7  26837580.760   141032388.824          50.000    26837586.960   105316376.754          50.000  
E15  25330559.060   133112943.242          50.000    25330564.920    99402507.172          50.000  
E27  25478396.080   133889845.863          50.000    25478400.480    99982664.023          50.000  
E30  22464705.740   118052814.160          50.000    22464709.320    88156313.758          50.000  
E36  26438711.100   138936325.445          50.000    26438716.540   103751137.750          50.000  
> 2020  5 21 18  9 31.0000000  0 15       0.000000000000
G 1  24369322.100   128061576.789          50.000    24369324.380    95630392.320          50.000  
G 6  23594103.100   123987781.078          50.000    23594107.080    92588273.125          50.000  
G13  22168021.000   116493724.711          50.000                                                  
G15  23079489.700   121283519.316          50.000                                                  
G17  20551957.000   108001263.754          50.000                                                  
G19  20253197.160   106431290.895          50.000                                                  
G24  23302112.440   122453368.219          50.000    23302115.280    91442446.727          50.000  
G28  21767227.180   114387545.801          50.000                                                  
G30  22659772.060   119077845.734          50.000    22659774.140    88921765.965          50.000  
E 2  25959833.460   136419835.145          50.000    25959837.220   101871944.863          50.000  
E 7  26838019.500   141034694.484          50.000    26838025.720   105318098.512          50.000  
E15  25330013.240   133110074.926          50.000    25330019.080    99400365.246          50.000  
E27  25478064.620   133888104.113          50.000    25478069.040    99981363.367          50.000  
E30  22464699.020   118052778.867          50.000    22464702.620    88156287.402          50.000  
E36  26439085.220   138938291.477          50.000    26439090.680   103752605.891          50.000  
> 2020  5 21 18  9 32.0000000  0 15       0.000000000000
G 1  24369746.820   128063808.730          50.000    24369749.100    95632059.027          50.000  
G 6  23593453.440   123984367.137          50.000    23593457.440    92585723.754          50.000  
G13  22168491.780   116496198.625          50.000                                                  
G15  23079769.780   121284991.129          50.000                                                  
G17  20552136.320   108002206.039          50.000                                                  
G19  20252989.140   106430197.816          50.000                                                  
G24  23301519.220   122450250.863          50.000    23301522.060    91440118.836          50.000  
G28  21767481.820   114388883.891          50.000                                                  
G30  22660348.020   119080872.434          50.000    22660350.100    88924026.164          50.000  
E 2  25960139.080   136421441.227          50.000    25960142.840   101873144.207          50.000  
E 7  26838458.300   141037000.293          50.000    26838464.500   105319820.379          50.000  
E15  25329467.440   133107206.809          50.000    25329473.300    99398223.469          50.000  
E27  25477733.180   133886362.391          50.000    25477737.600    99980062.730          50.000  
E30  22464692.320   118052743.707          50.000    22464695.920    88156261.148          50.000  
E36  26439459.420   138940257.859          50.000    26439464.860   103754074.289          50.000  
> 2020  5 21 18  9 33.0000000  0 15       0.000000000000
G 1  24370171.640   128066041.207          50.000    24370173.920    95633726.137          50.000  
G 6  23592803.820   123980953.328          50.000    23592807.800    92583174.484          50.000  
G13  22168962.620   116498672.949          50.000                                                  
G15  23080049.940   121286463.414          50.000                                                  
G17  20552315.720   108003148.797          50.000                                                  
G19  20252781.260   106429105.355          50.000                                                  
G24  23300926.060   122447133.734          50.000    23300928.900    91437791.109          50.000  
G28  21767736.460   114390222.086          50.000                                                  
G30  22660924.040   119083899.445          50.000    22660926.120    88926286.594          50.000  
E 2  25960444.740   136423047.422          50.000    25960448.480   101874343.637          50.000  
E 7  26838897.100   141039306.258          50.000    26838903.320   105321542.367          50.000  
E15  25328921.700   133104338.895          50.000    25328927.560    99396081.852          50.000  
E27  25477401.760   133884620.691          50.000    25477406.160    99978762.113          50.000  
E30  22464685.660   118052708.680          50.000    22464689.260    88156234.992          50.000  
E36  26439833.660   138942224.594          50.000    26439839.120   103755542.957          50.000  
> 2020  5 21 18  9 34.0000000  0 15       0.000000000000
G 1  24370596.580   128068274.238          50.000    24370598.860    95635393.656          50.000  
G 6  23592154.220   123977539.613          50.000    23592158.200    92580625.285          50.000  
G13  22169433.560   116501147.684          50.000                                                  
G15  23080330.200   121287936.180          50.000                                                  
G17  20552495.200   108004092.027          50.000                                                  
G19  20252573.480   106428013.484          50.000                                                  
G24  23300332.920   122444016.813          50.000    23300335.760    91435463.539          50.000  
G28  21767991.140   114391560.367          50.000                                                  
G30  22661500.120   119086926.777          50.000    22661502.220    88928547.262          50.000  
E 2  25960750.400   136424653.738          50.000    25960754.160   101875543.160          50.000  
E 7  26839335.940   141041612.359          50.000    26839342.140   105323264.457          50.000  
E15  25328376.000   133101471.191          50.000    25328381.840    99393940.383          50.000  
E27  25477070.320   133882878.996          50.000    25477074.720    99977461.496          50.000  
E30  22464679.020   118052673.797          50.000    22464682.620    88156208.941          50.000  
E36  26440208.000   138944191.684          50.000    26440213.440   103757011.887          50.000  
> 2020  5 21 18  9 38.0000000  0 15       0.000000000000
G 1  24372296.900   128077209.508          50.000    24372299.200    95642066.094          50.000  
G 6  23589555.780   123963884.820          50.000    23589559.760    92570428.539          50.000  
G13  22171318.440   116511052.801          50.000                                                  
G15  23081452.740   121293835.156          50.000                                                  
G17  20553213.960   108007869.078          50.000                                                  
G19  20251743.620   106423652.496          50.000                                                  
G24  23297961.280   122431553.695          50.000    23297964.100    91426156.664          50.000  
G28  21769009.600   114396912.441          50.000                                                  
G30  22663804.640   119099037.156          50.000    22663806.740    88937590.723          50.000  
E 2  25961972.700   136431076.914          50.000    25961976.440   101880339.688          50.000  
E 7  26841092.120   141050841.141          50.000    26841098.340   105330156.066          50.000  
E15  25326193.460   133090001.875          50.000    25326199.300    99385375.633          50.000  
E27  25475745.080   133875914.863          50.000    25475749.500    99972261.012          50.000  
E30  22464652.600   118052534.941          50.000    22464656.200    88156105.250          50.000  
E36  26441705.540   138952061.297          50.000    26441710.980   103762888.539          50.000  
> 2020  5 21 18  9 39.0000000  0 15       0.000000000000
G 1  24372722.360   128079445.254          50.000    24372724.640    95643735.648          50.000  
G 6  23588906.280   123960471.664          50.000    23588910.260    92567879.754          50.000  
G13  22171789.760   116513529.621          50.000                                                  
G15  23081733.460   121295310.297          50.000                                                  
G17  20553393.900   108008814.664          50.000                                                  
G19  20251536.420   106422563.641          50.000                                                  
G24  23297368.340   122428437.840          50.000    23297371.180    91423829.891          50.000  
G28  21769264.360   114398251.195          50.000                                                  
G30  22664381.040   119102066.082          50.000    22664383.120    88939852.582          50.000  
E 2  25962278.460   136432683.773          50.000    25962282.220   101881539.617          50.000  
E 7  26841531.100   141053148.000          50.000    26841537.320   105331878.719          50.000  
E15  25325647.940   133087135.137          50.000    25325653.780    99383234.891          50.000  
E27  25475413.680   133874173.258          50.000    25475418.080    99970960.465          50.000  
E30  22464646.080   118052500.723          50.000    22464649.680    88156079.695          50.000  
E36  26442080.200   138954030.148          50.000    26442085.640   103764358.785          50.000  
> 2020  5 21 18  9 40.0000000  0 15       0.000000000000
G 1  24373147.900   128081681.539          50.000    24373150.200    95645405.598          50.000  
G 6  23588256.800   123957058.609          50.000    23588260.780    92565331.047          50.000  
G13  22172261.160   116516006.852          50.000                                                  
G15  23082014.260   121296785.914          50.000                                                  
G17  20553573.920   108009760.723          50.000                                                  
G19  20251329.320   106421475.391          50.000                                                  
G24  23296775.460   122425322.211          50.000    23296778.300    91421503.285          50.000  
G28  21769519.120   114399590.016          50.000                                                  
G30  22664957.480   119105095.328          50.000    22664959.580    88942114.680          50.000  
E 2  25962584.260   136434290.746          50.000    25962588.020   101882739.629          50.000  
E 7  26841970.120   141055455.000          50.000    26841976.320   105333601.480          50.000  
E15  25325102.440   133084268.598          50.000    25325108.300    99381094.293          50.000  
E27  25475082.260   133872431.668          50.000    25475086.660    99969659.926          50.000  
E30  22464639.600   118052466.633          50.000    22464643.200    88156054.238          50.000  
E36  26442454.920   138955999.355          50.000    26442460.380   103765829.293          50.000  
> 2020  5 21 18  9 41.0000000  0 15       0.000000000000
G 1  24373573.560   128083918.379          50.000    24373575.860    95647075.965          50.000  
G 6  23587607.320   123953645.664          50.000    23587611.300    92562782.422          50.000  
G13  22172732.640   116518484.500          50.000                                                  
G15  23082295.140   121298262.004          50.000                                                  
G17  20553754.040   108010707.250          50.000                                                  
G19  20251122.360   106420387.738          50.000                                                  
G24  23296182.620   122422206.813          50.000    23296185.460    91419176.852          50.000  
G28  21769773.920   114400928.965          50.000                                                  
G30  22665533.980   119108124.891          50.000    22665536.080    88944377.016          50.000  
E 2  25962890.080   136435897.832          50.000    25962893.840   101883939.723          50.000  
E 7  26842409.160   141057762.160          50.000    26842415.360   105335324.359          50.000  
E15  25324557.000   133081402.262          50.000    25324562.860    99378953.848          50.000  
E27  25474750.840   133870690.098          50.000    25474755.260    99968359.402          50.000  
E30  22464633.140   118052432.684          50.000    22464636.740    88156028.887          50.000  
E36  26442829.720   138957968.914          50.000    26442835.180   103767300.070          50.000  
> 2020  5 21 18  9 42.0000000  0 15       0.000000000000
G 1  24373999.320   128086155.754          50.000    24374001.600    95648746.727          50.000  
G 6  23586957.880   123950232.836          50.000    23586961.860    92560233.883          50.000  
G13  22173204.200   116520962.563          50.000                                                  
G15  23082576.120   121299738.586          50.000                                                  
G17  20553934.240   108011654.254          50.000                                                  
G19  20250915.500   106419300.695          50.000                                                  
G24  23295589.820   122419091.645          50.000    23295592.660    91416850.594          50.000  
G28  21770028.720   114402268.004          50.000                                                  
G30  22666110.560   119111154.781          50.000    22666112.660    88946639.594          50.000  
E 2  25963195.920   136437505.023          50.000    25963199.680   101885139.898          50.000  
E 7  26842848.220   141060069.469          50.000    26842854.440   105337047.348          50.000  
E15  25324011.600   133078536.113          50.000    25324017.440    99376813.543          50.000  
E27  25474419.440   133868948.543          50.000    25474423.840    99967058.891          50.000  
E30  22464626.700   118052398.875          50.000    22464630.300    88156003.645          50.000  
E36  26443204.580   138959938.824          50.000    26443210.040   103768771.105          50.000  
> 2020  5 21 18  9 43.0000000  0 15       0.000000000000
G 1  24374425.200   128088393.684          50.000    24374427.480    95650417.910          50.000  
G 6  23586308.460   123946820.113          50.000    23586312.440    92557685.422          50.000  
G13  22173675.840   116523441.043          50.000                                                  
G15  23082857.200   121301215.641          50.000                                                  
G17  20554114.540   108012601.723          50.000                                                  
G19  20250708.760   106418214.254          50.000                                                  
G24  23294997.080   122415976.715          50.000    23294999.900    91414524.512          50.000  
G28  21770283.560   114403607.133          50.000                                                  
G30  22666687.180   119114184.988          50.000    22666689.280    88948902.410          50.000  
E 2  25963501.780   136439112.344          50.000    25963505.540   101886340.168          50.000  
E 7  26843287.320   141062376.922          50.000    26843293.520   105338770.445          50.000  
E15  25323466.220   133075670.172          50.000    25323472.080    99374673.395          50.000  
E27  25474088.040   133867207.004          50.000    25474092.440    99965758.391          50.000  
E30  22464620.300   118052365.191          50.000    22464623.900    88155978.488          50.000  
E36  26443579.520   138961909.094          50.000    26443584.960   103770242.410          50.000  
> 2020  5 21 18  9 44.0000000  0 15       0.000000000000
G 1  24374851.160   128090632.141          50.000    24374853.440    95652089.484          50.000  
G 6  23585659.060   123943407.496          50.000    23585663.040    92555137.039          50.000  
G13  22174147.560   116525919.930          50.000                                                  
G15  23083138.380   121302693.184          50.000                                                  
G17  20554294.940   108013549.672          50.000                                                  
G19  20250502.120   106417128.410          50.000                                                  
G24  23294404.360   122412862.012          50.000    23294407.200    91412198.598          50.000  
G28  21770538.400   114404946.332          50.000                                                  
G30  22667263.880   119117215.504          50.000    22667265.980    88951165.457          50.000  
E 2  25963807.660   136440719.754          50.000    25963811.420   101887540.508          50.000  
E 7  26843726.440   141064684.523          50.000    26843732.640   105340493.652          50.000  
E15  25322920.880   133072804.418          50.000    25322926.740    99372533.383          50.000  
E27  25473756.640   133865465.473          50.000    25473761.040    99964457.898          50.000  
E30  22464613.920   118052331.652          50.000    22464617.520    88155953.441          50.000  
E36  26443954.500   138963879.703          50.000    26443959.960   103771713.969          50.000  
> 2020  5 21 18  9 45.0000000  0 15       0.000000000000
G 1  24375277.220   128092871.145          50.000    24375279.500    95653761.469          50.000  
G 6  23585009.680   123939994.992          50.000    23585013.660    92552588.742          50.000  
G13  22174619.360   116528399.234          50.000                                                  
G15  23083419.620   121304171.195          50.000                                                  
G17  20554475.420   108014498.086          50.000                                                  
G19  20250295.600   106416043.176          50.000                                                  
G24  23293811.680   122409747.496          50.000    23293814.520    91409872.824          50.000  
G28  21770793.260   114406285.656          50.000                                                  
G30  22667840.620   119120246.344          50.000    22667842.720    88953428.746          50.000  
E 2  25964113.560   136442327.289          50.000    25964117.320   101888740.938          50.000  
E 7  26844165.580   141066992.281          50.000    26844171.800   105342216.977          50.000  
E15  25322375.580   133069938.867          50.000    25322381.440    99370393.523          50.000  
E27  25473425.240   133863723.980          50.000    25473429.640    99963157.434          50.000  
E30  22464607.560   118052298.242          50.000    22464611.160    88155928.496          50.000  
E36  26444329.580   138965850.680          50.000    26444335.020   103773185.797          50.000  
> 2020  5 21 18  9 46.0000000  0 15       0.000000000000
G 1  24375703.400   128095110.688          50.000    24375705.680    95655433.852          50.000  
G 6  23584360.340   123936582.605          50.000    23584364.300    92550040.535          50.000  
G13  22175091.240   116530878.965          50.000                                                  
G15  23083700.980   121305649.688          50.000                                                  
G17  20554655.980   108015446.977          50.000                                                  
G19  20250089.220   106414958.547          50.000                                                  
G24  23293219.060   122406633.219          50.000    23293221.880    91407547.227          50.000  
G28  21771048.140   114407625.063          50.000                                                  
G30  22668417.440   119123277.516          50.000    22668419.540    88955692.281          50.000  
E 2  25964419.500   136443934.930          50.000    25964423.260   101889941.449          50.000  
E 7  26844604.760   141069300.184          50.000    26844610.980   105343940.410          50.000  
E15  25321830.320   133067073.508          50.000    25321836.180    99368253.813          50.000  
E27  25473093.840   133861982.492          50.000    25473098.240    99961856.973          50.000  
E30  22464601.220   118052264.969          50.000    22464604.820    88155903.645          50.000  
E36  26444704.700   138967822.000          50.000    26444710.160   103774657.891          50.000  
> 2020  5 21 18  9 51.0000000  0 15       0.000000000000
G 1  24377836.220   128106318.980          50.000    24377838.500    95663803.734          50.000  
G 6  23581114.020   123919523.539          50.000    23581117.980    92537301.734          50.000  
G13  22177451.400   116543281.859          50.000                                                  
G15  23085108.460   121313046.211          50.000                                                  
G17  20555560.260   108020199.184          50.000                                                  
G19  20249058.820   106409544.082          50.000                                                  
G24  23290256.040   122391062.691          50.000    23290258.840    91395919.973          50.000  
G28  21772323.200   114414325.527          50.000                                                  
G30  22671302.820   119138440.289          50.000    22671304.900    88967015.148          50.000  
E 2  25965950.020   136451978.059          50.000    25965953.780   101895947.719          50.000  
E 7  26846800.540   141080839.133          50.000    26846806.760   105352557.172          50.000  
E15  25319104.660   133052750.145          50.000    25319110.500    99357557.828          50.000  
E27  25471436.440   133853272.953          50.000    25471440.820    99955353.152          50.000  
E30  22464570.060   118052101.305          50.000    22464573.640    88155781.477          50.000  
E36  26446581.780   138977686.285          50.000    26446587.220   103782024.137          50.000  
> 2020  5 21 18  9 52.0000000  0 15       0.000000000000
G 1  24378263.020   128108561.793          50.000    24378265.300    95665478.563          50.000  
G 6  23580464.800   123916111.809          50.000    23580468.740    92534754.016          50.000  
G13  22177923.740   116545764.063          50.000                                                  
G15  23085390.360   121314527.551          50.000                                                  
G17  20555741.360   108021150.895          50.000                                                  
G19  20248853.120   106408463.066          50.000                                                  
G24  23289663.640   122387949.707          50.000    23289666.460    91393595.340          50.000  
G28  21772578.200   114415665.516          50.000                                                  
G30  22671879.980   119141473.367          50.000    22671882.080    88969280.109          50.000  
E 2  25966256.080   136453586.367          50.000    25966259.820   101897148.730          50.000  
E 7  26847239.900   141083147.930          50.000    26847246.100   105354281.273          50.000  
E15  25318559.620   133049885.977          50.000    25318565.460    99355419.000          50.000  
E27  25471105.060   133851531.578          50.000    25471109.460    99954052.773          50.000  
E30  22464563.880   118052068.844          50.000    22464567.460    88155757.234          50.000  
E36  26446957.300   138979659.727          50.000    26446962.740   103783497.809          50.000  
> 2020  5 21 18  9 53.0000000  0 15       0.000000000000
G 1  24378689.920   128110805.141          50.000    24378692.180    95667153.789          50.000  
G 6  23579815.580   123912700.195          50.000    23579819.540    92532206.383          50.000  
G13  22178396.180   116548246.680          50.000                                                  
G15  23085672.340   121316009.359          50.000                                                  
G17  20555922.560   108022103.082          50.000                                                  
G19  20248647.520   106407382.645          50.000                                                  
G24  23289071.320   122384836.957          50.000    23289074.120    91391270.887          50.000  
G28  21772833.200   114417005.594          50.000                                                  
G30  22672457.220   119144506.754          50.000    22672459.320    88971545.297          50.000  
E 2  25966562.160   136455194.797          50.000    25966565.900   101898349.828          50.000  
E 7  26847679.280   141085456.883          50.000    26847685.480   105356005.492          50.000  
E15  25318014.620   133047022.000          50.000    25318020.480    99353280.320          50.000  
E27  25470773.680   133849790.199          50.000    25470778.080    99952752.395          50.000  
E30  22464557.720   118052036.500          50.000    22464561.300    88155733.082          50.000  
E36  26447332.900   138981633.516          50.000    26447338.340   103784971.742          50.000  
> 2020  5 21 18  9 54.0000000  0 15       0.000000000000
G 1  24379116.920   128113049.031          50.000    24379119.180    95668829.422          50.000  
G 6  23579166.400   123909288.699          50.000    23579170.340    92529658.836          50.000  
G13  22178868.680   116550729.727          50.000                                                  
G15  23085954.400   121317491.648          50.000                                                  
G17  20556103.840   108023055.738          50.000                                                  
G19  20248442.040   106406302.836          50.000                                                  
G24  23288479.020   122381724.418          50.000    23288481.820    91388946.590          50.000  
G28  21773088.240   114418345.789          50.000                                                  
G30  22673034.520   119147540.477          50.000    22673036.620    88973810.738          50.000  
E 2  25966868.240   136456803.336          50.000    25966872.000   101899551.008          50.000  
E 7  26848118.680   141087765.980          50.000    26848124.900   105357729.816          50.000  
E15  25317469.660   133044158.227          50.000    25317475.520    99351141.789          50.000  
E27  25470442.320   133848048.848          50.000    25470446.720    99951452.039          50.000  
E30  22464551.600   118052004.301          50.000    22464555.180    88155709.039          50.000  
E36  26447708.580   138983607.660          50.000    26447714.020   103786445.938          50.000  
> 2020  5 21 18  9 55.0000000  0 15       0.000000000000
G 1  24379544.020   128115293.461          50.000    24379546.280    95670505.457          50.000  
G 6  23578517.240   123905877.309          50.000    23578521.180    92527111.375          50.000  
G13  22179341.260   116553213.168          50.000                                                  
G15  23086236.560   121318974.406          50.000                                                  
G17  20556285.220   108024008.863          50.000                                                  
G19  20248236.680   106405223.625          50.000                                                  
G24  23287886.760   122378612.082          50.000    23287889.560    91386622.441          50.000  
G28  21773343.280   114419686.043          50.000                                                  
G30  22673611.880   119150574.500          50.000    22673613.980    88976076.406          50.000  
E 2  25967174.360   136458411.980          50.000    25967178.120   101900752.270          50.000  
E 7  26848558.120   141090075.223          50.000    26848564.320   105359454.250          50.000  
E15  25316924.740   133041294.652          50.000    25316930.600    99349003.406          50.000  
E27  25470110.960   133846307.516          50.000    25470115.340    99950151.691          50.000  
E30  22464545.500   118051972.246          50.000    22464549.080    88155685.102          50.000  
E36  26448084.320   138985582.156          50.000    26448089.740   103787920.398          50.000  
> 2020  5 21 18  9 56.0000000  0 15       0.000000000000
G 1  24379971.220   128117538.430          50.000    24379973.500    95672181.891          50.000  
G 6  23577868.080   123902466.027          50.000    23577872.040    92524563.988          50.000  
G13  22179813.920   116555697.023          50.000                                                  
G15  23086518.820   121320457.641          50.000                                                  
G17  20556466.680   108024962.449          50.000                                                  
G19  20248031.420   106404145.008          50.000                                                  
G24  23287294.540   122375499.965          50.000    23287297.340    91384298.461          50.000  
G28  21773598.340   114421026.410          50.000                                                  
G30  22674189.300   119153608.855          50.000    22674191.400    88978342.316          50.000  
E 2  25967480.500   136460020.746          50.000    25967484.240   101901953.621          50.000  
E 7  26848997.580   141092384.617          50.000    26849003.800   105361178.797          50.000  
E15  25316379.860   133038431.281          50.000    25316385.700    99346865.172          50.000  
E27  25469779.600   133844566.207          50.000    25469783.980    99948851.367          50.000  
E30  22464539.420   118051940.313          50.000    22464543.000    88155661.254          50.000  
E36  26448460.120   138987557.000          50.000    26448465.560   103789395.121          50.000  
> 2020  5 21 18  9 57.0000000  0 15       0.000000000000
G 1  24380398.520   128119783.941          50.000    24380400.800    95673858.734          50.000  
G 6  23577218.960   123899054.859          50.000    23577222.900    92522016.691          50.000  
G13  22180286.660   116558181.301          50.000                                                  
G15  23086801.160   121321941.359          50.000                                                  
G17  20556648.240   108025916.520          50.000                                                  
G19  20247826.280   106403067.012          50.000                                                  
G24  23286702.360   122372388.063          50.000    23286705.160    91381974.641          50.000  
G28  21773853.420   114422366.871          50.000                                                  
G30  22674766.780   119156643.520          50.000    22674768.860    88980608.465          50.000  
E 2  25967786.660   136461629.621          50.000    25967790.400   101903155.051          50.000  
E 7  26849437.080   141094694.160          50.000    26849443.280   105362903.453          50.000  
E15  25315835.020   133035568.090          50.000    25315840.860    99344727.078          50.000  
E27  25469448.240   133842824.910          50.000    25469452.620    99947551.047          50.000  
E30  22464533.360   118051908.516          50.000    22464536.960    88155637.512          50.000  
E36  26448835.980   138989532.195          50.000    26448841.420   103790870.102          50.000  
> 2020  5 21 18  9 58.0000000  0 15       0.000000000000
G 1  24380825.940   128122029.996          50.000    24380828.220    95675535.980          50.000  
G 6  23576569.860   123895643.813          50.000    23576573.800    92519469.480          50.000  
G13  22180759.500   116560665.988          50.000                                                  
G15  23087083.580   121323425.543          50.000                                                  
G17  20556829.880   108026871.051          50.000                                                  
G19  20247621.260   106401989.613          50.000                                                  
G24  23286110.220   122369276.359          50.000    23286113.040    91379650.969          50.000  
G28  21774108.520   114423707.430          50.000                                                  
G30  22675344.320   119159678.512          50.000    22675346.420    88982874.852          50.000  
E 2  25968092.840   136463238.594          50.000    25968096.580   101904356.559          50.000  
E 7  26849876.600   141097003.855          50.000    26849882.800   105364628.227          50.000  
E15  25315290.220   133032705.105          50.000    25315296.060    99342589.137          50.000  
E27  25469116.880   133841083.621          50.000    25469121.280    99946250.734          50.000  
E30  22464527.340   118051876.852          50.000    22464530.920    88155613.867          50.000  
E36  26449211.920   138991507.746          50.000    26449217.360   103792345.352          50.000  
> 2020  5 21 18  9 59.0000000  0 15       0.000000000000
G 1  24381253.460   128124276.586          50.000    24381255.720    95677213.629          50.000  
G 6  23575920.780   123892232.871          50.000    23575924.720    92516922.352          50.000  
G13  22181232.400   116563151.094          50.000                                                  
G15  23087366.100   121324910.199          50.000                                                  
G17  20557011.600   108027826.051          50.000                                                  
G19  20247416.360   106400912.813          50.000                                                  
G24  23285518.140   122366164.906          50.000    23285520.940    91377327.480          50.000  
G28  21774363.640   114425048.082          50.000                                                  
G30  22675921.920   119162713.809          50.000    22675924.000    88985141.469          50.000  
E 2  25968399.040   136464847.691          50.000    25968402.780   101905558.156          50.000  
E 7  26850316.140   141099313.684          50.000    26850322.360   105366353.098          50.000  
E15  25314745.440   133029842.313          50.000    25314751.280    99340451.340          50.000  
E27  25468785.520   133839342.359          50.000    25468789.920    99944950.441          50.000  
E30  22464521.340   118051845.324          50.000    22464524.920    88155590.320          50.000  
E36  26449587.920   138993483.645          50.000    26449593.360   103793820.859          50.000  
> 2020  5 21 18 10  0.0000000  0 15       0.000000000000
G 1  24381681.060   128126523.723          50.000    24381683.340    95678891.684          50.000  
G 6  23575271.720   123888822.027          50.000    23575275.660    92514375.293          50.000  
G13  22181705.380   116565636.617          50.000                                                  
G15  23087648.720   121326395.332          50.000                                                  
G17  20557193.420   108028781.523          50.000                                                  
G19  20247211.560   106399836.621          50.000                                                  
G24  23284926.080   122363053.695          50.000    23284928.900    91375004.176          50.000  
G28  21774618.780   114426388.836          50.000                                                  
G30  22676499.580   119165749.434          50.000    22676501.680    88987408.328          50.000  
E 2  25968705.260   136466456.906          50.000    25968709.020   101906759.840          50.000  
E 7  26850755.720   141101623.676          50.000    26850761.940   105368078.090          50.000  
E15  25314200.700   133026979.734          50.000    25314206.540    99338313.699          50.000  
E27  25468454.180   133837601.109          50.000    25468458.580    99943650.156          50.000  
E30  22464515.360   118051813.938          50.000    22464518.960    88155566.887          50.000  
E36  26449963.980   138995459.898          50.000    26449969.420   103795296.633          50.000  
> 2020  5 21 18 10  1.0000000  0 15       0.000000000000
G 1  24382108.780   128128771.410          50.000    24382111.060    95680570.152          50.000  
G 6  23574622.680   123885411.309          50.000    23574626.620    92511828.332          50.000  
G13  22182178.420   116568122.539          50.000                                                  
G15  23087931.420   121327880.941          50.000                                                  
G17  20557375.340   108029737.461          50.000                                                  
G19  20247006.880   106398761.027          50.000                                                  
G24  23284334.080   122359942.691          50.000    23284336.880    91372681.023          50.000  
G28  21774873.940   114427729.676          50.000                                                  
G30  22677077.300   119168785.371          50.000    22677079.400    88989675.426          50.000  
E 2  25969011.500   136468066.227          50.000    25969015.260   101907961.609          50.000  
E 7  26851195.320   141103933.801          50.000    26851201.540   105369803.184          50.000  
E15  25313656.000   133024117.336          50.000    25313661.840    99336176.195          50.000  
E27  25468122.840   133835859.879          50.000    25468127.220    99942349.891          50.000  
E30  22464509.420   118051782.680          50.000    22464513.000    88155543.539          50.000  
E36  26450340.120   138997436.508          50.000    26450345.560   103796772.672          50.000  
> 2020  5 21 18 10  2.0000000  0 15       0.000000000000
G 1  24382536.620   128131019.641          50.000    24382538.880    95682249.023          50.000  
G 6  23573973.660   123882000.703          50.000    23573977.600    92509281.449          50.000  
G13  22182651.560   116570608.855          50.000                                                  
G15  23088214.220   121329367.027          50.000                                                  
G17  20557557.340   108030693.867          50.000                                                  
G19  20246802.320   106397686.039          50.000                                                  
G24  23283742.120   122356831.895          50.000    23283744.920    91370358.027          50.000  
G28  21775129.100   114429070.605          50.000                                                  
G30  22677655.080   119171821.641          50.000    22677657.180    88991942.766          50.000  
E 2  25969317.780   136469675.664          50.000    25969321.520   101909163.457          50.000  
E 7  26851634.960   141106244.098          50.000    26851641.160   105371528.402          50.000  
E15  25313111.360   133021255.152          50.000    25313117.200    99334038.852          50.000  
E27  25467791.500   133834118.660          50.000    25467795.880    99941049.629          50.000  
E30  22464503.500   118051751.551          50.000    22464507.080    88155520.297          50.000  
E36  26450716.320   138999413.465          50.000    26450721.760   103798248.969          50.000  
> 2020  5 21 18 10  3.0000000  0 15       0.000000000000
G 1  24382964.540   128133268.402          50.000    24382966.820    95683928.293          50.000  
G 6  23573324.660   123878590.211          50.000    23573328.600    92506734.656          50.000  
G13  22183124.780   116573095.609          50.000                                                  
G15  23088497.100   121330853.586          50.000                                                  
G17  20557739.420   108031650.750          50.000                                                  
G19  20246597.860   106396611.656          50.000                                                  
G24  23283150.200   122353721.328          50.000    23283153.000    91368035.203          50.000  
G28  21775384.300   114430411.641          50.000                                                  
G30  22678232.920   119174858.215          50.000    22678235.020    88994210.340          50.000  
E 2  25969624.060   136471285.211          50.000    25969627.800   101910365.395          50.000  
E 7  26852074.620   141108554.523          50.000    26852080.820   105373253.723          50.000  
E15  25312566.740   133018393.160          50.000    25312572.580    99331901.652          50.000  
E27  25467460.160   133832377.461          50.000    25467464.540    99939749.383          50.000  
E30  22464497.600   118051720.574          50.000    22464501.180    88155497.164          50.000  
E36  26451092.600   139001390.770          50.000    26451098.040   103799725.531          50.000  
> 2020  5 21 18 10  4.0000000  0 15       0.000000000000
G 1  24383392.560   128135517.711          50.000    24383394.840    95685607.969          50.000  
G 6  23572675.680   123875179.828          50.000    23572679.640    92504187.945          50.000  
G13  22183598.060   116575582.754          50.000                                                  
G15  23088780.080   121332340.621          50.000                                                  
G17  20557921.600   108032608.102          50.000                                                  
G19  20246393.540   106395537.879          50.000                                                  
G24  23282558.320   122350610.977          50.000    23282561.120    91365712.539          50.000  
G28  21775639.500   114431752.770          50.000                                                  
G30  22678810.820   119177895.109          50.000    22678812.920    88996478.148          50.000  
E 2  25969930.360   136472894.852          50.000    25969934.120   101911567.395          50.000  
E 7  26852514.300   141110865.102          50.000    26852520.520   105374979.152          50.000  
E15  25312022.160   133015531.367          50.000    25312028.000    99329764.598          50.000  
E27  25467128.820   133830636.289          50.000    25467133.200    99938449.160          50.000  
E30  22464491.720   118051689.719          50.000    22464495.320    88155474.125          50.000  
E36  26451468.940   139003368.438          50.000    26451474.380   103801202.359          50.000  
> 2020  5 21 18 10  5.0000000  0 15       0.000000000000
G 1  24383820.700   128137767.555          50.000    24383822.980    95687288.047          50.000  
G 6  23572026.740   123871769.559          50.000    23572030.680    92501641.316          50.000  
G13  22184071.440   116578070.328          50.000                                                  
G15  23089063.140   121333828.133          50.000                                                  
G17  20558103.860   108033565.930          50.000                                                  
G19  20246189.320   106394464.707          50.000                                                  
G24  23281966.480   122347500.848          50.000    23281969.280    91363390.043          50.000  
G28  21775894.720   114433093.996          50.000                                                  
G30  22679388.780   119180932.320          50.000    22679390.880    88998746.195          50.000  
E 2  25970236.700   136474504.629          50.000    25970240.440   101912769.500          50.000  
E 7  26852954.020   141113175.828          50.000    26852960.240   105376704.691          50.000  
E15  25311477.600   133012669.770          50.000    25311483.440    99327627.691          50.000  
E27  25466797.480   133828895.117          50.000    25466801.880    99937148.934          50.000  
E30  22464485.880   118051658.992          50.000    22464489.460    88155451.180          50.000  
E36  26451845.340   139005346.441          50.000    26451850.780   103802679.438          50.000  
> 2020  5 21 18 10  6.0000000  0 15       0.000000000000
G 1  24384248.940   128140017.945          50.000    24384251.220    95688968.531          50.000  
G 6  23571377.800   123868359.406          50.000    23571381.740    92499094.773          50.000  
G13  22184544.880   116580558.324          50.000                                                  
G15  23089346.300   121335316.121          50.000                                                  
G17  20558286.220   108034524.230          50.000                                                  
G19  20245985.220   106393392.137          50.000                                                  
G24  23281374.680   122344390.922          50.000    23281377.480    91361067.695          50.000  
G28  21776149.980   114434435.309          50.000                                                  
G30  22679966.820   119183969.852          50.000    22679968.900    89001014.480          50.000  
E 2  25970543.040   136476114.512          50.000    25970546.800   101913971.688          50.000  
E 7  26853393.760   141115486.699          50.000    26853399.980   105378430.344          50.000  
E15  25310933.100   133009808.383          50.000    25310938.940    99325490.945          50.000  
E27  25466466.160   133827153.973          50.000    25466470.540    99935848.727          50.000  
E30  22464480.060   118051628.414          50.000    22464483.640    88155428.344          50.000  
E36  26452221.800   139007324.813          50.000    26452227.240   103804156.789          50.000  
> 2020  5 21 18 10  7.0000000  0 15       0.000000000000
G 1  24384677.280   128142268.867          50.000    24384679.540    95690649.418          50.000  
G 6  23570728.900   123864949.363          50.000    23570732.840    92496548.313          50.000  
G13  22185018.400   116583046.719          50.000                                                  
G15  23089629.540   121336804.586          50.000                                                  
G17  20558468.680   108035483.000          50.000                                                  
G19  20245781.220   106392320.168          50.000                                                  
G24  23280782.920   122341281.227          50.000    23280785.720    91358745.523          50.000  
G28  21776405.240   114435776.723          50.000                                                  
G30  22680544.900   119187007.695          50.000    22680547.000    89003283.000          50.000  
E 2  25970849.420   136477724.496          50.000    25970853.160   101915173.945          50.000  
E 7  26853833.540   141117797.719          50.000    26853839.760   105380156.105          50.000  
E15  25310388.640   133006947.180          50.000    25310394.480    99323354.332          50.000  
E27  25466134.820   133825412.844          50.000    25466139.220    99934548.535          50.000  
E30  22464474.260   118051597.961          50.000    22464477.860    88155405.602          50.000  
E36  26452598.340   139009303.523          50.000    26452603.780   103805634.402          50.000  
> 2020  5 21 18 10  8.0000000  0 15       0.000000000000
G 1  24385105.720   128144520.332          50.000    24385107.980    95692330.703          50.000  
G 6  23570080.000   123861539.430          50.000    23570083.940    92494001.938          50.000  
G13  22185492.000   116585535.500          50.000                                                  
G15  23089912.880   121338293.523          50.000                                                  
G17  20558651.200   108036442.219          50.000                                                  
G19  20245577.340   106391248.797          50.000                                                  
G24  23280191.200   122338171.738          50.000    23280194.000    91356423.504          50.000  
G28  21776660.520   114437118.234          50.000                                                  
G30  22681123.040   119190045.863          50.000    22681125.140    89005551.758          50.000  
E 2  25971155.800   136479334.609          50.000    25971159.560   101916376.305          50.000  
E 7  26854273.340   141120108.898          50.000    26854279.560   105381881.984          50.000  
E15  25309844.200   133004086.184          50.000    25309850.040    99321217.875          50.000  
E27  25465803.500   133823671.734          50.000    25465807.900    99933248.355          50.000  
E30  22464468.500   118051567.660          50.000    22464472.080    88155382.977          50.000  
E36  26452974.940   139011282.594          50.000    26452980.380   103807112.277          50.000  
> 2020  5 21 18 10  9.0000000  0 15       0.000000000000
G 1  24385534.260   128146772.344          50.000    24385536.540    95694012.398          50.000  
G 6  23569431.140   123858129.613          50.000    23569435.080    92491455.648          50.000  
G13  22185965.700   116588024.730          50.000                                                  
G15  23090196.300   121339782.938          50.000                                                  
G17  20558833.840   108037401.934          50.000                                                  
G19  20245373.600   106390178.035          50.000                                                  
G24  23279599.520   122335062.473          50.000    23279602.340    91354101.652          50.000  
G28  21776915.820   114438459.832          50.000                                                  
G30  22681701.240   119193084.348          50.000    22681703.340    89007820.754          50.000  
E 2  25971462.220   136480944.820          50.000    25971465.980   101917578.734          50.000  
E 7  26854713.180   141122420.219          50.000    26854719.380   105383607.969          50.000  
E15  25309299.800   133001225.379          50.000    25309305.640    99319081.563          50.000  
E27  25465472.180   133821930.645          50.000    25465476.580    99931948.191          50.000  
E30  22464462.760   118051537.484          50.000    22464466.340    88155360.441          50.000  
E36  26453351.620   139013262.016          50.000    26453357.060   103808590.414          50.000  
> 2020  5 21 18 10 10.0000000  0 15       0.000000000000
G 1  24385962.900   128149024.898          50.000    24385965.180    95695694.500          50.000  
G 6  23568782.280   123854719.914          50.000    23568786.240    92488909.445          50.000  
G13  22186439.460   116590514.367          50.000                                                  
G15  23090479.820   121341272.809          50.000                                                  
G17  20559016.560   108038362.109          50.000                                                  
G19  20245169.940   106389107.879          50.000                                                  
G24  23279007.900   122331953.406          50.000    23279010.700    91351779.945          50.000  
G28  21777171.140   114439801.527          50.000                                                  
G30  22682279.520   119196123.160          50.000    22682281.600    89010089.996          50.000  
E 2  25971768.660   136482555.160          50.000    25971772.420   101918781.258          50.000  
E 7  26855153.040   141124731.684          50.000    26855159.240   105385334.063          50.000  
E15  25308755.460   132998364.793          50.000    25308761.300    99316945.410          50.000  
E27  25465140.880   133820189.574          50.000    25465145.260    99930648.043          50.000  
E30  22464457.040   118051507.441          50.000    22464460.620    88155338.008          50.000  
E36  26453728.360   139015241.781          50.000    26453733.800   103810068.813          50.000  
> 2020  5 21 18 10 11.0000000  0 15       0.000000000000
G 1  24386391.660   128151277.996          50.000    24386393.940    95697377.004          50.000  
G 6  23568133.460   123851310.332          50.000    23568137.400    92486363.332          50.000  
G13  22186913.300   116593004.414          50.000                                                  
G15  23090763.420   121342763.164          50.000                                                  
G17  20559199.360   108039322.754          50.000                                                  
G19  20244966.420   106388038.328          50.000                                                  
G24  23278416.300   122328844.570          50.000    23278419.100    91349458.414          50.000  
G28  21777426.460   114441143.313          50.000                                                  
G30  22682857.840   119199162.270          50.000    22682859.940    89012359.461          50.000  
E 2  25972075.120   136484165.582          50.000    25972078.860   101919983.848          50.000  
E 7  26855592.920   141127043.301          50.000    26855599.140   105387060.270          50.000  
E15  25308211.140   132995504.383          50.000    25308216.980    99314809.391          50.000  
E27  25464809.560   133818448.516          50.000    25464813.940    99929347.906          50.000  
E30  22464451.360   118051477.535          50.000    22464454.940    88155315.676          50.000  
E36  26454105.160   139017221.906          50.000    26454110.600   103811547.477          50.000  
> 2020  5 21 18 10 12.0000000  0 15       0.000000000000
G 1  24386820.500   128153531.633          50.000    24386822.780    95699059.918          50.000  
G 6  23567484.660   123847900.859          50.000    23567488.600    92483817.297          50.000  
G13  22187387.220   116595494.863          50.000                                                  
G15  23091047.120   121344254.000          50.000                                                  
G17  20559382.240   108040283.840          50.000                                                  
G19  20244763.000   106386969.379          50.000                                                  
G24  23277824.740   122325735.922          50.000    23277827.540    91347137.023          50.000  
G28  21777681.820   114442485.195          50.000                                                  
G30  22683436.220   119202201.695          50.000    22683438.320    89014629.160          50.000  
E 2  25972381.600   136485776.137          50.000    25972385.340   101921186.535          50.000  
E 7  26856032.840   141129355.063          50.000    26856039.040   105388786.582          50.000  
E15  25307666.860   132992644.180          50.000    25307672.700    99312673.527          50.000  
E27  25464478.240   133816707.477          50.000    25464482.640    99928047.777          50.000  
E30  22464445.680   118051447.762          50.000    22464449.280    88155293.441          50.000  
E36  26454482.040   139019202.375          50.000    26454487.480   103813026.398          50.000  
> 2020  5 21 18 10 13.0000000  0 15       0.000000000000
G 1  24387249.460   128155785.809          50.000    24387251.740    95700743.227          50.000  
G 6  23566835.880   123844491.496          50.000    23566839.820    92481271.348          50.000  
G13  22187861.220   116597985.742          50.000                                                  
G15  23091330.900   121345745.309          50.000                                                  
G17  20559565.220   108041245.434          50.000                                                  
G19  20244559.700   106385901.031          50.000                                                  
G24  23277233.240   122322627.539          50.000    23277236.040    91344815.832          50.000  
G28  21777937.180   114443827.176          50.000                                                  
G30  22684014.660   119205241.449          50.000    22684016.760    89016899.105          50.000  
E 2  25972688.100   136487386.801          50.000    25972691.840   101922389.301          50.000  
E 7  26856472.780   141131666.977          50.000    26856478.980   105390513.012          50.000  
E15  25307122.620   132989784.176          50.000    25307128.460    99310537.809          50.000  
E27  25464146.940   133814966.449          50.000    25464151.340    99926747.660          50.000  
E30  22464440.040   118051418.121          50.000    22464443.640    88155271.309          50.000  
E36  26454858.980   139021183.191          50.000    26454864.420   103814505.574          50.000  
> 2020  5 21 18 10 14.0000000  0 15       0.000000000000
G 1  24387678.520   128158040.531          50.000    24387680.800    95702426.949          50.000  
G 6  23566187.120   123841082.254          50.000    23566191.060    92478725.484          50.000  
G13  22188335.280   116600477.008          50.000                                                  
G15  23091614.780   121347237.082          50.000                                                  
G17  20559748.300   108042207.473          50.000                                                  
G19  20244356.520   106384833.285          50.000                                                  
G24  23276641.760   122319519.348          50.000    23276644.560    91342494.777          50.000  
G28  21778192.580   114445169.250          50.000                                                  
G30  22684593.180   119208281.523          50.000    22684595.280    89019169.289          50.000  
E 2  25972994.620   136488997.590          50.000    25972998.360   101923592.164          50.000  
E 7  26856912.740   141133979.020          50.000    26856918.960   105392239.539          50.000  
E15  25306578.420   132986924.379          50.000    25306584.260    99308402.250          50.000  
E27  25463815.640   133813225.441          50.000    25463820.020    99925447.559          50.000  
E30  22464434.440   118051388.621          50.000    22464438.020    88155249.277          50.000  
E36  26455235.980   139023164.363          50.000    26455241.420   103815985.020          50.000  
> 2020  5 21 18 10 15.0000000  0 15       0.000000000000
G 1  24388107.680   128160295.785          50.000    24388109.960    95704111.066          50.000  
G 6  23565538.380   123837673.121          50.000    23565542.320    92476179.703          50.000  
G13  22188809.440   116602968.711          50.000                                                  
G15  23091898.740   121348729.340          50.000                                                  
G17  20559931.460   108043170.004          50.000                                                  
G19  20244153.440   106383766.145          50.000                                                  
G24  23276050.340   122316411.406          50.000    23276053.140    91340173.914          50.000  
G28  21778447.980   114446511.422          50.000                                                  
G30  22685171.740   119211321.914          50.000    22685173.840    89021439.711          50.000  
E 2  25973301.160   136490608.477          50.000    25973304.920   101924795.098          50.000  
E 7  26857352.740   141136291.223          50.000    26857358.960   105393966.180          50.000  
E15  25306034.240   132984064.770          50.000    25306040.080    99306266.828          50.000  
E27  25463484.340   133811484.457          50.000    25463488.720    99924147.473          50.000  
E30  22464428.840   118051359.262          50.000    22464432.440    88155227.352          50.000  
E36  26455613.040   139025145.887          50.000    26455618.500   103817464.730          50.000  
> 2020  5 21 18 10 16.0000000  0 15       0.000000000000
G 1  24388536.960   128162551.582          50.000    24388539.220    95705795.590          50.000  
G 6  23564889.660   123834264.098          50.000    23564893.600    92473634.012          50.000  
G13  22189283.680   116605460.813          50.000                                                  
G15  23092182.800   121350222.059          50.000                                                  
G17  20560114.720   108044132.980          50.000                                                  
G19  20243950.500   106382699.621          50.000                                                  
G24  23275458.960   122313303.660          50.000    23275461.760    91337853.195          50.000  
G28  21778703.400   114447853.691          50.000                                                  
G30  22685750.360   119214362.617          50.000    22685752.460    89023710.363          50.000  
E 2  25973607.720   136492219.492          50.000    25973611.480   101925998.125          50.000  
E 7  26857792.760   141138603.578          50.000    26857798.980   105395692.941          50.000  
E15  25305490.120   132981205.367          50.000    25305495.960    99304131.563          50.000  
E27  25463153.040   133809743.488          50.000    25463157.440    99922847.398          50.000  
E30  22464423.280   118051330.035          50.000    22464426.880    88155205.531          50.000  
E36  26455990.180   139027127.766          50.000    26455995.640   103818944.703          50.000  
> 2020  5 21 18 10 17.0000000  0 15       0.000000000000
G 1  24388966.320   128164807.918          50.000    24388968.600    95707480.516          50.000  
G 6  23564240.980   123830855.191          50.000    23564244.920    92471088.398          50.000  
G13  22189757.980   116607953.336          50.000                                                  
G15  23092466.960   121351715.262          50.000                                                  
G17  20560298.060   108045096.438          50.000                                                  
G19  20243747.660   106381633.691          50.000                                                  
G24  23274867.620   122310196.164          50.000    23274870.420    91335532.664          50.000  
G28  21778958.860   114449196.051          50.000                                                  
G30  22686329.060   119217403.645          50.000    22686331.160    89025981.262          50.000  
E 2  25973914.300   136493830.598          50.000    25973918.060   101927201.227          50.000  
E 7  26858232.820   141140916.078          50.000    26858239.040   105397419.805          50.000  
E15  25304946.040   132978346.164          50.000    25304951.860    99301996.445          50.000  
E27  25462821.760   133808002.531          50.000    25462826.140    99921547.336          50.000  
E30  22464417.740   118051300.938          50.000    22464421.340    88155183.801          50.000  
E36  26456367.400   139029109.988          50.000    26456372.840   103820424.934          50.000  
> 2020  5 21 18 10 18.0000000  0 15       0.000000000000
G 1  24389395.780   128167064.797          50.000    24389398.060    95709165.844          50.000  
G 6  23563592.300   123827446.410          50.000    23563596.240    92468542.883          50.000  
G13  22190232.380   116610446.270          50.000                                                  
G15  23092751.200   121353208.949          50.000                                                  
G17  20560481.480   108046060.359          50.000                                                  
G19  20243544.920   106380568.363          50.000                                                  
G24  23274276.320   122307088.867          50.000    23274279.120    91333212.281          50.000  
G28  21779214.320   114450538.504          50.000                                                  
G30  22686907.800   119220444.996          50.000    22686909.900    89028252.398          50.000  
E 2  25974220.920   136495441.816          50.000    25974224.660   101928404.406          50.000  
E 7  26858672.900   141143228.723          50.000    26858679.120   105399146.781          50.000  
E15  25304401.980   132975487.160          50.000    25304407.820    99299861.477          50.000  
E27  25462490.460   133806261.590          50.000    25462494.840    99920247.281          50.000  
E30  22464412.240   118051271.980          50.000    22464415.820    88155162.176          50.000  
E36  26456744.660   139031092.574          50.000    26456750.100   103821905.434          50.000  
> 2020  5 21 18 10 19.0000000  0 15       0.000000000000
G 1  24389825.360   128169322.211          50.000    24389827.640    95710851.574          50.000  
G 6  23562943.660   123824037.734          50.000    23562947.600    92465997.445          50.000  
G13  22190706.840   116612939.621          50.000                                                  
G15  23093035.520   121354703.102          50.000                                                  
G17  20560665.000   108047024.750          50.000                                                  
G19  20243342.320   106379503.645          50.000                                                  
G24  23273685.060   122303981.801          50.000    23273687.860    91330892.070          50.000  
G28  21779469.800   114451881.055          50.000                                                  
G30  22687486.620   119223486.648          50.000    22687488.720    89030523.762          50.000  
E 2  25974527.540   136497053.160          50.000    25974531.300   101929607.680          50.000  
E 7  26859113.020   141145541.520          50.000    26859119.240   105400873.867          50.000  
E15  25303857.960   132972628.352          50.000    25303863.800    99297726.648          50.000  
E27  25462159.180   133804520.676          50.000    25462163.560    99918947.250          50.000  
E30  22464406.740   118051243.156          50.000    22464410.340    88155140.652          50.000  
E36  26457122.000   139033075.504          50.000    26457127.440   103823386.195          50.000  
> 2020  5 21 18 10 20.0000000  0 15       0.000000000000
G 1  24390255.040   128171580.164          50.000    24390257.320    95712537.707          50.000  
G 6  23562295.020   123820629.184          50.000    23562298.960    92463452.102          50.000  
G13  22191181.400   116615433.379          50.000                                                  
G15  23093319.940   121356197.715          50.000                                                  
G17  20560848.600   108047989.605          50.000                                                  
G19  20243139.820   106378439.516          50.000                                                  
G24  23273093.860   122300874.984          50.000    23273096.660    91328572.047          50.000  
G28  21779725.300   114453223.711          50.000                                                  
G30  22688065.480   119226528.629          50.000    22688067.580    89032795.371          50.000  
E 2  25974834.200   136498664.605          50.000    25974837.940   101930811.031          50.000  
E 7  26859553.160   141147854.445          50.000    26859559.360   105402601.055          50.000  
E15  25303314.000   132969769.746          50.000    25303319.820    99295591.977          50.000  
E27  25461827.900   133802779.773          50.000    25461832.280    99917647.223          50.000  
E30  22464401.280   118051214.453          50.000    22464404.880    88155119.219          50.000  
E36  26457499.420   139035058.781          50.000    26457504.860   103824867.211          50.000  
> 2020  5 21 18 10 21.0000000  0 15       0.000000000000
G 1  24390684.820   128173838.656          50.000    24390687.100    95714224.242          50.000  
G 6  23561646.420   123817220.734          50.000    23561650.360    92460906.828          50.000  
G13  22191656.020   116617927.547          50.000                                                  
G15  23093604.440   121357692.805          50.000                                                  
G17  20561032.300   108048954.953          50.000                                                  
G19  20242937.440   106377375.996          50.000                                                  
G24  23272502.680   122297768.359          50.000    23272505.480    91326252.160          50.000  
G28  21779980.800   114454566.461          50.000                                                  
G30  22688644.420   119229570.922          50.000    22688646.520    89035067.211          50.000  
E 2  25975140.860   136500276.191          50.000    25975144.620   101932014.492          50.000  
E 7  26859993.320   141150167.535          50.000    26859999.540   105404328.359          50.000  
E15  25302770.060   132966911.332          50.000    25302775.900    99293457.441          50.000  
E27  25461496.620   133801038.887          50.000    25461501.000    99916347.211          50.000  
E30  22464395.860   118051185.918          50.000    22464399.440    88155097.910          50.000  
E36  26457876.880   139037042.414          50.000    26457882.320   103826348.496          50.000  
> 2020  5 21 18 10 22.0000000  0 15       0.000000000000
G 1  24391114.700   128176097.695          50.000    24391116.980    95715911.188          50.000  
G 6  23560997.840   123813812.398          50.000    23561001.780    92458361.648          50.000  
G13  22192130.720   116620422.121          50.000                                                  
G15  23093889.040   121359188.383          50.000                                                  
G17  20561216.080   108049920.758          50.000                                                  
G19  20242735.180   106376313.074          50.000                                                  
G24  23271911.560   122294661.965          50.000    23271914.360    91323932.453          50.000  
G28  21780236.340   114455909.313          50.000                                                  
G30  22689223.400   119232613.523          50.000    22689225.500    89037339.281          50.000  
E 2  25975447.560   136501887.852          50.000    25975451.300   101933218.004          50.000  
E 7  26860433.520   141152480.781          50.000    26860439.720   105406055.781          50.000  
E15  25302226.160   132964053.117          50.000    25302231.980    99291323.063          50.000  
E27  25461165.340   133799298.027          50.000    25461169.720    99915047.219          50.000  
E30  22464390.440   118051157.504          50.000    22464394.040    88155076.691          50.000  
E36  26458254.420   139039026.406          50.000    26458259.860   103827830.047          50.000  
> 2020  5 21 18 10 23.0000000  0 15       0.000000000000
G 1  24391544.680   128178357.277          50.000    24391546.960    95717598.535          50.000  
G 6  23560349.280   123810404.184          50.000    23560353.200    92455816.555          50.000  
G13  22192605.500   116622917.113          50.000                                                  
G15  23094173.720   121360684.422          50.000                                                  
G17  20561399.960   108050887.035          50.000                                                  
G19  20242533.020   106375250.770          50.000                                                  
G24  23271320.480   122291555.785          50.000    23271323.280    91321612.906          50.000  
G28  21780491.900   114457252.242          50.000                                                  
G30  22689802.460   119235656.441          50.000    22689804.560    89039611.590          50.000  
E 2  25975754.260   136503499.660          50.000    25975758.020   101934421.625          50.000  
E 7  26860873.740   141154794.164          50.000    26860879.960   105407783.305          50.000  
E15  25301682.300   132961195.121          50.000    25301688.120    99289188.848          50.000  
E27  25460834.060   133797557.188          50.000    25460838.460    99913747.242          50.000  
E30  22464385.060   118051129.223          50.000    22464388.660    88155055.570          50.000  
E36  26458632.020   139041010.738          50.000    26458637.480   103829311.852          50.000  
> 2020  5 21 18 10 24.0000000  0 15       0.000000000000
G 1  24391974.760   128180617.398          50.000    24391977.040    95719286.285          50.000  
G 6  23559700.740   123806996.082          50.000    23559704.660    92453271.543          50.000  
G13  22193080.360   116625412.512          50.000                                                  
G15  23094458.500   121362180.934          50.000                                                  
G17  20561583.940   108051853.785          50.000                                                  
G19  20242330.980   106374189.059          50.000                                                  
G24  23270729.420   122288449.832          50.000    23270732.220    91319293.523          50.000  
G28  21780747.460   114458595.262          50.000                                                  
G30  22690381.560   119238699.695          50.000    22690383.660    89041884.145          50.000  
E 2  25976061.000   136505111.559          50.000    25976064.760   101935625.316          50.000  
E 7  26861313.980   141157107.688          50.000    26861320.200   105409510.938          50.000  
E15  25301138.480   132958337.320          50.000    25301144.300    99287054.777          50.000  
E27  25460502.800   133795816.363          50.000    25460507.180    99912447.277          50.000  
E30  22464379.720   118051101.094          50.000    22464383.300    88155034.566          50.000  
E36  26459009.700   139042995.430          50.000    26459015.140   103830793.930          50.000  
> 2020  5 21 18 10 25.0000000  0 15       0.000000000000
G 1  24392404.960   128182878.059          50.000    24392407.240    95720974.441          50.000  
G 6  23559052.220   123803588.094          50.000    23559056.140    92450726.617          50.000  
G13  22193555.300   116627908.324          50.000                                                  
G15  23094743.380   121363677.930          50.000                                                  
G17  20561767.980   108052821.004          50.000                                                  
G19  20242129.060   106373127.957          50.000                                                  
G24  23270138.420   122285344.102          50.000    23270141.220    91316974.313          50.000  
G28  21781003.040   114459938.379          50.000                                                  
G30  22690960.740   119241743.254          50.000    22690962.840    89044156.934          50.000  
E 2  25976367.760   136506723.566          50.000    25976371.520   101936829.090          50.000  
E 7  26861754.260   141159421.363          50.000    26861760.480   105411238.688          50.000  
E15  25300594.680   132955479.715          50.000    25300600.520    99284920.855          50.000  
E27  25460171.520   133794075.551          50.000    25460175.920    99911147.324          50.000  
E30  22464374.380   118051073.070          50.000    22464377.960    88155013.645          50.000  
E36  26459387.440   139044980.457          50.000    26459392.880   103832276.258          50.000  
> 2020  5 21 18 10 26.0000000  0 15       0.000000000000
G 1  24392835.240   128185139.254          50.000    24392837.520    95722662.996          50.000  
G 6  23558403.720   123800180.223          50.000    23558407.640    92448181.781          50.000  
G13  22194030.320   116630404.547          50.000                                                  
G15  23095028.340   121365175.391          50.000                                                  
G17  20561952.140   108053788.695          50.000                                                  
G19  20241927.260   106372067.457          50.000                                                  
G24  23269547.460   122282238.594          50.000    23269550.260    91314655.266          50.000  
G28  21781258.660   114461281.594          50.000                                                  
G30  22691539.960   119244787.129          50.000    22691542.080    89046429.957          50.000  
E 2  25976674.540   136508335.707          50.000    25976678.300   101938032.961          50.000  
E 7  26862194.560   141161735.184          50.000    26862200.780   105412966.539          50.000  
E15  25300050.940   132952622.313          50.000    25300056.780    99282787.082          50.000  
E27  25459840.260   133792334.750          50.000    25459844.660    99909847.379          50.000  
E30  22464369.080   118051045.199          50.000    22464372.660    88154992.832          50.000  
E36  26459765.240   139046965.848          50.000    26459770.700   103833758.855          50.000  
> 2020  5 21 18 10 27.0000000  0 15       0.000000000000
G 1  24393265.640   128187400.992          50.000    24393267.920    95724351.957          50.000  
G 6  23557755.240   123796772.469          50.000    23557759.180    92445637.031          50.000  
G13  22194505.400   116632901.176          50.000                                                  
G15  23095313.380   121366673.328          50.000                                                  
G17  20562136.360   108054756.828          50.000                                                  
G19  20241725.560   106371007.559          50.000                                                  
G24  23268956.540   122279133.270          50.000    23268959.340    91312336.355          50.000  
G28  21781514.280   114462624.891          50.000                                                  
G30  22692119.260   119247831.324          50.000    22692121.360    89048703.219          50.000  
E 2  25976981.340   136509947.949          50.000    25976985.100   101939236.910          50.000  
E 7  26862634.900   141164049.145          50.000    26862641.120   105414694.496          50.000  
E15  25299507.240   132949765.109          50.000    25299513.060    99280653.461          50.000  
E27  25459509.000   133790593.973          50.000    25459513.400    99908547.445          50.000  
E30  22464363.800   118051017.449          50.000    22464367.380    88154972.109          50.000  
E36  26460143.120   139048951.586          50.000    26460148.560   103835241.711          50.000  
> 2020  5 21 18 10 28.0000000  0 15       0.000000000000
G 1  24393696.140   128189663.258          50.000    24393698.420    95726041.309          50.000  
G 6  23557106.780   123793364.809          50.000    23557110.720    92443092.352          50.000  
G13  22194980.580   116635398.211          50.000                                                  
G15  23095598.520   121368171.734          50.000                                                  
G17  20562320.680   108055725.453          50.000                                                  
G19  20241523.980   106369948.262          50.000                                                  
G24  23268365.660   122276028.203          50.000    23268368.460    91310017.641          50.000  
G28  21781769.920   114463968.289          50.000                                                  
G30  22692698.620   119250875.840          50.000    22692700.720    89050976.719          50.000  
E 2  25977288.160   136511560.293          50.000    25977291.920   101940440.930          50.000  
E 7  26863075.260   141166363.254          50.000    26863081.480   105416422.563          50.000  
E15  25298963.560   132946908.094          50.000    25298969.400    99278519.973          50.000  
E27  25459177.760   133788853.215          50.000    25459182.140    99907247.531          50.000  
E30  22464358.540   118050989.852          50.000    22464362.140    88154951.500          50.000  
E36  26460521.060   139050937.664          50.000    26460526.500   103836724.820          50.000  
> 2020  5 21 18 10 29.0000000  0 15       0.000000000000
G 1  24394126.740   128191926.070          50.000    24394129.020    95727731.070          50.000  
G 6  23556458.360   123789957.289          50.000    23556462.280    92440547.777          50.000  
G13  22195455.820   116637895.676          50.000                                                  
G15  23095883.740   121369670.617          50.000                                                  
G17  20562505.100   108056694.539          50.000                                                  
G19  20241322.520   106368889.566          50.000                                                  
G24  23267774.840   122272923.336          50.000    23267777.620    91307699.070          50.000  
G28  21782025.580   114465311.777          50.000                                                  
G30  22693278.020   119253920.668          50.000    22693280.120    89053250.449          50.000  
E 2  25977595.000   136513172.754          50.000    25977598.760   101941645.043          50.000  
E 7  26863515.660   141168677.512          50.000    26863521.860   105418150.742          50.000  
E15  25298419.920   132944051.297          50.000    25298425.760    99276386.652          50.000  
E27  25458846.500   133787112.465          50.000    25458850.880    99905947.621          50.000  
E30  22464353.320   118050962.379          50.000    22464356.900    88154930.984          50.000  
E36  26460899.060   139052924.094          50.000    26460904.520   103838208.191          50.000  
> 2020  5 21 18 10 30.0000000  0 15       0.000000000000
G 1  24394557.440   128194189.426          50.000    24394559.720    95729421.234          50.000  
G 6  23555809.940   123786549.879          50.000    23555813.880    92438003.285          50.000  
G13  22195931.160   116640393.543          50.000                                                  
G15  23096169.060   121371169.969          50.000                                                  
G17  20562689.600   108057664.098          50.000                                                  
G19  20241121.180   106367831.480          50.000                                                  
G24  23267184.040   122269818.699          50.000    23267186.840    91305380.676          50.000  
G28  21782281.240   114466655.367          50.000                                                  
G30  22693857.500   119256965.809          50.000    22693859.600    89055524.422          50.000  
E 2  25977901.860   136514785.328          50.000    25977905.620   101942849.234          50.000  
E 7  26863956.060   141170991.926          50.000    26863962.280   105419879.035          50.000  
E15  25297876.340   132941194.684          50.000    25297882.160    99274253.469          50.000  
E27  25458515.240   133785371.746          50.000    25458519.640    99904647.734          50.000  
E30  22464348.120   118050935.039          50.000    22464351.700    88154910.570          50.000  
E36  26461277.140   139054910.883          50.000    26461282.580   103839691.832          50.000  
> 2020  5 21 18 10 31.0000000  0 15       0.000000000000
G 1  24394988.240   128196453.316          50.000    24394990.520    95731111.805          50.000  
G 6  23555161.560   123783142.586          50.000    23555165.480    92435458.879          50.000  
G13  22196406.560   116642891.816          50.000                                                  
G15  23096454.480   121372669.793          50.000                                                  
G17  20562874.180   108058634.133          50.000                                                  
G19  20240919.940   106366773.992          50.000                                                  
G24  23266593.280   122266714.305          50.000    23266596.080    91303062.457          50.000  
G28  21782536.940   114467999.055          50.000                                                  
G30  22694437.020   119260011.270          50.000    22694439.140    89057798.625          50.000  
E 2  25978208.740   136516398.027          50.000    25978212.500   101944053.523          50.000  
E 7  26864396.520   141173306.469          50.000    26864402.740   105421607.430          50.000  
E15  25297332.780   132938338.285          50.000    25297338.600    99272120.445          50.000  
E27  25458184.000   133783631.035          50.000    25458188.380    99903347.852          50.000  
E30  22464342.940   118050907.840          50.000    22464346.520    88154890.258          50.000  
E36  26461655.280   139056898.016          50.000    26461660.720   103841175.730          50.000  
> 2020  5 21 18 10 32.0000000  0 15       0.000000000000
G 1  24395419.160   128198717.766          50.000    24395421.440    95732802.785          50.000  
G 6  23554513.180   123779735.414          50.000    23554517.120    92432914.563          50.000  
G13  22196882.040   116645390.500          50.000                                                  
G15  23096739.960   121374170.094          50.000                                                  
G17  20563058.860   108059604.633          50.000                                                  
G19  20240718.820   106365717.105          50.000                                                  
G24  23266002.580   122263610.086          50.000    23266005.380    91300744.375          50.000  
G28  21782792.660   114469342.824          50.000                                                  
G30  22695016.620   119263057.055          50.000    22695018.720    89060073.074          50.000  
E 2  25978515.660   136518010.832          50.000    25978519.420   101945257.891          50.000  
E 7  26864836.980   141175621.164          50.000    26864843.200   105423335.938          50.000  
E15  25296789.260   132935482.090          50.000    25296795.100    99269987.574          50.000  
E27  25457852.760   133781890.344          50.000    25457857.140    99902047.984          50.000  
E30  22464337.780   118050880.793          50.000    22464341.380    88154870.063          50.000  
E36  26462033.480   139058885.504          50.000    26462038.940   103842659.891          50.000  
> 2020  5 21 18 10 33.0000000  0 15       0.000000000000
G 1  24395850.160   128200982.730          50.000    24395852.440    95734494.156          50.000  
G 6  23553864.840   123776328.348          50.000    23553868.780    92430370.328          50.000  
G13  22197357.600   116647889.586          50.000                                                  
G15  23097025.560   121375670.867          50.000                                                  
G17  20563243.640   108060575.586          50.000                                                  
G19  20240517.820   106364660.824          50.000                                                  
G24  23265411.920   122260506.121          50.000    23265414.700    91298426.480          50.000  
G28  21783048.380   114470686.695          50.000                                                  
G30  22695596.280   119266103.148          50.000    22695598.380    89062347.754          50.000  
E 2  25978822.580   136519623.738          50.000    25978826.340   101946462.332          50.000  
E 7  26865277.480   141177936.004          50.000    26865283.700   105425064.547          50.000  
E15  25296245.780   132932626.078          50.000    25296251.600    99267854.840          50.000  
E27  25457521.520   133780149.668          50.000    25457525.900    99900748.133          50.000  
E30  22464332.660   118050853.855          50.000    22464336.260    88154849.945          50.000  
E36  26462411.760   139060873.332          50.000    26462417.200   103844144.309          50.000  
> 2020  5 21 18 10 34.0000000  0 15       0.000000000000
G 1  24396281.280   128203248.242          50.000    24396283.560    95736185.930          50.000  
G 6  23553216.520   123772921.402          50.000    23553220.460    92427826.180          50.000  
G13  22197833.240   116650389.086          50.000                                                  
G15  23097311.240   121377172.105          50.000                                                  
G17  20563428.500   108061547.023          50.000                                                  
G19  20240316.940   106363605.148          50.000                                                  
G24  23264821.280   122257402.395          50.000    23264824.080    91296108.762          50.000  
G28  21783304.140   114472030.668          50.000                                                  
G30  22696176.000   119269149.559          50.000    22696178.100    89064622.668          50.000  
E 2  25979129.520   136521236.746          50.000    25979133.280   101947666.848          50.000  
E 7  26865718.020   141180250.992          50.000    26865724.240   105426793.273          50.000  
E15  25295702.340   132929770.273          50.000    25295708.160    99265722.258          50.000  
E27  25457190.280   133778409.008          50.000    25457194.660    99899448.289          50.000  
E30  22464327.560   118050827.055          50.000    22464331.160    88154829.930          50.000  
E36  26462790.100   139062861.512          50.000    26462795.540   103845628.988          50.000  
> 2020  5 21 18 10 35.0000000  0 15       0.000000000000
G 1  24396712.500   128205514.293          50.000    24396714.780    95737878.113          50.000  
G 6  23552568.220   123769514.574          50.000    23552572.160    92425282.121          50.000  
G13  22198308.960   116652889.012          50.000                                                  
G15  23097597.000   121378673.828          50.000                                                  
G17  20563613.440   108062518.930          50.000                                                  
G19  20240116.160   106362550.078          50.000                                                  
G24  23264230.720   122254298.887          50.000    23264233.500    91293791.211          50.000  
G28  21783559.900   114473374.734          50.000                                                  
G30  22696755.760   119272196.273          50.000    22696757.860    89066897.813          50.000  
E 2  25979436.500   136522849.898          50.000    25979440.260   101948871.477          50.000  
E 7  26866158.560   141182566.121          50.000    26866164.780   105428522.102          50.000  
E15  25295158.940   132926914.668          50.000    25295164.760    99263589.828          50.000  
E27  25456859.040   133776668.367          50.000    25456863.440    99898148.461          50.000  
E30  22464322.500   118050800.402          50.000    22464326.080    88154810.031          50.000  
E36  26463168.500   139064850.047          50.000    26463173.940   103847113.930          50.000  
> 2020  5 21 18 10 36.0000000  0 15       0.000000000000
G 1  24397143.820   128207780.883          50.000    24397146.100    95739570.695          50.000  
G 6  23551919.960   123766107.879          50.000    23551923.880    92422738.160          50.000  
G13  22198784.760   116655389.336          50.000                                                  
G15  23097882.860   121380176.035          50.000                                                  
G17  20563798.480   108063491.297          50.000                                                  
G19  20239915.500   106361495.609          50.000                                                  
G24  23263640.180   122251195.609          50.000    23263642.960    91291473.828          50.000  
G28  21783815.700   114474718.902          50.000                                                  
G30  22697335.600   119275243.309          50.000    22697337.700    89069173.195          50.000  
E 2  25979743.500   136524463.145          50.000    25979747.240   101950076.172          50.000  
E 7  26866599.160   141184881.398          50.000    26866605.380   105430251.043          50.000  
E15  25294615.560   132924059.277          50.000    25294621.400    99261457.555          50.000  
E27  25456527.820   133774927.742          50.000    25456532.200    99896848.645          50.000  
E30  22464317.440   118050773.887          50.000    22464321.040    88154790.227          50.000  
E36  26463546.980   139066838.930          50.000    26463552.420   103848599.137          50.000  
> 2020  5 21 18 10 37.0000000  0 15       0.000000000000
G 1  24397575.240   128210048.008          50.000    24397577.520    95741263.676          50.000  
G 6  23551271.700   123762701.281          50.000    23551275.620    92420194.277          50.000  
G13  22199260.640   116657890.066          50.000                                                  
G15  23098168.820   121381678.691          50.000                                                  
G17  20563983.600   108064464.137          50.000                                                  
G19  20239714.960   106360441.746          50.000                                                  
G24  23263049.680   122248092.547          50.000    23263052.480    91289156.609          50.000  
G28  21784071.500   114476063.160          50.000                                                  
G30  22697915.480   119278290.664          50.000    22697917.600    89071448.816          50.000  
E 2  25980050.500   136526076.512          50.000    25980054.260   101951280.957          50.000  
E 7  26867039.760   141187196.824          50.000    26867045.980   105431980.094          50.000  
E15  25294072.240   132921204.070          50.000    25294078.060    99259325.422          50.000  
E27  25456196.600   133773187.141          50.000    25456200.980    99895548.844          50.000  
E30  22464312.420   118050747.492          50.000    22464316.020    88154770.520          50.000  
E36  26463925.520   139068828.160          50.000    26463930.960   103850084.602          50.000  
> 2020  5 21 18 10 38.0000000  0 15       0.000000000000
G 1  24398006.760   128212315.676          50.000    24398009.040    95742957.066          50.000  
G 6  23550623.460   123759294.781          50.000    23550627.400    92417650.465          50.000  
G13  22199736.580   116660391.207          50.000                                                  
G15  23098454.840   121383181.828          50.000                                                  
G17  20564168.820   108065437.434          50.000                                                  
G19  20239514.520   106359388.477          50.000                                                  
G24  23262459.240   122244989.730          50.000    23262462.020    91286839.574          50.000  
G28  21784327.320   114477407.508          50.000                                                  
G30  22698495.440   119281338.340          50.000    22698497.540    89073724.680          50.000  
E 2  25980357.540   136527689.977          50.000    25980361.300   101952485.820          50.000  
E 7  26867480.400   141189512.379          50.000    26867486.620   105433709.238          50.000  
E15  25293528.960   132918349.066          50.000    25293534.780    99257193.441          50.000  
E27  25455865.360   133771446.555          50.000    25455869.760    99894249.059          50.000  
E30  22464307.420   118050721.242          50.000    22464311.020    88154750.918          50.000  
E36  26464304.120   139070817.738          50.000    26464309.560   103851570.324          50.000  
> 2020  5 21 18 10 39.0000000  0 15       0.000000000000
G 1  24398438.380   128214583.879          50.000    24398440.660    95744650.852          50.000  
G 6  23549975.260   123755888.422          50.000    23549979.180    92415106.754          50.000  
G13  22200212.620   116662892.754          50.000                                                  
G15  23098740.980   121384685.430          50.000                                                  
G17  20564354.120   108066411.215          50.000                                                  
G19  20239314.220   106358335.816          50.000                                                  
G24  23261868.820   122241887.117          50.000    23261871.620    91284522.688          50.000  
G28  21784583.160   114478751.953          50.000                                                  
G30  22699075.460   119284386.332          50.000    22699077.560    89076000.773          50.000  
E 2  25980664.600   136529303.563          50.000    25980668.340   101953690.770          50.000  
E 7  26867921.060   141191828.090          50.000    26867927.280   105435438.504          50.000  
E15  25292985.700   132915494.273          50.000    25292991.520    99255061.613          50.000  
E27  25455534.140   133769705.984          50.000    25455538.540    99892949.281          50.000  
E30  22464302.460   118050695.125          50.000    22464306.040    88154731.414          50.000  
E36  26464682.780   139072807.668          50.000    26464688.240   103853056.309          50.000  
> 2020  5 21 18 10 40.0000000  0 15       0.000000000000
G 1  24398870.120   128216852.617          50.000    24398872.400    95746345.039          50.000  
G 6  23549327.060   123752482.176          50.000    23549331.000    92412563.133          50.000  
G13  22200688.720   116665394.727          50.000                                                  
G15  23099027.200   121386189.520          50.000                                                  
G17  20564539.500   108067385.441          50.000                                                  
G19  20239114.020   106357283.766          50.000                                                  
G24  23261278.460   122238784.703          50.000    23261281.240    91282205.949          50.000  
G28  21784839.000   114480096.480          50.000                                                  
G30  22699655.520   119287434.629          50.000    22699657.640    89078277.098          50.000  
E 2  25980971.680   136530917.270          50.000    25980975.420   101954895.809          50.000  
E 7  26868361.760   141194143.953          50.000    26868367.980   105437167.883          50.000  
E15  25292442.480   132912639.672          50.000    25292448.320    99252929.930          50.000  
E27  25455202.940   133767965.426          50.000    25455207.320    99891649.516          50.000  
E30  22464297.520   118050669.137          50.000    22464301.100    88154712.008          50.000  
E36  26465061.520   139074797.945          50.000    26465066.980   103854542.555          50.000  
> 2020  5 21 18 10 44.0000000  0 15       0.000000000000
G 1  24400598.040   128225932.957          50.000    24400600.320    95753125.809          50.000  
G 6  23546734.520   123738858.379          50.000    23546738.460    92402389.539          50.000  
G13  22202593.940   116675406.656          50.000                                                  
G15  23100172.960   121392210.559          50.000                                                  
G17  20565281.960   108071287.082          50.000                                                  
G19  20238314.360   106353081.578          50.000                                                  
G24  23258917.420   122226377.324          50.000    23258920.200    91272940.695          50.000  
G28  21785862.620   114485475.563          50.000                                                  
G30  22701976.420   119299631.020          50.000    22701978.540    89087384.789          50.000  
E 2  25982200.180   136537373.188          50.000    25982203.940   101959716.789          50.000  
E 7  26870124.820   141203408.816          50.000    26870131.040   105444086.434          50.000  
E15  25290270.020   132901223.273          50.000    25290275.840    99244404.695          50.000  
E27  25453878.100   133761003.398          50.000    25453882.480    99886450.605          50.000  
E30  22464278.000   118050566.574          50.000    22464281.580    88154635.418          50.000  
E36  26466577.140   139082762.547          50.000    26466582.600   103860490.137          50.000  
> 2020  5 21 18 10 48.0000000  0 15       0.000000000000
G 1  24402327.620   128235021.902          50.000    24402329.900    95759913.004          50.000  
G 6  23544142.360   123725236.453          50.000    23544146.280    92392217.328          50.000  
G13  22204500.400   116685425.145          50.000                                                  
G15  23101320.140   121398239.098          50.000                                                  
G17  20566025.840   108075196.211          50.000                                                  
G19  20237516.540   106348889.035          50.000                                                  
G24  23256557.020   122213973.375          50.000    23256559.800    91263678.012          50.000  
G28  21786886.520   114490856.188          50.000                                                  
G30  22704298.280   119311832.441          50.000    22704300.400    89096496.234          50.000  
E 2  25983429.060   136543830.902          50.000    25983432.800   101964539.109          50.000  
E 7  26871888.300   141212676.023          50.000    26871894.520   105451006.746          50.000  
E15  25288098.160   132889810.102          50.000    25288104.000    99235881.879          50.000  
E27  25452553.320   133754041.648          50.000    25452557.700    99881251.895          50.000  
E30  22464258.900   118050466.176          50.000    22464262.480    88154560.445          50.000  
E36  26468093.820   139090732.738          50.000    26468099.280   103866441.898          50.000  
> 2020  5 21 18 10 49.0000000  0 15       0.000000000000
G 1  24402760.260   128237295.484          50.000    24402762.560    95761610.809          50.000  
G 6  23543494.380   123721831.273          50.000    23543498.300    92389674.500          50.000  
G13  22204977.200   116687930.785          50.000                                                  
G15  23101607.160   121399747.410          50.000                                                  
G17  20566212.040   108076174.688          50.000                                                  
G19  20237317.380   106347842.414          50.000                                                  
G24  23255967.020   122210872.938          50.000    23255969.820    91261362.754          50.000  
G28  21787142.540   114492201.582          50.000                                                  
G30  22704878.900   119314883.590          50.000    22704881.000    89098774.688          50.000  
E 2  25983736.320   136545445.633          50.000    25983740.080   101965744.914          50.000  
E 7  26872329.240   141214993.180          50.000    26872335.480   105452737.090          50.000  
E15  25287555.300   132886957.320          50.000    25287561.120    99233751.559          50.000  
E27  25452222.140   133752301.258          50.000    25452226.520    99879952.254          50.000  
E30  22464254.180   118050441.418          50.000    22464257.760    88154541.957          50.000  
E36  26468473.160   139092726.164          50.000    26468478.620   103867930.496          50.000  
> 2020  5 21 18 10 50.0000000  0 15       0.000000000000
G 1  24403193.020   128239569.609          50.000    24403195.300    95763309.016          50.000  
G 6  23542846.400   123718426.199          50.000    23542850.320    92387131.754          50.000  
G13  22205454.080   116690436.836          50.000                                                  
G15  23101894.280   121401256.195          50.000                                                  
G17  20566398.340   108077153.629          50.000                                                  
G19  20237118.340   106346796.391          50.000                                                  
G24  23255377.080   122207772.762          50.000    23255379.860    91259047.688          50.000  
G28  21787398.580   114493547.078          50.000                                                  
G30  22705459.580   119317935.043          50.000    22705461.680    89101053.371          50.000  
E 2  25984043.620   136547060.449          50.000    25984047.380   101966950.781          50.000  
E 7  26872770.220   141217310.484          50.000    26872776.440   105454467.543          50.000  
E15  25287012.460   132884104.734          50.000    25287018.300    99231621.379          50.000  
E27  25451890.960   133750560.879          50.000    25451895.340    99878652.621          50.000  
E30  22464249.500   118050416.797          50.000    22464253.080    88154523.570          50.000  
E36  26468852.560   139094719.938          50.000    26468858.020   103869419.352          50.000  
> 2020  5 21 18 10 51.0000000  0 15       0.000000000000
G 1  24403625.880   128241844.266          50.000    24403628.160    95765007.621          50.000  
G 6  23542198.460   123715021.246          50.000    23542202.380    92384589.094          50.000  
G13  22205931.060   116692943.289          50.000                                                  
G15  23102181.480   121402765.461          50.000                                                  
G17  20566584.720   108078133.059          50.000                                                  
G19  20236919.400   106345750.969          50.000                                                  
G24  23254787.160   122204672.789          50.000    23254789.960    91256732.773          50.000  
G28  21787654.640   114494892.668          50.000                                                  
G30  22706040.300   119320986.820          50.000    22706042.420    89103332.293          50.000  
E 2  25984350.920   136548675.379          50.000    25984354.680   101968156.738          50.000  
E 7  26873211.220   141219627.934          50.000    26873217.440   105456198.105          50.000  
E15  25286469.680   132881252.348          50.000    25286475.500    99229491.352          50.000  
E27  25451559.780   133748820.516          50.000    25451564.160    99877353.000          50.000  
E30  22464244.840   118050392.301          50.000    22464248.420    88154505.277          50.000  
E36  26469232.040   139096714.047          50.000    26469237.480   103870908.457          50.000  
> 2020  5 21 18 10 52.0000000  0 15       0.000000000000
G 1  24404058.820   128244119.473          50.000    24404061.120    95766706.637          50.000  
G 6  23541550.540   123711616.402          50.000    23541554.460    92382046.520          50.000  
G13  22206408.100   116695450.152          50.000                                                  
G15  23102468.780   121404275.184          50.000                                                  
G17  20566771.180   108079112.953          50.000                                                  
G19  20236720.580   106344706.152          50.000                                                  
G24  23254197.300   122201573.051          50.000    23254200.100    91254418.035          50.000  
G28  21787910.720   114496238.359          50.000                                                  
G30  22706621.100   119324038.910          50.000    22706623.220    89105611.453          50.000  
E 2  25984658.260   136550290.434          50.000    25984662.020   101969362.781          50.000  
E 7  26873652.240   141221945.527          50.000    26873658.460   105457928.777          50.000  
E15  25285926.920   132878400.168          50.000    25285932.740    99227361.480          50.000  
E27  25451228.600   133747080.176          50.000    25451232.980    99876053.398          50.000  
E30  22464240.200   118050367.949          50.000    22464243.780    88154487.094          50.000  
E36  26469611.560   139098708.516          50.000    26469617.020   103872397.832          50.000  
> 2020  5 21 18 10 53.0000000  0 15       0.000000000000
G 1  24404491.880   128246395.195          50.000    24404494.180    95768406.043          50.000  
G 6  23540902.640   123708211.684          50.000    23540906.560    92379504.035          50.000  
G13  22206885.220   116697957.418          50.000                                                  
G15  23102756.160   121405785.387          50.000                                                  
G17  20566957.740   108080093.313          50.000                                                  
G19  20236521.860   106343661.938          50.000                                                  
G24  23253607.500   122198473.551          50.000    23253610.280    91252103.477          50.000  
G28  21788166.800   114497584.141          50.000                                                  
G30  22707201.960   119327091.309          50.000    22707204.060    89107890.840          50.000  
E 2  25984965.620   136551905.590          50.000    25984969.380   101970568.906          50.000  
E 7  26874093.280   141224263.266          50.000    26874099.520   105459659.555          50.000  
E15  25285384.200   132875548.191          50.000    25285390.040    99225231.758          50.000  
E27  25450897.420   133745339.848          50.000    25450901.800    99874753.801          50.000  
E30  22464235.600   118050343.730          50.000    22464239.180    88154469.008          50.000  
E36  26469991.160   139100703.328          50.000    26469996.620   103873887.465          50.000  
> 2020  5 21 18 10 54.0000000  0 15       0.000000000000
G 1  24404925.040   128248671.477          50.000    24404927.340    95770105.859          50.000  
G 6  23540254.780   123704807.086          50.000    23540258.680    92376961.641          50.000  
G13  22207362.400   116700465.102          50.000                                                  
G15  23103043.640   121407296.063          50.000                                                  
G17  20567144.380   108081074.137          50.000                                                  
G19  20236323.280   106342618.328          50.000                                                  
G24  23253017.720   122195374.297          50.000    23253020.520    91249789.098          50.000  
G28  21788422.920   114498930.023          50.000                                                  
G30  22707782.860   119330144.031          50.000    22707784.980    89110170.465          50.000  
E 2  25985273.000   136553520.863          50.000    25985276.740   101971775.113          50.000  
E 7  26874534.360   141226581.148          50.000    26874540.600   105461390.441          50.000  
E15  25284841.540   132872696.406          50.000    25284847.360    99223102.180          50.000  
E27  25450566.260   133743599.543          50.000    25450570.640    99873454.223          50.000  
E30  22464231.000   118050319.641          50.000    22464234.600    88154451.020          50.000  
E36  26470370.840   139102698.488          50.000    26470376.280   103875377.359          50.000  
> 2020  5 21 18 10 55.0000000  0 15       0.000000000000
G 1  24405358.300   128250948.281          50.000    24405360.600    95771806.070          50.000  
G 6  23539606.920   123701402.613          50.000    23539610.840    92374419.344          50.000  
G13  22207839.680   116702973.180          50.000                                                  
G15  23103331.200   121408807.199          50.000                                                  
G17  20567331.120   108082055.418          50.000                                                  
G19  20236124.800   106341575.332          50.000                                                  
G24  23252428.000   122192275.273          50.000    23252430.780    91247474.895          50.000  
G28  21788679.040   114500275.988          50.000                                                  
G30  22708363.840   119333197.055          50.000    22708365.960    89112450.320          50.000  
E 2  25985580.400   136555136.250          50.000    25985584.140   101972981.410          50.000  
E 7  26874975.480   141228899.172          50.000    26874981.700   105463121.430          50.000  
E15  25284298.900   132869844.824          50.000    25284304.720    99220972.754          50.000  
E27  25450235.080   133741859.258          50.000    25450239.460    99872154.660          50.000  
E30  22464226.460   118050295.699          50.000    22464230.040    88154433.141          50.000  
E36  26470750.560   139104694.000          50.000    26470756.020   103876867.512          50.000  
> 2020  5 21 18 10 56.0000000  0 15       0.000000000000
G 1  24405791.680   128253225.629          50.000    24405793.960    95773506.688          50.000  
G 6  23538959.080   123697998.238          50.000    23538963.000    92371877.117          50.000  
G13  22208317.040   116705481.676          50.000                                                  
G15  23103618.840   121410318.820          50.000                                                  
G17  20567517.940   108083037.195          50.000                                                  
G19  20235926.440   106340532.938          50.000                                                  
G24  23251838.320   122189176.461          50.000    23251841.100    91245160.848          50.000  
G28  21788935.200   114501622.063          50.000                                                  
G30  22708944.880   119336250.410          50.000    22708946.980    89114730.426          50.000  
E 2  25985887.820   136556751.754          50.000    25985891.560   101974187.793          50.000  
E 7  26875416.600   141231217.340          50.000    26875422.840   105464852.531          50.000  
E15  25283756.300   132866993.449          50.000    25283762.120    99218843.477          50.000  
E27  25449903.920   133740118.984          50.000    25449908.300    99870855.105          50.000  
E30  22464221.920   118050271.887          50.000    22464225.500    88154415.359          50.000  
E36  26471130.380   139106689.867          50.000    26471135.820   103878357.930          50.000  
> 2020  5 21 18 10 57.0000000  0 15       0.000000000000
G 1  24406225.140   128255503.512          50.000    24406227.440    95775207.699          50.000  
G 6  23538311.280   123694593.996          50.000    23538315.200    92369334.988          50.000  
G13  22208794.460   116707990.566          50.000                                                  
G15  23103906.580   121411830.895          50.000                                                  
G17  20567704.840   108084019.383          50.000                                                  
G19  20235728.180   106339491.145          50.000                                                  
G24  23251248.660   122186077.871          50.000    23251251.460    91242846.965          50.000  
G28  21789191.360   114502968.219          50.000                                                  
G30  22709525.960   119339304.078          50.000    22709528.080    89117010.758          50.000  
E 2  25986195.260   136558367.355          50.000    25986199.000   101975394.246          50.000  
E 7  26875857.760   141233535.660          50.000    26875864.000   105466583.742          50.000  
E15  25283213.740   132864142.281          50.000    25283219.560    99216714.359          50.000  
E27  25449572.760   133738378.734          50.000    25449577.140    99869555.570          50.000  
E30  22464217.420   118050248.219          50.000    22464221.000    88154397.684          50.000  
E36  26471510.240   139108686.078          50.000    26471515.680   103879848.609          50.000  
> 2020  5 21 18 10 58.0000000  0 15       0.000000000000
G 1  24406658.720   128257781.922          50.000    24406661.000    95776909.109          50.000  
G 6  23537663.500   123691189.879          50.000    23537667.420    92366792.953          50.000  
G13  22209271.960   116710499.867          50.000                                                  
G15  23104194.420   121413343.438          50.000                                                  
G17  20567891.840   108085002.066          50.000                                                  
G19  20235530.060   106338449.949          50.000                                                  
G24  23250659.060   122182979.496          50.000    23250661.860    91240533.246          50.000  
G28  21789447.540   114504314.484          50.000                                                  
G30  22710107.120   119342358.047          50.000    22710109.240    89119291.320          50.000  
E 2  25986502.720   136559983.086          50.000    25986506.480   101976600.801          50.000  
E 7  26876298.960   141235854.121          50.000    26876305.180   105468315.059          50.000  
E15  25282671.220   132861291.309          50.000    25282677.040    99214585.391          50.000  
E27  25449241.600   133736638.500          50.000    25449245.980    99868256.043          50.000  
E30  22464212.940   118050224.680          50.000    22464216.520    88154380.105          50.000  
E36  26471890.160   139110682.633          50.000    26471895.620   103881339.543          50.000  
> 2020  5 21 18 10 59.0000000  0 15       0.000000000000
G 1  24407092.380   128260060.879          50.000    24407094.680    95778610.926          50.000  
G 6  23537015.740   123687785.883          50.000    23537019.660    92364251.012          50.000  
G13  22209749.540   116713009.578          50.000                                                  
G15  23104482.340   121414856.465          50.000                                                  
G17  20568078.920   108085985.207          50.000                                                  
G19  20235332.040   106337409.355          50.000                                                  
G24  23250069.500   122179881.336          50.000    23250072.300    91238219.688          50.000  
G28  21789703.740   114505660.836          50.000                                                  
G30  22710688.340   119345412.352          50.000    22710690.440    89121572.129          50.000  
E 2  25986810.200   136561598.914          50.000    25986813.960   101977807.422          50.000  
E 7  26876740.180   141238172.711          50.000    26876746.400   105470046.473          50.000  
E15  25282128.720   132858440.543          50.000    25282134.560    99212456.570          50.000  
E27  25448910.460   133734898.281          50.000    25448914.840    99866956.531          50.000  
E30  22464208.480   118050201.285          50.000    22464212.080    88154362.637          50.000  
E36  26472270.160   139112679.543          50.000    26472275.620   103882830.742          50.000  
> 2020  5 21 18 11  0.0000000  0 15       0.000000000000
G 1  24407526.160   128262340.367          50.000    24407528.440    95780313.141          50.000  
G 6  23536368.000   123684381.977          50.000    23536371.920    92361709.137          50.000  
G13  22210227.200   116715519.695          50.000                                                  
G15  23104770.340   121416369.945          50.000                                                  
G17  20568266.100   108086968.816          50.000                                                  
G19  20235134.140   106336369.371          50.000                                                  
G24  23249480.000   122176783.414          50.000    23249482.780    91235906.305          50.000  
G28  21789959.980   114507007.285          50.000                                                  
G30  22711269.600   119348466.961          50.000    22711271.720    89123853.168          50.000  
E 2  25987117.700   136563214.875          50.000    25987121.460   101979014.148          50.000  
E 7  26877181.420   141240491.469          50.000    26877187.640   105471778.012          50.000  
E15  25281586.280   132855589.984          50.000    25281592.100    99210327.910          50.000  
E27  25448579.300   133733158.078          50.000    25448583.680    99865657.031          50.000  
E30  22464204.060   118050178.008          50.000    22464207.640    88154345.254          50.000  
E36  26472650.240   139114676.793          50.000    26472655.680   103884322.191          50.000  
> 2020  5 21 18 11  1.0000000  0 15       0.000000000000
G 1  24407960.040   128264620.398          50.000    24407962.320    95782015.762          50.000  
G 6  23535720.280   123680978.191          50.000    23535724.200    92359167.348          50.000  
G13  22210704.940   116718030.227          50.000                                                  
G15  23105058.440   121417883.914          50.000                                                  
G17  20568453.360   108087952.887          50.000                                                  
G19  20234936.340   106335329.984          50.000                                                  
G24  23248890.520   122173685.719          50.000    23248893.300    91233593.090          50.000  
G28  21790216.200   114508353.824          50.000                                                  
G30  22711850.940   119351521.883          50.000    22711853.060    89126134.438          50.000  
E 2  25987425.240   136564830.949          50.000    25987429.000   101980220.953          50.000  
E 7  26877622.680   141242810.363          50.000    26877628.920   105473509.652          50.000  
E15  25281043.880   132852739.625          50.000    25281049.700    99208199.395          50.000  
E27  25448248.160   133731417.910          50.000    25448252.540    99864357.555          50.000  
E30  22464199.660   118050154.898          50.000    22464203.240    88154327.996          50.000  
E36  26473030.360   139116674.402          50.000    26473035.820   103885813.914          50.000  
> 2020  5 21 18 11  2.0000000  0 15       0.000000000000
G 1  24408394.000   128266900.961          50.000    24408396.300    95783718.777          50.000  
G 6  23535072.580   123677574.543          50.000    23535076.500    92356625.664          50.000  
G13  22211182.760   116720541.168          50.000                                                  
G15  23105346.620   121419398.352          50.000                                                  
G17  20568640.720   108088937.422          50.000                                                  
G19  20234738.680   106334291.211          50.000                                                  
G24  23248301.080   122170588.246          50.000    23248303.880    91231280.047          50.000  
G28  21790472.460   114509700.461          50.000                                                  
G30  22712432.340   119354577.129          50.000    22712434.460    89128415.953          50.000  
E 2  25987732.780   136566447.121          50.000    25987736.540   101981427.836          50.000  
E 7  26878063.980   141245129.391          50.000    26878070.220   105475241.395          50.000  
E15  25280501.500   132849889.469          50.000    25280507.340    99206071.031          50.000  
E27  25447917.020   133729677.742          50.000    25447921.400    99863058.078          50.000  
E30  22464195.280   118050131.891          50.000    22464198.860    88154310.816          50.000  
E36  26473410.560   139118672.352          50.000    26473416.020   103887305.887          50.000  
> 2020  5 21 18 11  3.0000000  0 15       0.000000000000
G 1  24408828.080   128269182.066          50.000    24408830.380    95785422.199          50.000  
G 6  23534424.920   123674171.016          50.000    23534428.820    92354084.070          50.000  
G13  22211660.660   116723052.500          50.000                                                  
G15  23105634.900   121420913.242          50.000                                                  
G17  20568828.160   108089922.418          50.000                                                  
G19  20234541.120   106333253.031          50.000                                                  
G24  23247711.700   122167491.027          50.000    23247714.500    91228967.188          50.000  
G28  21790728.740   114511047.191          50.000                                                  
G30  22713013.800   119357632.688          50.000    22713015.900    89130697.699          50.000  
E 2  25988040.360   136568063.414          50.000    25988044.120   101982634.805          50.000  
E 7  26878505.320   141247448.574          50.000    26878511.540   105476973.250          50.000  
E15  25279959.180   132847039.512          50.000    25279965.000    99203942.816          50.000  
E27  25447585.880   133727937.602          50.000    25447590.260    99861758.621          50.000  
E30  22464190.920   118050109.035          50.000    22464194.520    88154293.750          50.000  
E36  26473790.820   139120670.656          50.000    26473796.280   103888798.125          50.000  
> 2020  5 21 18 11  4.0000000  0 15       0.000000000000
G 1  24409262.280   128271463.699          50.000    24409264.560    95787126.016          50.000  
G 6  23533777.260   123670767.609          50.000    23533781.180    92351542.570          50.000  
G13  22212138.620   116725564.242          50.000                                                  
G15  23105923.260   121422428.598          50.000                                                  
G17  20569015.680   108090907.879          50.000                                                  
G19  20234343.660   106332215.453          50.000                                                  
G24  23247122.360   122164394.020          50.000    23247125.140    91226654.488          50.000  
G28  21790985.040   114512394.023          50.000                                                  
G30  22713595.300   119360688.555          50.000    22713597.420    89132979.676          50.000  
E 2  25988347.940   136569679.801          50.000    25988351.700   101983841.848          50.000  
E 7  26878946.660   141249767.895          50.000    26878952.880   105478705.211          50.000  
E15  25279416.880   132844189.746          50.000    25279422.720    99201814.750          50.000  
E27  25447254.740   133726197.469          50.000    25447259.120    99860459.176          50.000  
E30  22464186.600   118050086.316          50.000    22464190.200    88154276.785          50.000  
E36  26474171.160   139122669.301          50.000    26474176.620   103890290.621          50.000  
> 2020  5 21 18 11  5.0000000  0 15       0.000000000000
G 1  24409696.560   128273745.875          50.000    24409698.840    95788830.238          50.000  
G 6  23533129.640   123667364.320          50.000    23533133.560    92349001.152          50.000  
G13  22212616.660   116728076.398          50.000                                                  
G15  23106211.720   121423944.438          50.000                                                  
G17  20569203.300   108091893.809          50.000                                                  
G19  20234146.340   106331178.492          50.000                                                  
G24  23246533.060   122161297.227          50.000    23246535.840    91224341.953          50.000  
G28  21791241.340   114513740.945          50.000                                                  
G30  22714176.880   119363744.738          50.000    22714179.000    89135261.891          50.000  
E 2  25988655.560   136571296.332          50.000    25988659.320   101985049.000          50.000  
E 7  26879388.040   141252087.363          50.000    26879394.280   105480437.277          50.000  
E15  25278874.640   132841340.191          50.000    25278880.460    99199686.836          50.000  
E27  25446923.620   133724457.359          50.000    25446927.980    99859159.742          50.000  
E30  22464182.320   118050063.746          50.000    22464185.900    88154259.930          50.000  
E36  26474551.560   139124668.305          50.000    26474557.020   103891783.383          50.000  
> 2020  5 21 18 11  6.0000000  0 15       0.000000000000
G 1  24410130.940   128276028.586          50.000    24410133.240    95790534.855          50.000  
G 6  23532482.040   123663961.152          50.000    23532485.940    92346459.824          50.000  
G13  22213094.800   116730588.953          50.000                                                  
G15  23106500.260   121425460.738          50.000                                                  
G17  20569391.000   108092880.199          50.000                                                  
G19  20233949.120   106330142.125          50.000                                                  
G24  23245943.800   122158200.664          50.000    23245946.600    91222029.582          50.000  
G28  21791497.680   114515087.973          50.000                                                  
G30  22714758.520   119366801.238          50.000    22714760.620    89137544.340          50.000  
E 2  25988963.180   136572912.945          50.000    25988966.940   101986256.207          50.000  
E 7  26879829.440   141254406.965          50.000    26879835.680   105482169.449          50.000  
E15  25278332.420   132838490.848          50.000    25278338.240    99197559.078          50.000  
E27  25446592.480   133722717.273          50.000    25446596.860    99857860.328          50.000  
E30  22464178.040   118050041.285          50.000    22464181.620    88154243.156          50.000  
E36  26474932.020   139126667.645          50.000    26474937.480   103893276.398          50.000  
> 2020  5 21 18 11  7.0000000  0 15       0.000000000000
G 1  24410565.420   128278311.828          50.000    24410567.720    95792239.875          50.000  
G 6  23531834.460   123660558.098          50.000    23531838.360    92343918.586          50.000  
G13  22213573.000   116733101.910          50.000                                                  
G15  23106788.900   121426977.508          50.000                                                  
G17  20569578.800   108093867.051          50.000                                                  
G19  20233752.020   106329106.363          50.000                                                  
G24  23245354.600   122155104.332          50.000    23245357.380    91219717.391          50.000  
G28  21791754.020   114516435.098          50.000                                                  
G30  22715340.200   119369858.043          50.000    22715342.320    89139827.020          50.000  
E 2  25989270.840   136574529.684          50.000    25989274.600   101987463.512          50.000  
E 7  26880270.880   141256726.715          50.000    26880277.120   105483901.727          50.000  
E15  25277790.240   132835641.707          50.000    25277796.060    99195431.477          50.000  
E27  25446261.360   133720977.199          50.000    25446265.740    99856560.922          50.000  
E30  22464173.800   118050018.977          50.000    22464177.380    88154226.496          50.000  
E36  26475312.540   139128667.336          50.000    26475318.000   103894769.672          50.000  
> 2020  5 21 18 11  8.0000000  0 15       0.000000000000
G 1  24411000.020   128280595.617          50.000    24411002.320    95793945.301          50.000  
G 6  23531186.900   123657155.172          50.000    23531190.820    92341377.441          50.000  
G13  22214051.260   116735615.270          50.000                                                  
G15  23107077.620   121428494.746          50.000                                                  
G17  20569766.680   108094854.371          50.000                                                  
G19  20233555.040   106328071.203          50.000                                                  
G24  23244765.420   122152008.219          50.000    23244768.200    91217405.359          50.000  
G28  21792010.400   114517782.309          50.000                                                  
G30  22715921.960   119372915.180          50.000    22715924.080    89142109.945          50.000  
E 2  25989578.520   136576146.543          50.000    25989582.280   101988670.906          50.000  
E 7  26880712.340   141259046.605          50.000    26880718.580   105485634.113          50.000  
E15  25277248.100   132832792.754          50.000    25277253.940    99193304.012          50.000  
E27  25445930.240   133719237.137          50.000    25445934.620    99855261.527          50.000  
E30  22464169.580   118049996.797          50.000    22464173.160    88154209.938          50.000  
E36  26475693.140   139130667.379          50.000    26475698.600   103896263.207          50.000  
> 2020  5 21 18 11  9.0000000  0 15       0.000000000000
G 1  24411434.720   128282879.945          50.000    24411437.000    95795651.129          50.000  
G 6  23530539.360   123653752.359          50.000    23530543.280    92338836.383          50.000  
G13  22214529.620   116738129.031          50.000                                                  
G15  23107366.420   121430012.457          50.000                                                  
G17  20569954.640   108095842.160          50.000                                                  
G19  20233358.180   106327036.652          50.000                                                  
G24  23244176.300   122148912.336          50.000    23244179.080    91215093.500          50.000  
G28  21792266.780   114519129.613          50.000                                                  
G30  22716503.760   119375972.621          50.000    22716505.880    89144393.098          50.000  
E 2  25989886.220   136577763.504          50.000    25989889.980   101989878.375          50.000  
E 7  26881153.840   141261366.637          50.000    26881160.060   105487366.605          50.000  
E15  25276706.000   132829944.012          50.000    25276711.840    99191176.707          50.000  
E27  25445599.120   133717497.102          50.000    25445603.500    99853962.148          50.000  
E30  22464165.380   118049974.773          50.000    22464168.960    88154193.488          50.000  
E36  26476073.800   139132667.762          50.000    26476079.260   103897757.000          50.000  
> 2020  5 21 18 11 10.0000000  0 15       0.000000000000
G 1  24411869.520   128285164.816          50.000    24411871.800    95797357.363          50.000  
G 6  23529891.860   123650349.680          50.000    23529895.760    92336295.422          50.000  
G13  22215008.060   116740643.203          50.000                                                  
G15  23107655.320   121431530.633          50.000                                                  
G17  20570142.700   108096830.414          50.000                                                  
G19  20233161.420   106326002.703          50.000                                                  
G24  23243587.200   122145816.680          50.000    23243590.000    91212781.809          50.000  
G28  21792523.180   114520477.016          50.000                                                  
G30  22717085.640   119379030.387          50.000    22717087.760    89146676.492          50.000  
E 2  25990193.940   136579380.586          50.000    25990197.700   101991085.938          50.000  
E 7  26881595.340   141263686.820          50.000    26881601.580   105489099.207          50.000  
E15  25276163.960   132827095.480          50.000    25276169.780    99189049.559          50.000  
E27  25445268.000   133715757.086          50.000    25445272.380    99852662.789          50.000  
E30  22464161.220   118049952.871          50.000    22464164.800    88154177.133          50.000  
E36  26476454.540   139134668.500          50.000    26476459.980   103899251.059          50.000  
> 2020  5 21 18 11 11.0000000  0 15       0.000000000000
G 1  24412304.400   128287450.203          50.000    24412306.700    95799063.984          50.000  
G 6  23529244.360   123646947.113          50.000    23529248.280    92333754.547          50.000  
G13  22215486.560   116743157.773          50.000                                                  
G15  23107944.320   121433049.281          50.000                                                  
G17  20570330.840   108097819.133          50.000                                                  
G19  20232964.780   106324969.367          50.000                                                  
G24  23242998.160   122142721.227          50.000    23243000.940    91210470.270          50.000  
G28  21792779.600   114521824.500          50.000                                                  
G30  22717667.580   119382088.461          50.000    22717669.700    89148960.117          50.000  
E 2  25990501.680   136580997.789          50.000    25990505.440   101992293.590          50.000  
E 7  26882036.900   141266007.145          50.000    26882043.120   105490831.918          50.000  
E15  25275621.940   132824247.148          50.000    25275627.760    99186922.555          50.000  
E27  25444936.900   133714017.086          50.000    25444941.260    99851363.441          50.000  
E30  22464157.060   118049931.102          50.000    22464160.660    88154160.879          50.000  
E36  26476835.320   139136669.582          50.000    26476840.780   103900745.371          50.000  
> 2020  5 21 18 11 12.0000000  0 15       0.000000000000
G 1  24412739.400   128289736.137          50.000    24412741.700    95800771.008          50.000  
G 6  23528596.900   123643544.656          50.000    23528600.820    92331213.750          50.000  
G13  22215965.140   116745672.762          50.000                                                  
G15  23108233.400   121434568.391          50.000                                                  
G17  20570519.080   108098808.313          50.000                                                  
G19  20232768.260   106323936.625          50.000                                                  
G24  23242409.160   122139626.012          50.000    23242411.940    91208158.910          50.000  
G28  21793036.040   114523172.082          50.000                                                  
G30  22718249.560   119385146.836          50.000    22718251.680    89151243.969          50.000  
E 2  25990809.440   136582615.086          50.000    25990813.200   101993501.309          50.000  
E 7  26882478.460   141268327.613          50.000    26882484.700   105492564.734          50.000  
E15  25275079.940   132821399.016          50.000    25275085.760    99184795.707          50.000  
E27  25444605.780   133712277.102          50.000    25444610.160    99850064.102          50.000  
E30  22464152.960   118049909.477          50.000    22464156.540    88154144.730          50.000  
E36  26477216.180   139138671.020          50.000    26477221.640   103902239.949          50.000  
> 2020  5 21 18 11 13.0000000  0 15       0.000000000000
G 1  24413174.500   128292022.602          50.000    24413176.800    95802478.434          50.000  
G 6  23527949.460   123640142.340          50.000    23527953.380    92328673.063          50.000  
G13  22216443.820   116748188.160          50.000                                                  
G15  23108522.560   121436087.965          50.000                                                  
G17  20570707.400   108099797.957          50.000                                                  
G19  20232571.860   106322904.496          50.000                                                  
G24  23241820.200   122136531.039          50.000    23241823.000    91205847.730          50.000  
G28  21793292.480   114524519.758          50.000                                                  
G30  22718831.620   119388205.551          50.000    22718833.740    89153528.070          50.000  
E 2  25991117.240   136584232.508          50.000    25991121.000   101994709.125          50.000  
E 7  26882920.060   141270648.230          50.000    26882926.300   105494297.660          50.000  
E15  25274538.000   132818551.098          50.000    25274543.820    99182669.016          50.000  
E27  25444274.680   133710537.141          50.000    25444279.060    99848764.781          50.000  
E30  22464148.860   118049887.992          50.000    22464152.460    88154128.684          50.000  
E36  26477597.120   139140672.801          50.000    26477602.560   103903734.789          50.000  
> 2020  5 21 18 11 14.0000000  0 15       0.000000000000
G 1  24413609.700   128294309.602          50.000    24413612.000    95804186.258          50.000  
G 6  23527302.040   123636740.137          50.000    23527305.960    92326132.457          50.000  
G13  22216922.560   116750703.949          50.000                                                  
G15  23108811.820   121437608.016          50.000                                                  
G17  20570895.820   108100788.070          50.000                                                  
G19  20232375.560   106321872.965          50.000                                                  
G24  23241231.300   122133436.273          50.000    23241234.080    91203536.707          50.000  
G28  21793548.960   114525867.531          50.000                                                  
G30  22719413.740   119391264.563          50.000    22719415.860    89155812.398          50.000  
E 2  25991425.040   136585850.039          50.000    25991428.800   101995917.020          50.000  
E 7  26883361.680   141272968.984          50.000    26883367.920   105496030.691          50.000  
E15  25273996.100   132815703.371          50.000    25274001.920    99180542.465          50.000  
E27  25443943.580   133708797.195          50.000    25443947.960    99847465.469          50.000  
E30  22464144.800   118049866.637          50.000    22464148.380    88154112.738          50.000  
E36  26477978.100   139142674.930          50.000    26477983.560   103905229.883          50.000  
> 2020  5 21 18 11 15.0000000  0 15       0.000000000000
G 1  24414045.020   128296597.133          50.000    24414047.300    95805894.477          50.000  
G 6  23526654.640   123633338.066          50.000    23526658.560    92323591.953          50.000  
G13  22217401.360   116753220.148          50.000                                                  
G15  23109101.160   121439128.539          50.000                                                  
G17  20571084.320   108101778.648          50.000                                                  
G19  20232179.380   106320842.039          50.000                                                  
G24  23240642.420   122130341.734          50.000    23240645.200    91201225.848          50.000  
G28  21793805.440   114527215.395          50.000                                                  
G30  22719995.900   119394323.891          50.000    22719998.020    89158096.961          50.000  
E 2  25991732.860   136587467.684          50.000    25991736.620   101997125.000          50.000  
E 7  26883803.340   141275289.879          50.000    26883809.560   105497763.828          50.000  
E15  25273454.240   132812855.855          50.000    25273460.060    99178416.078          50.000  
E27  25443612.480   133707057.266          50.000    25443616.860    99846166.176          50.000  
E30  22464140.760   118049845.414          50.000    22464144.340    88154096.891          50.000  
E36  26478359.160   139144677.406          50.000    26478364.620   103906725.238          50.000  
> 2020  5 21 18 11 16.0000000  0 15       0.000000000000
G 1  24414480.420   128298885.203          50.000    24414482.720    95807603.102          50.000  
G 6  23526007.280   123629936.109          50.000    23526011.180    92321051.531          50.000  
G13  22217880.260   116755736.738          50.000                                                  
G15  23109390.600   121440649.523          50.000                                                  
G17  20571272.900   108102769.680          50.000                                                  
G19  20231983.320   106319811.711          50.000                                                  
G24  23240053.600   122127247.441          50.000    23240056.380    91198915.176          50.000  
G28  21794061.960   114528563.352          50.000                                                  
G30  22720578.140   119397383.531          50.000    22720580.260    89160381.754          50.000  
E 2  25992040.720   136589085.445          50.000    25992044.480   101998333.070          50.000  
E 7  26884245.020   141277610.918          50.000    26884251.240   105499497.070          50.000  
E15  25272912.420   132810008.543          50.000    25272918.240    99176289.836          50.000  
E27  25443281.380   133705317.352          50.000    25443285.760    99844866.887          50.000  
E30  22464136.760   118049824.340          50.000    22464140.340    88154081.152          50.000  
E36  26478740.300   139146680.227          50.000    26478745.740   103908220.852          50.000  
> 2020  5 21 18 11 17.0000000  0 15       0.000000000000
G 1  24414915.920   128301173.813          50.000    24414918.220    95809312.125          50.000  
G 6  23525359.920   123626534.266          50.000    23525363.840    92318511.199          50.000  
G13  22218359.240   116758253.746          50.000                                                  
G15  23109680.120   121442170.973          50.000                                                  
G17  20571461.580   108103761.188          50.000                                                  
G19  20231787.360   106318781.996          50.000                                                  
G24  23239464.820   122124153.367          50.000    23239467.600    91196604.668          50.000  
G28  21794318.480   114529911.414          50.000                                                  
G30  22721160.420   119400443.488          50.000    22721162.540    89162666.789          50.000  
E 2  25992348.580   136590703.320          50.000    25992352.340   101999541.223          50.000  
E 7  26884686.720   141279932.098          50.000    26884692.960   105501230.418          50.000  
E15  25272370.620   132807161.430          50.000    25272376.440    99174163.750          50.000  
E27  25442950.300   133703577.469          50.000    25442954.680    99843567.625          50.000  
E30  22464132.760   118049803.391          50.000    22464136.360    88154065.512          50.000  
E36  26479121.480   139148683.398          50.000    26479126.940   103909716.723          50.000  
> 2020  5 21 18 11 18.0000000  0 15       0.000000000000
G 1  24415351.540   128303462.957          50.000    24415353.820    95811021.551          50.000  
G 6  23524712.600   123623132.566          50.000    23524716.500    92315970.969          50.000  
G13  22218838.280   116760771.160          50.000                                                  
G15  23109969.720   121443692.898          50.000                                                  
G17  20571650.340   108104753.148          50.000                                                  
G19  20231591.520   106317752.879          50.000                                                  
G24  23238876.060   122121059.508          50.000    23238878.860    91194294.320          50.000  
G28  21794575.020   114531259.559          50.000                                                  
G30  22721742.780   119403503.766          50.000    22721744.900    89164952.059          50.000  
E 2  25992656.480   136592321.305          50.000    25992660.240   102000749.457          50.000  
E 7  26885128.460   141282253.414          50.000    26885134.680   105502963.867          50.000  
E15  25271828.880   132804314.531          50.000    25271834.700    99172037.816          50.000  
E27  25442619.200   133701837.590          50.000    25442623.580    99842268.363          50.000  
E30  22464128.800   118049782.574          50.000    22464132.400    88154049.965          50.000  
E36  26479502.740   139150686.914          50.000    26479508.200   103911212.855          50.000  
> 2020  5 21 18 11 19.0000000  0 15       0.000000000000
G 1  24415787.240   128305752.633          50.000    24415789.540    95812731.375          50.000  
G 6  23524065.300   123619730.957          50.000    23524069.200    92313430.809          50.000  
G13  22219317.400   116763288.977          50.000                                                  
G15  23110259.420   121445215.285          50.000                                                  
G17  20571839.200   108105745.582          50.000                                                  
G19  20231395.800   106316724.371          50.000                                                  
G24  23238287.360   122117965.867          50.000    23238290.140    91191984.137          50.000  
G28  21794831.580   114532607.801          50.000                                                  
G30  22722325.180   119406564.340          50.000    22722327.300    89167237.551          50.000  
E 2  25992964.400   136593939.383          50.000    25992968.160   102001957.762          50.000  
E 7  26885570.220   141284574.879          50.000    26885576.460   105504697.426          50.000  
E15  25271287.160   132801467.832          50.000    25271292.980    99169912.043          50.000  
E27  25442288.120   133700097.723          50.000    25442292.500    99840969.113          50.000  
E30  22464124.860   118049761.887          50.000    22464128.460    88154034.516          50.000  
E36  26479884.060   139152690.770          50.000    26479889.520   103912709.242          50.000  
> 2020  5 21 18 11 20.0000000  0 15       0.000000000000
G 1  24416223.060   128308042.848          50.000    24416225.360    95814441.598          50.000  
G 6  23523418.020   123616329.492          50.000    23523421.920    92310890.754          50.000  
G13  22219796.600   116765807.195          50.000                                                  
G15  23110549.220   121446738.145          50.000                                                  
G17  20572028.140   108106738.477          50.000                                                  
G19  20231200.200   106315696.465          50.000                                                  
G24  23237698.720   122114872.457          50.000    23237701.500    91189674.125          50.000  
G28  21795088.180   114533956.148          50.000                                                  
G30  22722907.660   119409625.246          50.000    22722909.780    89169523.293          50.000  
E 2  25993272.340   136595557.602          50.000    25993276.100   102003166.172          50.000  
E 7  26886012.000   141286896.477          50.000    26886018.240   105506431.086          50.000  
E15  25270745.500   132798621.328          50.000    25270751.300    99167786.406          50.000  
E27  25441957.040   133698357.883          50.000    25441961.420    99839669.883          50.000  
E30  22464120.960   118049741.348          50.000    22464124.540    88154019.180          50.000  
E36  26480265.460   139154694.980          50.000    26480270.900   103914205.891          50.000  
> 2020  5 21 18 11 21.0000000  0 15       0.000000000000
G 1  24416658.980   128310333.598          50.000    24416661.280    95816152.219          50.000  
G 6  23522770.760   123612928.125          50.000    23522774.660    92308350.773          50.000  
G13  22220275.880   116768325.816          50.000                                                  
G15  23110839.100   121448261.473          50.000                                                  
G17  20572217.180   108107731.855          50.000                                                  
G19  20231004.720   106314669.152          50.000                                                  
G24  23237110.100   122111779.281          50.000    23237112.880    91187364.285          50.000  
G28  21795344.780   114535304.590          50.000                                                  
G30  22723490.180   119412686.461          50.000    22723492.300    89171809.262          50.000  
E 2  25993580.280   136597175.926          50.000    25993584.040   102004374.660          50.000  
E 7  26886453.820   141289218.227          50.000    26886460.060   105508164.863          50.000  
E15  25270203.860   132795775.035          50.000    25270209.680    99165660.930          50.000  
E27  25441625.960   133696618.059          50.000    25441630.340    99838370.664          50.000  
E30  22464117.080   118049720.949          50.000    22464120.660    88154003.945          50.000  
E36  26480646.900   139156699.535          50.000    26480652.360   103915702.797          50.000  
> 2020  5 21 18 11 22.0000000  0 15       0.000000000000
G 1  24417095.000   128312624.887          50.000    24417097.300    95817863.246          50.000  
G 6  23522123.520   123609526.895          50.000    23522127.440    92305810.895          50.000  
G13  22220755.240   116770844.848          50.000                                                  
G15  23111129.060   121449785.266          50.000                                                  
G17  20572406.300   108108725.680          50.000                                                  
G19  20230809.340   106313642.449          50.000                                                  
G24  23236521.520   122108686.336          50.000    23236524.300    91185054.617          50.000  
G28  21795601.380   114536653.117          50.000                                                  
G30  22724072.780   119415747.984          50.000    22724074.900    89174095.465          50.000  
E 2  25993888.260   136598794.359          50.000    25993892.020   102005583.227          50.000  
E 7  26886895.660   141291540.113          50.000    26886901.900   105509898.734          50.000  
E15  25269662.260   132792928.938          50.000    25269668.080    99163535.598          50.000  
E27  25441294.880   133694878.250          50.000    25441299.260    99837071.457          50.000  
E30  22464113.220   118049700.676          50.000    22464116.800    88153988.805          50.000  
E36  26481028.420   139158704.438          50.000    26481033.880   103917199.965          50.000  
> 2020  5 21 18 11 23.0000000  0 15       0.000000000000
G 1  24417531.120   128314916.703          50.000    24417533.420    95819574.668          50.000  
G 6  23521476.320   123606125.777          50.000    23521480.220    92303271.102          50.000  
G13  22221234.680   116773364.285          50.000                                                  
G15  23111419.120   121451309.531          50.000                                                  
G17  20572595.500   108109719.980          50.000                                                  
G19  20230614.080   106312616.355          50.000                                                  
G24  23235933.000   122105593.594          50.000    23235935.780    91182745.105          50.000  
G28  21795858.020   114538001.738          50.000                                                  
G30  22724655.420   119418809.816          50.000    22724657.540    89176381.895          50.000  
E 2  25994196.260   136600412.906          50.000    25994200.020   102006791.879          50.000  
E 7  26887337.540   141293862.152          50.000    26887343.760   105511632.719          50.000  
E15  25269120.700   132790083.043          50.000    25269126.520    99161410.414          50.000  
E27  25440963.820   133693138.469          50.000    25440968.200    99835772.270          50.000  
E30  22464109.400   118049680.555          50.000    22464112.980    88153973.777          50.000  
E36  26481410.020   139160709.688          50.000    26481415.480   103918697.387          50.000  
> 2020  5 21 18 11 24.0000000  0 15       0.000000000000
G 1  24417967.340   128317209.066          50.000    24417969.640    95821286.496          50.000  
G 6  23520829.120   123602724.793          50.000    23520833.040    92300731.406          50.000  
G13  22221714.180   116775884.121          50.000                                                  
G15  23111709.280   121452834.262          50.000                                                  
G17  20572784.800   108110714.746          50.000                                                  
G19  20230418.940   106311590.855          50.000                                                  
G24  23235344.520   122102501.078          50.000    23235347.300    91180435.762          50.000  
G28  21796114.680   114539350.457          50.000                                                  
G30  22725238.140   119421871.965          50.000    22725240.260    89178668.563          50.000  
E 2  25994504.300   136602031.578          50.000    25994508.060   102008000.629          50.000  
E 7  26887779.440   141296184.332          50.000    26887785.660   105513366.816          50.000  
E15  25268579.200   132787237.359          50.000    25268585.020    99159285.391          50.000  
E27  25440632.760   133691398.699          50.000    25440637.120    99834473.090          50.000  
E30  22464105.600   118049660.566          50.000    22464109.180    88153958.852          50.000  
E36  26481791.660   139162715.285          50.000    26481797.120   103920195.070          50.000  
> 2020  5 21 18 11 25.0000000  0 15       0.000000000000
G 1  24418403.660   128319501.953          50.000    24418405.960    95822998.715          50.000  
G 6  23520181.960   123599323.922          50.000    23520185.860    92298191.797          50.000  
G13  22222193.780   116778404.359          50.000                                                  
G15  23111999.520   121454359.461          50.000                                                  
G17  20572974.180   108111709.973          50.000                                                  
G19  20230223.900   106310565.965          50.000                                                  
G24  23234756.060   122099408.777          50.000    23234758.840    91178126.578          50.000  
G28  21796371.340   114540699.270          50.000                                                  
G30  22725820.900   119424934.434          50.000    22725823.020    89180955.473          50.000  
E 2  25994812.340   136603650.352          50.000    25994816.100   102009209.453          50.000  
E 7  26888221.360   141298506.652          50.000    26888227.580   105515101.016          50.000  
E15  25268037.720   132784391.883          50.000    25268043.540    99157160.523          50.000  
E27  25440301.700   133689658.961          50.000    25440306.060    99833173.934          50.000  
E30  22464101.820   118049640.711          50.000    22464105.400    88153944.023          50.000  
E36  26482173.380   139164721.234          50.000    26482178.840   103921693.020          50.000  
> 2020  5 21 18 11 26.0000000  0 15       0.000000000000
G 1  24418840.080   128321795.383          50.000    24418842.380    95824711.340          50.000  
G 6  23519534.820   123595923.172          50.000    23519538.720    92295652.277          50.000  
G13  22222673.440   116780925.016          50.000                                                  
G15  23112289.840   121455885.133          50.000                                                  
G17  20573163.660   108112705.660          50.000                                                  
G19  20230028.980   106309541.676          50.000                                                  
G24  23234167.660   122096316.699          50.000    23234170.440    91175817.559          50.000  
G28  21796628.040   114542048.176          50.000                                                  
G30  22726403.740   119427997.211          50.000    22726405.860    89183242.609          50.000  
E 2  25995120.400   136605269.246          50.000    25995124.160   102010418.363          50.000  
E 7  26888663.300   141300829.117          50.000    26888669.540   105516835.320          50.000  
E15  25267496.280   132781546.613          50.000    25267502.100    99155035.813          50.000  
E27  25439970.640   133687919.234          50.000    25439975.000    99831874.789          50.000  
E30  22464098.060   118049621.004          50.000    22464101.640    88153929.305          50.000  
E36  26482555.180   139166727.527          50.000    26482560.620   103923191.223          50.000  
> 2020  5 21 18 11 27.0000000  0 15       0.000000000000
G 1  24419276.620   128324089.344          50.000    24419278.900    95826424.363          50.000  
G 6  23518887.700   123592522.555          50.000    23518891.600    92293112.859          50.000  
G13  22223153.180   116783446.055          50.000                                                  
G15  23112580.260   121457411.266          50.000                                                  
G17  20573353.220   108113701.816          50.000                                                  
G19  20229834.180   106308517.988          50.000                                                  
G24  23233579.300   122093224.863          50.000    23233582.080    91173508.719          50.000  
G28  21796884.740   114543397.164          50.000                                                  
G30  22726986.620   119431060.305          50.000    22726988.740    89185529.984          50.000  
E 2  25995428.480   136606888.246          50.000    25995432.240   102011627.355          50.000  
E 7  26889105.280   141303151.715          50.000    26889111.520   105518569.727          50.000  
E15  25266954.880   132778701.547          50.000    25266960.700    99152911.250          50.000  
E27  25439639.580   133686179.520          50.000    25439643.940    99830575.652          50.000  
E30  22464094.340   118049601.414          50.000    22464097.920    88153914.680          50.000  
E36  26482937.020   139168734.168          50.000    26482942.480   103924689.691          50.000  
> 2020  5 21 18 11 28.0000000  0 15       0.000000000000
G 1  24419713.240   128326383.840          50.000    24419715.540    95828137.781          50.000  
G 6  23518240.600   123589122.043          50.000    23518244.500    92290573.516          50.000  
G13  22223633.000   116785967.512          50.000                                                  
G15  23112870.760   121458937.863          50.000                                                  
G17  20573542.880   108114698.438          50.000                                                  
G19  20229639.500   106307494.906          50.000                                                  
G24  23232991.000   122090133.270          50.000    23232993.780    91171200.063          50.000  
G28  21797141.460   114544746.262          50.000                                                  
G30  22727569.560   119434123.711          50.000    22727571.680    89187817.590          50.000  
E 2  25995736.600   136608507.359          50.000    25995740.360   102012836.434          50.000  
E 7  26889547.280   141305474.453          50.000    26889553.520   105520304.242          50.000  
E15  25266413.520   132775856.672          50.000    25266419.340    99150786.832          50.000  
E27  25439308.520   133684439.832          50.000    25439312.900    99829276.531          50.000  
E30  22464090.640   118049581.973          50.000    22464094.220    88153900.160          50.000  
E36  26483318.940   139170741.152          50.000    26483324.400   103926188.414          50.000  
> 2020  5 21 18 11 29.0000000  0 15       0.000000000000
G 1  24420149.980   128328678.867          50.000    24420152.260    95829851.602          50.000  
G 6  23517593.520   123585721.660          50.000    23517597.440    92288034.270          50.000  
G13  22224112.880   116788489.371          50.000                                                  
G15  23113161.340   121460464.926          50.000                                                  
G17  20573732.620   108115695.516          50.000                                                  
G19  20229444.920   106306472.426          50.000                                                  
G24  23232402.720   122087041.914          50.000    23232405.500    91168891.586          50.000  
G28  21797398.200   114546095.441          50.000                                                  
G30  22728152.580   119437187.418          50.000    22728154.700    89190105.422          50.000  
E 2  25996044.720   136610126.586          50.000    25996048.480   102014045.598          50.000  
E 7  26889989.320   141307797.352          50.000    26889995.540   105522038.871          50.000  
E15  25265872.200   132773012.016          50.000    25265878.020    99148662.578          50.000  
E27  25438977.480   133682700.156          50.000    25438981.840    99827977.426          50.000  
E30  22464086.960   118049562.660          50.000    22464090.540    88153885.738          50.000  
E36  26483700.920   139172748.484          50.000    26483706.380   103927687.395          50.000  
> 2020  5 21 18 11 30.0000000  0 15       0.000000000000
G 1  24420586.800   128330974.422          50.000    24420589.100    95831565.813          50.000  
G 6  23516946.480   123582321.398          50.000    23516950.380    92285495.117          50.000  
G13  22224592.860   116791011.633          50.000                                                  
G15  23113452.020   121461992.461          50.000                                                  
G17  20573922.440   108116693.066          50.000                                                  
G19  20229250.480   106305450.555          50.000                                                  
G24  23231814.500   122083950.789          50.000    23231817.280    91166583.277          50.000  
G28  21797654.960   114547444.734          50.000                                                  
G30  22728735.640   119440251.457          50.000    22728737.760    89192393.500          50.000  
E 2  25996352.880   136611745.922          50.000    25996356.640   102015254.840          50.000  
E 7  26890431.380   141310120.375          50.000    26890437.600   105523773.594          50.000  
E15  25265330.920   132770167.551          50.000    25265336.720    99146538.461          50.000  
E27  25438646.420   133680960.492          50.000    25438650.800    99826678.328          50.000  
E30  22464083.320   118049543.488          50.000    22464086.900    88153871.426          50.000  
E36  26484082.980   139174756.160          50.000    26484088.420   103929186.633          50.000  
> 2020  5 21 18 11 31.0000000  0 15       0.000000000000
G 1  24421023.740   128333270.512          50.000    24421026.040    95833280.422          50.000  
G 6  23516299.460   123578921.266          50.000    23516303.360    92282956.059          50.000  
G13  22225072.900   116793534.293          50.000                                                  
G15  23113742.800   121463520.469          50.000                                                  
G17  20574112.360   108117691.078          50.000                                                  
G19  20229056.140   106304429.285          50.000                                                  
G24  23231226.320   122080859.887          50.000    23231229.100    91164275.141          50.000  
G28  21797911.740   114548794.109          50.000                                                  
G30  22729318.760   119443315.793          50.000    22729320.880    89194681.801          50.000  
E 2  25996661.040   136613365.383          50.000    25996664.800   102016464.176          50.000  
E 7  26890873.460   141312443.543          50.000    26890879.700   105525508.430          50.000  
E15  25264789.660   132767323.297          50.000    25264795.480    99144414.508          50.000  
E27  25438315.380   133679220.852          50.000    25438319.760    99825379.246          50.000  
E30  22464079.700   118049524.461          50.000    22464083.280    88153857.215          50.000  
E36  26484465.080   139176764.191          50.000    26484470.540   103930686.133          50.000  
> 2020  5 21 18 11 32.0000000  0 15       0.000000000000
G 1  24421460.760   128335567.141          50.000    24421463.060    95834995.438          50.000  
G 6  23515652.460   123575521.250          50.000    23515656.360    92280417.086          50.000  
G13  22225553.020   116796057.355          50.000                                                  
G15  23114033.660   121465048.934          50.000                                                  
G17  20574302.360   108118689.555          50.000                                                  
G19  20228861.900   106303408.617          50.000                                                  
G24  23230638.200   122077769.258          50.000    23230640.980    91161967.203          50.000  
G28  21798168.540   114550143.578          50.000                                                  
G30  22729901.960   119446380.449          50.000    22729904.080    89196970.344          50.000  
E 2  25996969.240   136614984.949          50.000    25996973.000   102017673.594          50.000  
E 7  26891315.580   141314766.855          50.000    26891321.800   105527243.367          50.000  
E15  25264248.460   132764479.254          50.000    25264254.280    99142290.711          50.000  
E27  25437984.340   133677481.234          50.000    25437988.720    99824080.180          50.000  
E30  22464076.100   118049505.555          50.000    22464079.680    88153843.098          50.000  
E36  26484847.280   139178772.566          50.000    26484852.720   103932185.895          50.000  
> 2020  5 21 18 11 33.0000000  0 15       0.000000000000
G 1  24421897.900   128337864.309          50.000    24421900.200    95836710.855          50.000  
G 6  23515005.480   123572121.363          50.000    23515009.380    92277878.211          50.000  
G13  22226033.220   116798580.828          50.000                                                  
G15  23114324.600   121466577.875          50.000                                                  
G17  20574492.440   108119688.496          50.000                                                  
G19  20228667.800   106302388.551          50.000                                                  
G24  23230050.100   122074678.840          50.000    23230052.880    91159659.426          50.000  
G28  21798425.360   114551493.133          50.000                                                  
G30  22730485.200   119449445.414          50.000    22730487.320    89199259.117          50.000  
E 2  25997277.460   136616604.637          50.000    25997281.220   102018883.098          50.000  
E 7  26891757.700   141317090.301          50.000    26891763.940   105528978.410          50.000  
E15  25263707.300   132761635.406          50.000    25263713.120    99140167.059          50.000  
E27  25437653.300   133675741.629          50.000    25437657.680    99822781.129          50.000  
E30  22464072.520   118049486.809          50.000    22464076.120    88153829.098          50.000  
E36  26485229.520   139180781.285          50.000    26485234.980   103933685.910          50.000  
> 2020  5 21 18 11 34.0000000  0 15       0.000000000000
G 1  24422335.140   128340162.004          50.000    24422337.440    95838426.664          50.000  
G 6  23514358.520   123568721.602          50.000    23514362.420    92275339.430          50.000  
G13  22226513.500   116801104.699          50.000                                                  
G15  23114615.640   121468107.273          50.000                                                  
G17  20574682.620   108120687.902          50.000                                                  
G19  20228473.800   106301369.098          50.000                                                  
G24  23229462.060   122071588.648          50.000    23229464.840    91157351.816          50.000  
G28  21798682.180   114552842.797          50.000                                                  
G30  22731068.500   119452510.699          50.000    22731070.620    89201548.125          50.000  
E 2  25997585.700   136618224.426          50.000    25997589.460   102020092.684          50.000  
E 7  26892199.880   141319413.895          50.000    26892206.100   105530713.559          50.000  
E15  25263166.180   132758791.773          50.000    25263171.980    99138043.566          50.000  
E27  25437322.280   133674002.043          50.000    25437326.640    99821482.086          50.000  
E30  22464068.980   118049468.180          50.000    22464072.560    88153815.188          50.000  
E36  26485611.820   139182790.344          50.000    26485617.280   103935186.180          50.000  
> 2020  5 21 18 11 35.0000000  0 15       0.000000000000
G 1  24422772.480   128342460.234          50.000    24422774.780    95840142.875          50.000  
G 6  23513711.580   123565321.953          50.000    23513715.500    92272800.730          50.000  
G13  22226993.860   116803628.980          50.000                                                  
G15  23114906.760   121469637.137          50.000                                                  
G17  20574872.900   108121687.770          50.000                                                  
G19  20228279.920   106300350.238          50.000                                                  
G24  23228874.060   122068498.680          50.000    23228876.840    91155044.375          50.000  
G28  21798939.040   114554192.547          50.000                                                  
G30  22731651.860   119455576.297          50.000    22731653.980    89203837.371          50.000  
E 2  25997893.940   136619844.328          50.000    25997897.720   102021302.352          50.000  
E 7  26892642.060   141321737.625          50.000    26892648.300   105532448.813          50.000  
E15  25262625.080   132755948.324          50.000    25262630.900    99135920.215          50.000  
E27  25436991.240   133672262.480          50.000    25436995.620    99820183.063          50.000  
E30  22464065.460   118049449.684          50.000    22464069.040    88153801.375          50.000  
E36  26485994.200   139184799.750          50.000    26485999.660   103936686.711          50.000  
> 2020  5 21 18 11 36.0000000  0 15       0.000000000000
G 1  24423209.920   128344759.004          50.000    24423212.220    95841859.488          50.000  
G 6  23513064.680   123561922.441          50.000    23513068.580    92270262.137          50.000  
G13  22227474.300   116806153.660          50.000                                                  
G15  23115197.980   121471167.469          50.000                                                  
G17  20575063.260   108122688.113          50.000                                                  
G19  20228086.140   106299331.992          50.000                                                  
G24  23228286.100   122065408.922          50.000    23228288.880    91152737.090          50.000  
G28  21799195.900   114555542.406          50.000                                                  
G30  22732235.280   119458642.211          50.000    22732237.420    89206126.848          50.000  
E 2  25998202.220   136621464.355          50.000    25998206.000   102022512.109          50.000  
E 7  26893084.280   141324061.504          50.000    26893090.520   105534184.176          50.000  
E15  25262084.040   132753105.102          50.000    25262089.840    99133797.031          50.000  
E27  25436660.220   133670522.926          50.000    25436664.600    99818884.043          50.000  
E30  22464061.960   118049431.336          50.000    22464065.560    88153787.672          50.000  
E36  26486376.660   139186809.512          50.000    26486382.100   103938187.504          50.000  
> 2020  5 21 18 11 37.0000000  0 15       0.000000000000
G 1  24423647.460   128347058.305          50.000    24423649.760    95843576.496          50.000  
G 6  23512417.800   123558523.035          50.000    23512421.700    92267723.621          50.000  
G13  22227954.800   116808678.742          50.000                                                  
G15  23115489.280   121472698.273          50.000                                                  
G17  20575253.700   108123688.906          50.000                                                  
G19  20227892.500   106298314.348          50.000                                                  
G24  23227698.180   122062319.395          50.000    23227700.960    91150429.977          50.000  
G28  21799452.780   114556892.352          50.000                                                  
G30  22732818.780   119461708.426          50.000    22732820.900    89208416.555          50.000  
E 2  25998510.540   136623084.492          50.000    25998514.300   102023721.949          50.000  
E 7  26893526.540   141326385.516          50.000    26893532.760   105535919.637          50.000  
E15  25261543.020   132750262.078          50.000    25261548.840    99131673.996          50.000  
E27  25436329.200   133668783.395          50.000    25436333.580    99817585.043          50.000  
E30  22464058.500   118049413.125          50.000    22464062.100    88153774.074          50.000  
E36  26486759.160   139188819.605          50.000    26486764.620   103939688.551          50.000  
> 2020  5 21 18 11 38.0000000  0 15       0.000000000000
G 1  24424085.120   128349358.141          50.000    24424087.420    95845293.906          50.000  
G 6  23511770.940   123555123.770          50.000    23511774.840    92265185.211          50.000  
G13  22228435.380   116811204.230          50.000                                                  
G15  23115780.660   121474229.543          50.000                                                  
G17  20575444.240   108124690.172          50.000                                                  
G19  20227698.960   106297297.301          50.000                                                  
G24  23227110.300   122059230.094          50.000    23227113.080    91148123.031          50.000  
G28  21799709.700   114558242.395          50.000                                                  
G30  22733402.320   119464774.957          50.000    22733404.440    89210706.496          50.000  
E 2  25998818.860   136624704.746          50.000    25998822.620   102024931.879          50.000  
E 7  26893968.800   141328709.664          50.000    26893975.040   105537655.199          50.000  
E15  25261002.060   132747419.262          50.000    25261007.860    99129551.113          50.000  
E27  25435998.180   133667043.883          50.000    25436002.560    99816286.059          50.000  
E30  22464055.060   118049395.051          50.000    22464058.660    88153760.578          50.000  
E36  26487141.740   139190830.059          50.000    26487147.200   103941189.859          50.000  
> 2020  5 21 18 11 39.0000000  0 15       0.000000000000
G 1  24424522.860   128351658.504          50.000    24424525.160    95847011.707          50.000  
G 6  23511124.100   123551724.625          50.000    23511128.000    92262646.891          50.000  
G13  22228916.040   116813730.117          50.000                                                  
G15  23116072.140   121475761.285          50.000                                                  
G17  20575634.860   108125691.906          50.000                                                  
G19  20227505.540   106296280.867          50.000                                                  
G24  23226522.480   122056141.023          50.000    23226525.240    91145816.258          50.000  
G28  21799966.620   114559592.535          50.000                                                  
G30  22733985.920   119467841.805          50.000    22733988.040    89212996.676          50.000  
E 2  25999127.200   136626325.102          50.000    25999130.960   102026141.883          50.000  
E 7  26894411.100   141331033.961          50.000    26894417.340   105539390.875          50.000  
E15  25260461.120   132744576.645          50.000    25260466.940    99127428.379          50.000  
E27  25435667.160   133665304.391          50.000    25435671.540    99814987.090          50.000  
E30  22464051.660   118049377.113          50.000    22464055.240    88153747.184          50.000  
E36  26487524.380   139192840.848          50.000    26487529.840   103942691.426          50.000  
> 2020  5 21 18 11 40.0000000  0 15       0.000000000000
G 1  24424960.700   128353959.398          50.000    24424963.000    95848729.906          50.000  
G 6  23510477.280   123548325.598          50.000    23510481.180    92260108.656          50.000  
G13  22229396.780   116816256.406          50.000                                                  
G15  23116363.720   121477293.488          50.000                                                  
G17  20575825.560   108126694.094          50.000                                                  
G19  20227312.220   106295265.035          50.000                                                  
G24  23225934.680   122053052.172          50.000    23225937.460    91143509.648          50.000  
G28  21800223.560   114560942.754          50.000                                                  
G30  22734569.580   119470908.969          50.000    22734571.700    89215287.086          50.000  
E 2  25999435.560   136627945.574          50.000    25999439.320   102027351.980          50.000  
E 7  26894853.420   141333358.391          50.000    26894859.660   105541126.652          50.000  
E15  25259920.220   132741734.238          50.000    25259926.040    99125305.805          50.000  
E27  25435336.160   133663564.918          50.000    25435340.520    99813688.133          50.000  
E30  22464048.260   118049359.305          50.000    22464051.840    88153733.883          50.000  
E36  26487907.080   139194851.988          50.000    26487912.540   103944193.250          50.000  
> 2020  5 21 18 11 41.0000000  0 15       0.000000000000
G 1  24425398.660   128356260.836          50.000    24425400.960    95850448.512          50.000  
G 6  23509830.500   123544926.707          50.000    23509834.400    92257570.527          50.000  
G13  22229877.600   116818783.105          50.000                                                  
G15  23116655.380   121478826.156          50.000                                                  
G17  20576016.360   108127696.754          50.000                                                  
G19  20227119.040   106294249.805          50.000                                                  
G24  23225346.940   122049963.566          50.000    23225349.720    91141203.227          50.000  
G28  21800480.520   114562293.082          50.000                                                  
G30  22735153.300   119473976.434          50.000    22735155.420    89217577.727          50.000  
E 2  25999743.960   136629566.164          50.000    25999747.720   102028562.160          50.000  
E 7  26895295.780   141335682.965          50.000    26895302.020   105542862.535          50.000  
E15  25259379.360   132738892.023          50.000    25259385.180    99123183.375          50.000  
E27  25435005.140   133661825.453          50.000    25435009.520    99812389.184          50.000  
E30  22464044.900   118049341.641          50.000    22464048.480    88153720.691          50.000  
E36  26488289.860   139196863.465          50.000    26488295.320   103945695.324          50.000  
> 2020  5 21 18 11 42.0000000  0 15       0.000000000000
G 1  24425836.700   128358562.805          50.000    24425839.000    95852167.516          50.000  
G 6  23509183.740   123541527.934          50.000    23509187.620    92255032.480          50.000  
G13  22230358.500   116821310.203          50.000                                                  
G15  23116947.120   121480359.285          50.000                                                  
G17  20576207.260   108128699.871          50.000                                                  
G19  20226925.960   106293235.176          50.000                                                  
G24  23224759.240   122046875.207          50.000    23224762.020    91138896.984          50.000  
G28  21800737.500   114563643.504          50.000                                                  
G30  22735737.080   119477044.215          50.000    22735739.200    89219868.602          50.000  
E 2  26000052.360   136631186.863          50.000    26000056.120   102029772.422          50.000  
E 7  26895738.160   141338007.684          50.000    26895744.400   105544598.523          50.000  
E15  25258838.560   132736050.031          50.000    25258844.360    99121061.105          50.000  
E27  25434674.140   133660086.020          50.000    25434678.520    99811090.254          50.000  
E30  22464041.560   118049324.105          50.000    22464045.160    88153707.598          50.000  
E36  26488672.700   139198875.305          50.000    26488678.160   103947197.672          50.000  
> 2020  5 21 18 11 43.0000000  0 15       0.000000000000
G 1  24426274.860   128360865.293          50.000    24426277.160    95853886.902          50.000  
G 6  23508536.980   123538129.281          50.000    23508540.880    92252494.527          50.000  
G13  22230839.460   116823837.703          50.000                                                  
G15  23117238.960   121481892.883          50.000                                                  
G17  20576398.240   108129703.445          50.000                                                  
G19  20226733.000   106292221.156          50.000                                                  
G24  23224171.580   122043787.055          50.000    23224174.360    91136590.898          50.000  
G28  21800994.480   114564994.020          50.000                                                  
G30  22736320.920   119480112.313          50.000    22736323.040    89222159.711          50.000  
E 2  26000360.800   136632807.664          50.000    26000364.560   102030982.758          50.000  
E 7  26896180.560   141340332.543          50.000    26896186.800   105546334.617          50.000  
E15  25258297.780   132733208.238          50.000    25258303.600    99118938.988          50.000  
E27  25434343.140   133658346.602          50.000    25434347.520    99809791.340          50.000  
E30  22464038.260   118049306.723          50.000    22464041.840    88153694.617          50.000  
E36  26489055.600   139200887.477          50.000    26489061.060   103948700.270          50.000  
> 2020  5 21 18 11 44.0000000  0 15       0.000000000000
G 1  24426713.120   128363168.375          50.000    24426715.420    95855606.738          50.000  
G 6  23507890.260   123534730.820          50.000    23507894.160    92249956.750          50.000  
G13  22231320.500   116826365.625          50.000                                                  
G15  23117530.900   121483426.855          50.000                                                  
G17  20576589.280   108130707.598          50.000                                                  
G19  20226540.160   106291207.723          50.000                                                  
G24  23223583.960   122040699.301          50.000    23223586.720    91134285.180          50.000  
G28  21801251.500   114566344.676          50.000                                                  
G30  22736904.840   119483180.684          50.000    22736906.980    89224450.988          50.000  
E 2  26000669.260   136634428.629          50.000    26000673.020   102032193.219          50.000  
E 7  26896623.020   141342657.555          50.000    26896629.240   105548070.820          50.000  
E15  25257757.060   132730366.625          50.000    25257762.880    99116816.984          50.000  
E27  25434012.140   133656607.246          50.000    25434016.500    99808492.488          50.000  
E30  22464034.960   118049289.520          50.000    22464038.540    88153681.797          50.000  
E36  26489438.580   139202900.039          50.000    26489444.040   103950203.156          50.000  
> 2020  5 21 18 11 45.0000000  0 15       0.000000000000
G 1  24427151.480   128365471.941          50.000    24427153.780    95857326.934          50.000  
G 6  23507243.580   123531332.418          50.000    23507247.460    92247418.980          50.000  
G13  22231801.620   116828893.922          50.000                                                  
G15  23117822.920   121484961.383          50.000                                                  
G17  20576780.440   108131712.102          50.000                                                  
G19  20226347.420   106290194.902          50.000                                                  
G24  23222996.400   122037611.590          50.000    23222999.140    91131979.426          50.000  
G28  21801508.540   114567695.367          50.000                                                  
G30  22737488.800   119486249.402          50.000    22737490.940    89226742.566          50.000  
E 2  26000977.720   136636049.664          50.000    26000981.500   102033403.730          50.000  
E 7  26897065.480   141344982.691          50.000    26897071.700   105549807.121          50.000  
E15  25257216.360   132727525.234          50.000    25257222.180    99114695.168          50.000  
E27  25433681.140   133654867.855          50.000    25433685.520    99807193.594          50.000  
E30  22464031.720   118049272.402          50.000    22464035.300    88153669.012          50.000  
E36  26489821.620   139204912.902          50.000    26489827.080   103951706.270          50.000  
> 2020  5 21 18 11 46.0000000  0 15       0.000000000000
G 1  24427589.940   128367776.027          50.000    24427592.240    95859047.516          50.000  
G 6  23506596.900   123527934.129          50.000    23506600.800    92244881.297          50.000  
G13  22232282.820   116831422.625          50.000                                                  
G15  23118115.020   121486496.383          50.000                                                  
G17  20576971.680   108132717.070          50.000                                                  
G19  20226154.820   106289182.691          50.000                                                  
G24  23222408.860   122034524.098          50.000    23222411.620    91129673.832          50.000  
G28  21801765.580   114569046.168          50.000                                                  
G30  22738072.820   119489318.426          50.000    22738074.960    89229034.367          50.000  
E 2  26001286.220   136637670.813          50.000    26001289.980   102034614.328          50.000  
E 7  26897507.960   141347307.973          50.000    26897514.200   105551543.531          50.000  
E15  25256675.700   132724684.063          50.000    25256681.520    99112573.516          50.000  
E27  25433350.160   133653128.488          50.000    25433354.520    99805894.719          50.000  
E30  22464028.480   118049255.402          50.000    22464032.060    88153656.320          50.000  
E36  26490204.720   139206926.109          50.000    26490210.180   103953209.641          50.000  
> 2020  5 21 18 11 47.0000000  0 15       0.000000000000
G 1  24428028.500   128370080.656          50.000    24428030.800    95860768.504          50.000  
G 6  23505950.260   123524535.965          50.000    23505954.140    92242343.711          50.000  
G13  22232764.100   116833951.719          50.000                                                  
G15  23118407.220   121488031.848          50.000                                                  
G17  20577163.000   108133722.496          50.000                                                  
G19  20225962.320   106288171.082          50.000                                                  
G24  23221821.380   122031436.824          50.000    23221824.120    91127368.402          50.000  
G28  21802022.660   114570397.063          50.000                                                  
G30  22738656.900   119492387.766          50.000    22738659.040    89231326.406          50.000  
E 2  26001594.740   136639292.078          50.000    26001598.500   102035825.012          50.000  
E 7  26897950.480   141349633.383          50.000    26897956.720   105553280.039          50.000  
E15  25256135.080   132721843.082          50.000    25256140.900    99110452.004          50.000  
E27  25433019.180   133651389.133          50.000    25433023.540    99804595.848          50.000  
E30  22464025.280   118049238.566          50.000    22464028.860    88153643.746          50.000  
E36  26490587.900   139208939.668          50.000    26490593.340   103954713.270          50.000  
> 2020  5 21 18 11 48.0000000  0 15       0.000000000000
G 1  24428467.160   128372385.813          50.000    24428469.460    95862489.887          50.000  
G 6  23505303.620   123521137.926          50.000    23505307.520    92239806.215          50.000  
G13  22233245.460   116836481.219          50.000                                                  
G15  23118699.500   121489567.770          50.000                                                  
G17  20577354.420   108134728.383          50.000                                                  
G19  20225769.920   106287160.074          50.000                                                  
G24  23221233.940   122028349.770          50.000    23221236.680    91125063.133          50.000  
G28  21802279.740   114571748.051          50.000                                                  
G30  22739241.040   119495457.410          50.000    22739243.160    89233618.672          50.000  
E 2  26001903.280   136640913.449          50.000    26001907.040   102037035.777          50.000  
E 7  26898393.020   141351958.938          50.000    26898399.260   105555016.652          50.000  
E15  25255594.500   132719002.305          50.000    25255600.320    99108330.645          50.000  
E27  25432688.200   133649649.801          50.000    25432692.560    99803296.996          50.000  
E30  22464022.100   118049221.848          50.000    22464025.680    88153631.262          50.000  
E36  26490971.120   139210953.563          50.000    26490976.580   103956217.148          50.000  
> 2020  5 21 18 11 49.0000000  0 15       0.000000000000
G 1  24428905.920   128374691.512          50.000    24428908.220    95864211.672          50.000  
G 6  23504657.020   123517740.016          50.000    23504660.920    92237268.816          50.000  
G13  22233726.880   116839011.125          50.000                                                  
G15  23118991.860   121491104.164          50.000                                                  
G17  20577545.920   108135734.746          50.000                                                  
G19  20225577.660   106286149.680          50.000                                                  
G24  23220646.540   122025262.965          50.000    23220649.280    91122758.055          50.000  
G28  21802536.840   114573099.141          50.000                                                  
G30  22739825.240   119498527.379          50.000    22739827.360    89235911.176          50.000  
E 2  26002211.840   136642534.945          50.000    26002215.620   102038246.629          50.000  
E 7  26898835.580   141354284.633          50.000    26898841.820   105556753.371          50.000  
E15  25255053.960   132716161.742          50.000    25255059.780    99106209.445          50.000  
E27  25432357.220   133647910.484          50.000    25432361.580    99801998.156          50.000  
E30  22464018.940   118049205.285          50.000    22464022.520    88153618.891          50.000  
E36  26491354.420   139212967.816          50.000    26491359.880   103957721.301          50.000  
> 2020  5 21 18 11 50.0000000  0 15       0.000000000000
G 1  24429344.780   128376997.730          50.000    24429347.080    95865933.844          50.000  
G 6  23504010.460   123514342.230          50.000    23504014.340    92234731.508          50.000  
G13  22234208.380   116841541.438          50.000                                                  
G15  23119284.320   121492641.031          50.000                                                  
G17  20577737.520   108136741.563          50.000                                                  
G19  20225385.500   106285139.895          50.000                                                  
G24  23220059.180   122022176.398          50.000    23220061.940    91120453.148          50.000  
G28  21802793.960   114574450.324          50.000                                                  
G30  22740409.480   119501597.648          50.000    22740411.620    89238203.906          50.000  
E 2  26002520.420   136644156.551          50.000    26002524.200   102039457.566          50.000  
E 7  26899278.180   141356610.465          50.000    26899284.420   105558490.188          50.000  
E15  25254513.460   132713321.391          50.000    25254519.280    99104088.398          50.000  
E27  25432026.240   133646171.199          50.000    25432030.600    99800699.332          50.000  
E30  22464015.820   118049188.848          50.000    22464019.400    88153606.613          50.000  
E36  26491737.800   139214982.406          50.000    26491743.260   103959225.695          50.000  
> 2020  5 21 18 11 51.0000000  0 15       0.000000000000
G 1  24429783.740   128379304.496          50.000    24429786.040    95867656.426          50.000  
G 6  23503363.900   123510944.590          50.000    23503367.800    92232194.305          50.000  
G13  22234689.960   116844072.141          50.000                                                  
G15  23119576.860   121494178.363          50.000                                                  
G17  20577929.200   108137748.859          50.000                                                  
G19  20225193.460   106284130.711          50.000                                                  
G24  23219471.860   122019090.063          50.000    23219474.620    91118148.414          50.000  
G28  21803051.100   114575801.594          50.000                                                  
G30  22740993.800   119504668.246          50.000    22740995.940    89240496.879          50.000  
E 2  26002829.040   136645778.277          50.000    26002832.800   102040668.590          50.000  
E 7  26899720.800   141358936.453          50.000    26899727.040   105560227.121          50.000  
E15  25253973.000   132710481.246          50.000    25253978.820    99101967.512          50.000  
E27  25431695.260   133644431.926          50.000    25431699.640    99799400.523          50.000  
E30  22464012.720   118049172.566          50.000    22464016.300    88153594.449          50.000  
E36  26492121.220   139216997.355          50.000    26492126.680   103960730.363          50.000  
> 2020  5 21 18 11 52.0000000  0 15       0.000000000000
G 1  24430222.800   128381611.793          50.000    24430225.100    95869379.402          50.000  
G 6  23502717.380   123507547.059          50.000    23502721.260    92229657.184          50.000  
G13  22235171.620   116846603.254          50.000                                                  
G15  23119869.500   121495716.145          50.000                                                  
G17  20578120.960   108138756.609          50.000                                                  
G19  20225001.520   106283122.121          50.000                                                  
G24  23218884.600   122016003.949          50.000    23218887.360    91115843.848          50.000  
G28  21803308.260   114577152.965          50.000                                                  
G30  22741578.180   119507739.152          50.000    22741580.320    89242790.082          50.000  
E 2  26003137.660   136647400.113          50.000    26003141.420   102041879.699          50.000  
E 7  26900163.440   141361262.566          50.000    26900169.680   105561964.152          50.000  
E15  25253432.580   132707641.297          50.000    25253438.400    99099846.766          50.000  
E27  25431364.300   133642692.668          50.000    25431368.660    99798101.723          50.000  
E30  22464009.640   118049156.398          50.000    22464013.220    88153582.375          50.000  
E36  26492504.720   139219012.641          50.000    26492510.180   103962235.277          50.000  
> 2020  5 21 18 11 53.0000000  0 15       0.000000000000
G 1  24430661.960   128383919.625          50.000    24430664.280    95871102.777          50.000  
G 6  23502070.860   123504149.645          50.000    23502074.760    92227120.152          50.000  
G13  22235653.340   116849134.766          50.000                                                  
G15  23120162.220   121497254.406          50.000                                                  
G17  20578312.820   108139764.824          50.000                                                  
G19  20224809.720   106282114.145          50.000                                                  
G24  23218297.380   122012918.102          50.000    23218300.140    91113539.477          50.000  
G28  21803565.440   114578504.438          50.000                                                  
G30  22742162.600   119510810.363          50.000    22742164.760    89245083.516          50.000  
E 2  26003446.300   136649022.055          50.000    26003450.080   102043090.883          50.000  
E 7  26900606.120   141363588.832          50.000    26900612.360   105563701.289          50.000  
E15  25252892.180   132704801.555          50.000    25252898.000    99097726.180          50.000  
E27  25431033.320   133640953.430          50.000    25431037.700    99796802.938          50.000  
E30  22464006.600   118049140.387          50.000    22464010.180    88153570.414          50.000  
E36  26492888.280   139221028.270          50.000    26492893.740   103963740.449          50.000  
> 2020  5 21 18 11 54.0000000  0 15       0.000000000000
G 1  24431101.240   128386227.984          50.000    24431103.540    95872826.543          50.000  
G 6  23501424.380   123500752.355          50.000    23501428.280    92224583.211          50.000  
G13  22236135.160   116851666.688          50.000                                                  
G15  23120455.020   121498793.125          50.000                                                  
G17  20578504.760   108140773.504          50.000                                                  
G19  20224618.020   106281106.770          50.000                                                  
G24  23217710.200   122009832.484          50.000    23217712.960    91111235.277          50.000  
G28  21803822.640   114579856.004          50.000                                                  
G30  22742747.100   119513881.891          50.000    22742749.240    89247377.184          50.000  
E 2  26003754.980   136650644.117          50.000    26003758.740   102044302.164          50.000  
E 7  26901048.820   141365915.234          50.000    26901055.060   105565438.539          50.000  
E15  25252351.840   132701962.023          50.000    25252357.660    99095605.750          50.000  
E27  25430702.360   133639214.215          50.000    25430706.740    99795504.172          50.000  
E30  22464003.580   118049124.488          50.000    22464007.160    88153558.539          50.000  
E36  26493271.900   139223044.242          50.000    26493277.380   103965245.883          50.000  
> 2020  5 21 18 11 55.0000000  0 15       0.000000000000
G 1  24431540.600   128388536.875          50.000    24431542.920    95874550.715          50.000  
G 6  23500777.920   123497355.199          50.000    23500781.820    92222046.375          50.000  
G13  22236617.040   116854198.996          50.000                                                  
G15  23120747.920   121500332.313          50.000                                                  
G17  20578696.800   108141782.645          50.000                                                  
G19  20224426.440   106280100.008          50.000                                                  
G24  23217123.080   122006747.094          50.000    23217125.840    91108931.254          50.000  
G28  21804079.840   114581207.668          50.000                                                  
G30  22743331.660   119516953.730          50.000    22743333.800    89249671.086          50.000  
E 2  26004063.660   136652266.293          50.000    26004067.440   102045513.527          50.000  
E 7  26901491.540   141368241.766          50.000    26901497.780   105567175.883          50.000  
E15  25251811.540   132699122.699          50.000    25251817.360    99093485.477          50.000  
E27  25430371.400   133637475.023          50.000    25430375.780    99794205.426          50.000  
E30  22464000.580   118049108.754          50.000    22464004.160    88153546.793          50.000  
E36  26493655.600   139225060.574          50.000    26493661.060   103966751.582          50.000  
> 2020  5 21 18 11 56.0000000  0 15       0.000000000000
G 1  24431980.080   128390846.301          50.000    24431982.380    95876275.285          50.000  
G 6  23500131.500   123493958.184          50.000    23500135.380    92219509.645          50.000  
G13  22237099.000   116856731.711          50.000                                                  
G15  23121040.900   121501871.957          50.000                                                  
G17  20578888.920   108142792.246          50.000                                                  
G19  20224234.980   106279093.844          50.000                                                  
G24  23216535.980   122003661.930          50.000    23216538.740    91106627.398          50.000  
G28  21804337.080   114582559.422          50.000                                                  
G30  22743916.260   119520025.883          50.000    22743918.420    89251965.227          50.000  
E 2  26004372.380   136653888.582          50.000    26004376.140   102046724.973          50.000  
E 7  26901934.300   141370568.449          50.000    26901940.540   105568913.340          50.000  
E15  25251271.280   132696283.590          50.000    25251277.100    99091365.363          50.000  
E27  25430040.440   133635735.840          50.000    25430044.820    99792906.688          50.000  
E30  22463997.600   118049093.145          50.000    22464001.200    88153535.137          50.000  
E36  26494039.360   139227077.238          50.000    26494044.820   103968257.531          50.000  
> 2020  5 21 18 11 57.0000000  0 15       0.000000000000
G 1  24432419.640   128393156.262          50.000    24432421.960    95878000.254          50.000  
G 6  23499485.080   123490561.266          50.000    23499488.960    92216972.984          50.000  
G13  22237581.040   116859264.824          50.000                                                  
G15  23121333.980   121503412.063          50.000                                                  
G17  20579081.140   108143802.313          50.000                                                  
G19  20224043.620   106278088.270          50.000                                                  
G24  23215948.940   122000576.969          50.000    23215951.700    91104323.695          50.000  
G28  21804594.320   114583911.258          50.000                                                  
G30  22744500.940   119523098.340          50.000    22744503.080    89254259.590          50.000  
E 2  26004681.100   136655510.977          50.000    26004684.880   102047936.504          50.000  
E 7  26902377.080   141372895.266          50.000    26902383.320   105570650.898          50.000  
E15  25250731.040   132693444.672          50.000    25250736.860    99089245.391          50.000  
E27  25429709.500   133633996.668          50.000    25429713.860    99791607.953          50.000  
E30  22463994.660   118049077.676          50.000    22463998.240    88153523.582          50.000  
E36  26494423.180   139229094.242          50.000    26494428.660   103969763.738          50.000  
> 2020  5 21 18 11 58.0000000  0 15       0.000000000000
G 1  24432859.320   128395466.750          50.000    24432861.620    95879725.617          50.000  
G 6  23498838.700   123487164.488          50.000    23498842.580    92214436.434          50.000  
G13  22238063.140   116861798.344          50.000                                                  
G15  23121627.140   121504952.641          50.000                                                  
G17  20579273.420   108144812.844          50.000                                                  
G19  20223852.380   106277083.320          50.000                                                  
G24  23215361.920   121997492.215          50.000    23215364.680    91102020.148          50.000  
G28  21804851.580   114585263.191          50.000                                                  
G30  22745085.660   119526171.109          50.000    22745087.820    89256554.191          50.000  
E 2  26004989.860   136657133.496          50.000    26004993.640   102049148.125          50.000  
E 7  26902819.880   141375222.230          50.000    26902826.120   105572388.563          50.000  
E15  25250190.860   132690605.977          50.000    25250196.680    99087125.586          50.000  
E27  25429378.540   133632257.527          50.000    25429382.920    99790309.246          50.000  
E30  22463991.740   118049062.328          50.000    22463995.320    88153512.121          50.000  
E36  26494807.080   139231111.605          50.000    26494812.540   103971270.207          50.000  
> 2020  5 21 18 11 59.0000000  0 15       0.000000000000
G 1  24433299.080   128397777.766          50.000    24433301.400    95881451.375          50.000  
G 6  23498192.340   123483767.844          50.000    23498196.220    92211899.980          50.000  
G13  22238545.340   116864332.262          50.000                                                  
G15  23121920.400   121506493.676          50.000                                                  
G17  20579465.820   108145823.844          50.000                                                  
G19  20223661.260   106276078.973          50.000                                                  
G24  23214774.960   121994407.707          50.000    23214777.720    91099716.781          50.000  
G28  21805108.880   114586615.234          50.000                                                  
G30  22745670.460   119529244.195          50.000    22745672.600    89258849.027          50.000  
E 2  26005298.640   136658756.121          50.000    26005302.400   102050359.824          50.000  
E 7  26903262.700   141377549.316          50.000    26903268.960   105574126.324          50.000  
E15  25249650.700   132687767.480          50.000    25249656.520    99085005.930          50.000  
E27  25429047.600   133630518.406          50.000    25429051.980    99789010.555          50.000  
E30  22463988.860   118049047.145          50.000    22463992.440    88153500.781          50.000  
E36  26495191.040   139233129.305          50.000    26495196.500   103972776.930          50.000  
> 2020  5 21 18 12  0.0000000  0 15       0.000000000000
G 1  24433738.960   128400089.328          50.000    24433741.280    95883177.539          50.000  
G 6  23497546.000   123480371.316          50.000    23497549.880    92209363.613          50.000  
G13  22239027.600   116866866.570          50.000                                                  
G15  23122213.740   121508035.191          50.000                                                  
G17  20579658.280   108146835.293          50.000                                                  
G19  20223470.260   106275075.230          50.000                                                  
G24  23214188.040   121991323.418          50.000    23214190.800    91097413.578          50.000  
G28  21805366.180   114587967.355          50.000                                                  
G30  22746255.300   119532317.586          50.000    22746257.440    89261144.090          50.000  
E 2  26005607.440   136660378.867          50.000    26005611.200   102051571.613          50.000  
E 7  26903705.560   141379876.555          50.000    26903711.820   105575864.195          50.000  
E15  25249110.600   132684929.191          50.000    25249116.420    99082886.434          50.000  
E27  25428716.660   133628779.301          50.000    25428721.040    99787711.871          50.000  
E30  22463986.000   118049032.090          50.000    22463989.580    88153489.543          50.000  
E36  26495575.060   139235147.352          50.000    26495580.520   103974283.914          50.000  
> 2020  5 21 18 12  1.0000000  0 15       0.000000000000
G 1  24434178.940   128402401.402          50.000    24434181.260    95884904.090          50.000  
G 6  23496899.680   123476974.910          50.000    23496903.560    92206827.340          50.000  
G13  22239509.940   116869401.297          50.000                                                  
G15  23122507.160   121509577.152          50.000                                                  
G17  20579850.840   108147847.211          50.000                                                  
G19  20223279.360   106274072.086          50.000                                                  
G24  23213601.160   121988239.355          50.000    23213603.920    91095110.551          50.000  
G28  21805623.500   114589319.582          50.000                                                  
G30  22746840.220   119535391.293          50.000    22746842.360    89263439.391          50.000  
E 2  26005916.260   136662001.727          50.000    26005920.020   102052783.488          50.000  
E 7  26904148.460   141382203.930          50.000    26904154.700   105577602.168          50.000  
E15  25248570.520   132682091.105          50.000    25248576.340    99080767.082          50.000  
E27  25428385.720   133627040.211          50.000    25428390.100    99786413.199          50.000  
E30  22463983.140   118049017.160          50.000    22463986.740    88153478.395          50.000  
E36  26495959.140   139237165.738          50.000    26495964.600   103975791.148          50.000  
> 2020  5 21 18 12  2.0000000  0 15       0.000000000000
G 1  24434619.020   128404714.012          50.000    24434621.320    95886631.035          50.000  
G 6  23496253.380   123473578.633          50.000    23496257.280    92204291.156          50.000  
G13  22239992.360   116871936.414          50.000                                                  
G15  23122800.680   121511119.586          50.000                                                  
G17  20580043.500   108148859.586          50.000                                                  
G19  20223088.580   106273069.543          50.000                                                  
G24  23213014.340   121985155.531          50.000    23213017.080    91092807.691          50.000  
G28  21805880.840   114590671.895          50.000                                                  
G30  22747425.180   119538465.320          50.000    22747427.320    89265734.926          50.000  
E 2  26006225.100   136663624.688          50.000    26006228.860   102053995.441          50.000  
E 7  26904591.360   141384531.441          50.000    26904597.620   105579340.246          50.000  
E15  25248030.500   132679253.223          50.000    25248036.320    99078647.883          50.000  
E27  25428054.800   133625301.141          50.000    25428059.160    99785114.543          50.000  
E30  22463980.340   118049002.375          50.000    22463983.920    88153467.352          50.000  
E36  26496343.300   139239184.473          50.000    26496348.760   103977298.645          50.000  
> 2020  5 21 18 12  3.0000000  0 15       0.000000000000
G 1  24435059.200   128407027.164          50.000    24435061.500    95888358.391          50.000  
G 6  23495607.120   123470182.496          50.000    23495611.020    92201755.086          50.000  
G13  22240474.840   116874471.906          50.000                                                  
G15  23123094.280   121512662.480          50.000                                                  
G17  20580236.240   108149872.430          50.000                                                  
G19  20222897.920   106272067.602          50.000                                                  
G24  23212427.540   121982071.938          50.000    23212430.300    91090505.012          50.000  
G28  21806138.180   114592024.305          50.000                                                  
G30  22748010.200   119541539.645          50.000    22748012.360    89268030.688          50.000  
E 2  26006533.960   136665247.777          50.000    26006537.740   102055207.484          50.000  
E 7  26905034.300   141386859.090          50.000    26905040.540   105581078.422          50.000  
E15  25247490.500   132676415.539          50.000    25247496.320    99076528.836          50.000  
E27  25427723.860   133623562.082          50.000    25427728.220    99783815.895          50.000  
E30  22463977.540   118048987.727          50.000    22463981.140    88153456.414          50.000  
E36  26496727.520   139241203.543          50.000    26496732.980   103978806.395          50.000  
> 2020  5 21 18 12  4.0000000  0 15       0.000000000000
G 1  24435499.480   128409340.840          50.000    24435501.780    95890086.133          50.000  
G 6  23494960.880   123466786.473          50.000    23494964.760    92199219.094          50.000  
G13  22240957.420   116877007.809          50.000                                                  
G15  23123387.980   121514205.836          50.000                                                  
G17  20580429.060   108150885.727          50.000                                                  
G19  20222707.380   106271066.277          50.000                                                  
G24  23211840.800   121978988.598          50.000    23211843.560    91088202.516          50.000  
G28  21806395.560   114593376.813          50.000                                                  
G30  22748595.280   119544614.277          50.000    22748597.440    89270326.680          50.000  
E 2  26006842.840   136666870.965          50.000    26006846.620   102056419.605          50.000  
E 7  26905477.260   141389186.883          50.000    26905483.520   105582816.711          50.000  
E15  25246950.540   132673578.074          50.000    25246956.360    99074409.953          50.000  
E27  25427392.920   133621823.043          50.000    25427397.300    99782517.262          50.000  
E30  22463974.780   118048973.211          50.000    22463978.380    88153445.574          50.000  
E36  26497111.800   139243222.965          50.000    26497117.260   103980314.402          50.000  
> 2020  5 21 18 12  5.0000000  0 15       0.000000000000
G 1  24435939.860   128411655.043          50.000    24435942.160    95891814.270          50.000  
G 6  23494314.660   123463390.570          50.000    23494318.540    92196683.195          50.000  
G13  22241440.060   116879544.121          50.000                                                  
G15  23123681.760   121515749.660          50.000                                                  
G17  20580621.980   108151899.488          50.000                                                  
G19  20222516.940   106270065.551          50.000                                                  
G24  23211254.100   121975905.488          50.000    23211256.860    91085900.195          50.000  
G28  21806652.960   114594729.414          50.000                                                  
G30  22749180.440   119547689.230          50.000    22749182.580    89272622.910          50.000  
E 2  26007151.740   136668494.273          50.000    26007155.520   102057631.816          50.000  
E 7  26905920.260   141391514.813          50.000    26905926.500   105584555.098          50.000  
E15  25246410.640   132670740.813          50.000    25246416.460    99072291.219          50.000  
E27  25427062.000   133620084.031          50.000    25427066.380    99781218.652          50.000  
E30  22463972.060   118048958.844          50.000    22463975.640    88153434.844          50.000  
E36  26497496.140   139245242.727          50.000    26497501.620   103981822.664          50.000  
> 2020  5 21 18 12  6.0000000  0 15       0.000000000000
G 1  24436380.340   128413969.785          50.000    24436382.640    95893542.809          50.000  
G 6  23493668.460   123459994.809          50.000    23493672.360    92194147.398          50.000  
G13  22241922.780   116882080.824          50.000                                                  
G15  23123975.620   121517293.945          50.000                                                  
G17  20580814.980   108152913.719          50.000                                                  
G19  20222326.620   106269065.426          50.000                                                  
G24  23210667.460   121972822.617          50.000    23210670.200    91083598.055          50.000  
G28  21806910.360   114596082.113          50.000                                                  
G30  22749765.640   119550764.492          50.000    22749767.780    89274919.367          50.000  
E 2  26007460.680   136670117.699          50.000    26007464.440   102058844.113          50.000  
E 7  26906363.280   141393842.879          50.000    26906369.520   105586293.586          50.000  
E15  25245870.760   132667903.766          50.000    25245876.580    99070172.645          50.000  
E27  25426731.080   133618345.031          50.000    25426735.460    99779920.051          50.000  
E30  22463969.340   118048944.602          50.000    22463972.920    88153424.211          50.000  
E36  26497880.560   139247262.844          50.000    26497886.020   103983331.191          50.000  
> 2020  5 21 18 12  7.0000000  0 15       0.000000000000
G 1  24436820.920   128416285.059          50.000    24436823.220    95895271.750          50.000  
G 6  23493022.300   123456599.152          50.000    23493026.180    92191611.684          50.000  
G13  22242405.580   116884617.949          50.000                                                  
G15  23124269.580   121518838.711          50.000                                                  
G17  20581008.060   108153928.410          50.000                                                  
G19  20222136.420   106268065.906          50.000                                                  
G24  23210080.840   121969739.961          50.000    23210083.600    91081296.070          50.000  
G28  21807167.800   114597434.906          50.000                                                  
G30  22750350.900   119553840.066          50.000    22750353.040    89277216.063          50.000  
E 2  26007769.620   136671741.234          50.000    26007773.400   102060056.496          50.000  
E 7  26906806.320   141396171.082          50.000    26906812.560   105588032.180          50.000  
E15  25245330.920   132665066.918          50.000    25245336.740    99068054.223          50.000  
E27  25426400.160   133616606.055          50.000    25426404.540    99778621.465          50.000  
E30  22463966.660   118048930.516          50.000    22463970.240    88153413.691          50.000  
E36  26498265.040   139249283.297          50.000    26498270.500   103984839.973          50.000  
> 2020  5 21 18 12  8.0000000  0 15       0.000000000000
G 1  24437261.600   128418600.863          50.000    24437263.920    95897001.082          50.000  
G 6  23492376.140   123453203.637          50.000    23492380.040    92189076.074          50.000  
G13  22242888.440   116887155.441          50.000                                                  
G15  23124563.620   121520383.922          50.000                                                  
G17  20581201.240   108154943.555          50.000                                                  
G19  20221946.340   106267066.996          50.000                                                  
G24  23209494.280   121966657.531          50.000    23209497.020    91078994.258          50.000  
G28  21807425.240   114598787.789          50.000                                                  
G30  22750936.220   119556915.953          50.000    22750938.380    89279512.988          50.000  
E 2  26008078.600   136673364.879          50.000    26008082.360   102061268.957          50.000  
E 7  26907249.380   141398499.426          50.000    26907255.640   105589770.879          50.000  
E15  25244791.140   132662230.277          50.000    25244796.940    99065935.953          50.000  
E27  25426069.260   133614867.086          50.000    25426073.620    99777322.883          50.000  
E30  22463964.000   118048916.551          50.000    22463967.580    88153403.262          50.000  
E36  26498649.580   139251304.102          50.000    26498655.060   103986349.012          50.000  
> 2020  5 21 18 12  9.0000000  0 15       0.000000000000
G 1  24437702.380   128420917.199          50.000    24437704.700    95898730.809          50.000  
G 6  23491730.020   123449808.246          50.000    23491733.920    92186540.555          50.000  
G13  22243371.400   116889693.344          50.000                                                  
G15  23124857.760   121521929.609          50.000                                                  
G17  20581394.500   108155959.176          50.000                                                  
G19  20221756.360   106266068.688          50.000                                                  
G24  23208907.760   121963575.344          50.000    23208910.500    91076692.625          50.000  
G28  21807682.700   114600140.770          50.000                                                  
G30  22751521.600   119559992.148          50.000    22751523.760    89281810.148          50.000  
E 2  26008387.580   136674988.645          50.000    26008391.360   102062481.508          50.000  
E 7  26907692.480   141400827.910          50.000    26907698.740   105591509.680          50.000  
E15  25244251.380   132659393.848          50.000    25244257.200    99063817.840          50.000  
E27  25425738.340   133613128.145          50.000    25425742.720    99776024.324          50.000  
E30  22463961.380   118048902.723          50.000    22463964.960    88153392.934          50.000  
E36  26499034.200   139253325.242          50.000    26499039.660   103987858.305          50.000  
> 2020  5 21 18 12 10.0000000  0 15       0.000000000000
G 1  24438143.280   128423234.063          50.000    24438145.580    95900460.934          50.000  
G 6  23491083.920   123446412.996          50.000    23491087.820    92184005.145          50.000  
G13  22243854.420   116892231.652          50.000                                                  
G15  23125151.980   121523475.750          50.000                                                  
G17  20581587.860   108156975.254          50.000                                                  
G19  20221566.520   106265070.984          50.000                                                  
G24  23208321.280   121960493.402          50.000    23208324.020    91074391.180          50.000  
G28  21807940.180   114601493.848          50.000                                                  
G30  22752107.040   119563068.656          50.000    22752109.200    89284107.535          50.000  
E 2  26008696.600   136676612.527          50.000    26008700.380   102063694.145          50.000  
E 7  26908135.600   141403156.523          50.000    26908141.860   105593248.578          50.000  
E15  25243711.660   132656557.629          50.000    25243717.480    99061699.887          50.000  
E27  25425407.440   133611389.227          50.000    25425411.800    99774725.781          50.000  
E30  22463958.760   118048889.035          50.000    22463962.360    88153382.715          50.000  
E36  26499418.880   139255346.730          50.000    26499424.340   103989367.855          50.000  
> 2020  5 21 18 12 11.0000000  0 15       0.000000000000
G 1  24438584.260   128425551.453          50.000    24438586.560    95902191.453          50.000  
G 6  23490437.860   123443017.859          50.000    23490441.740    92181469.816          50.000  
G13  22244337.520   116894770.352          50.000                                                  
G15  23125446.280   121525022.355          50.000                                                  
G17  20581781.300   108157991.797          50.000                                                  
G19  20221376.760   106264073.879          50.000                                                  
G24  23207734.840   121957411.641          50.000    23207737.580    91072089.863          50.000  
G28  21808197.680   114602847.016          50.000                                                  
G30  22752692.540   119566145.465          50.000    22752694.700    89286405.152          50.000  
E 2  26009005.640   136678236.512          50.000    26009009.420   102064906.859          50.000  
E 7  26908578.760   141405485.285          50.000    26908585.000   105594987.586          50.000  
E15  25243171.980   132653721.598          50.000    25243177.800    99059582.070          50.000  
E27  25425076.540   133609650.320          50.000    25425080.900    99773427.246          50.000  
E30  22463956.200   118048875.488          50.000    22463959.780    88153372.598          50.000  
E36  26499803.620   139257368.559          50.000    26499809.080   103990877.664          50.000  
> 2020  5 21 18 12 12.0000000  0 15       0.000000000000
G 1  24439025.340   128427869.375          50.000    24439027.660    95903922.367          50.000  
G 6  23489791.800   123439622.867          50.000    23489795.700    92178934.594          50.000  
G13  22244820.700   116897309.453          50.000                                                  
G15  23125740.680   121526569.430          50.000                                                  
G17  20581974.820   108159008.797          50.000                                                  
G19  20221187.140   106263077.387          50.000                                                  
G24  23207148.440   121954330.121          50.000    23207151.200    91069788.730          50.000  
G28  21808455.200   114604200.277          50.000                                                  
G30  22753278.100   119569222.605          50.000    22753280.260    89288703.016          50.000  
E 2  26009314.700   136679860.625          50.000    26009318.480   102066119.672          50.000  
E 7  26909021.940   141407814.188          50.000    26909028.180   105596726.703          50.000  
E15  25242632.340   132650885.793          50.000    25242638.160    99057464.426          50.000  
E27  25424745.640   133607911.438          50.000    25424750.000    99772128.730          50.000  
E30  22463953.640   118048862.074          50.000    22463957.220    88153362.582          50.000  
E36  26500188.420   139259390.738          50.000    26500193.900   103992387.730          50.000  
> 2020  5 21 18 12 13.0000000  0 15       0.000000000000
G 1  24439466.540   128430187.836          50.000    24439468.840    95905653.684          50.000  
G 6  23489145.780   123436227.988          50.000    23489149.660    92176399.457          50.000  
G13  22245303.940   116899848.965          50.000                                                  
G15  23126035.180   121528116.965          50.000                                                  
G17  20582168.440   108160026.258          50.000                                                  
G19  20220997.620   106262081.492          50.000                                                  
G24  23206562.100   121951248.828          50.000    23206564.840    91067487.766          50.000  
G28  21808712.740   114605553.641          50.000                                                  
G30  22753863.720   119572300.043          50.000    22753865.880    89291001.102          50.000  
E 2  26009623.780   136681484.836          50.000    26009627.540   102067332.555          50.000  
E 7  26909465.140   141410143.191          50.000    26909471.380   105598465.887          50.000  
E15  25242092.740   132648050.199          50.000    25242098.560    99055346.941          50.000  
E27  25424414.740   133606172.539          50.000    25424419.100    99770830.199          50.000  
E30  22463951.120   118048848.785          50.000    22463954.700    88153352.652          50.000  
E36  26500573.300   139261413.262          50.000    26500578.760   103993898.059          50.000  
> 2020  5 21 18 12 14.0000000  0 15       0.000000000000
G 1  24439907.820   128432506.832          50.000    24439910.140    95907385.402          50.000  
G 6  23488499.780   123432833.230          50.000    23488503.660    92173864.414          50.000  
G13  22245787.280   116902388.875          50.000                                                  
G15  23126329.760   121529664.965          50.000                                                  
G17  20582362.160   108161044.188          50.000                                                  
G19  20220808.240   106261086.215          50.000                                                  
G24  23205975.780   121948167.777          50.000    23205978.540    91065186.980          50.000  
G28  21808970.280   114606907.090          50.000                                                  
G30  22754449.400   119575377.801          50.000    22754451.560    89293299.426          50.000  
E 2  26009932.880   136683109.168          50.000    26009936.660   102068545.531          50.000  
E 7  26909908.360   141412472.363          50.000    26909914.600   105600205.199          50.000  
E15  25241553.200   132645214.805          50.000    25241559.000    99053229.602          50.000  
E27  25424083.840   133604433.695          50.000    25424088.220    99769531.715          50.000  
E30  22463948.620   118048835.641          50.000    22463952.200    88153342.840          50.000  
E36  26500958.240   139263436.121          50.000    26500963.700   103995408.633          50.000  
> 2020  5 21 18 12 15.0000000  0 15       0.000000000000
G 1  24440349.220   128434826.348          50.000    24440351.520    95909117.504          50.000  
G 6  23487853.800   123429438.594          50.000    23487857.700    92171329.453          50.000  
G13  22246270.680   116904929.141          50.000                                                  
G15  23126624.420   121531213.434          50.000                                                  
G17  20582555.940   108162062.578          50.000                                                  
G19  20220618.940   106260091.484          50.000                                                  
G24  23205389.520   121945086.949          50.000    23205392.280    91062886.359          50.000  
G28  21809227.860   114608260.617          50.000                                                  
G30  22755035.140   119578455.871          50.000    22755037.280    89295597.980          50.000  
E 2  26010242.000   136684733.613          50.000    26010245.780   102069758.586          50.000  
E 7  26910351.620   141414801.672          50.000    26910357.860   105601944.617          50.000  
E15  25241013.680   132642379.617          50.000    25241019.480    99051112.414          50.000  
E27  25423752.960   133602694.867          50.000    25423757.320    99768233.234          50.000  
E30  22463946.140   118048822.641          50.000    22463949.720    88153333.129          50.000  
E36  26501343.240   139265459.320          50.000    26501348.720   103996919.461          50.000  
> 2020  5 21 18 12 16.0000000  0 15       0.000000000000
G 1  24440790.700   128437146.402          50.000    24440793.020    95910850.012          50.000  
G 6  23487207.860   123426044.090          50.000    23487211.740    92168794.602          50.000  
G13  22246754.160   116907469.840          50.000                                                  
G15  23126919.160   121532762.352          50.000                                                  
G17  20582749.820   108163081.418          50.000                                                  
G19  20220429.780   106259097.395          50.000                                                  
G24  23204803.320   121942006.379          50.000    23204806.060    91060585.938          50.000  
G28  21809485.440   114609614.262          50.000                                                  
G30  22755620.940   119581534.230          50.000    22755623.080    89297896.758          50.000  
E 2  26010551.140   136686358.176          50.000    26010554.920   102070971.734          50.000  
E 7  26910794.900   141417131.125          50.000    26910801.140   105603684.141          50.000  
E15  25240474.200   132639544.641          50.000    25240480.000    99048995.391          50.000  
E27  25423422.080   133600956.051          50.000    25423426.440    99766934.770          50.000  
E30  22463943.700   118048809.785          50.000    22463947.280    88153323.527          50.000  
E36  26501728.320   139267482.875          50.000    26501733.780   103998430.555          50.000  
> 2020  5 21 18 12 17.0000000  0 15       0.000000000000
G 1  24441232.300   128439466.984          50.000    24441234.620    95912582.914          50.000  
G 6  23486561.920   123422649.734          50.000    23486565.820    92166259.855          50.000  
G13  22247237.720   116910010.945          50.000                                                  
G15  23127214.000   121534311.738          50.000                                                  
G17  20582943.800   108164100.727          50.000                                                  
G19  20220240.740   106258103.926          50.000                                                  
G24  23204217.140   121938926.043          50.000    23204219.900    91058285.688          50.000  
G28  21809743.060   114610968.004          50.000                                                  
G30  22756206.780   119584612.895          50.000    22756208.940    89300195.758          50.000  
E 2  26010860.300   136687982.844          50.000    26010864.080   102072184.961          50.000  
E 7  26911238.200   141419460.711          50.000    26911244.460   105605423.770          50.000  
E15  25239934.760   132636709.863          50.000    25239940.560    99046878.508          50.000  
E27  25423091.200   133599217.262          50.000    25423095.560    99765636.320          50.000  
E30  22463941.280   118048797.063          50.000    22463944.860    88153314.027          50.000  
E36  26502113.440   139269506.770          50.000    26502118.920   103999941.906          50.000  
> 2020  5 21 18 12 18.0000000  0 15       0.000000000000
G 1  24441673.980   128441788.086          50.000    24441676.300    95914316.203          50.000  
G 6  23485916.020   123419255.496          50.000    23485919.900    92163725.199          50.000  
G13  22247721.360   116912552.445          50.000                                                  
G15  23127508.920   121535861.586          50.000                                                  
G17  20583137.840   108165120.492          50.000                                                  
G19  20220051.800   106257111.051          50.000                                                  
G24  23203631.020   121935845.922          50.000    23203633.760    91055985.598          50.000  
G28  21810000.680   114612321.836          50.000                                                  
G30  22756792.700   119587691.891          50.000    22756794.840    89302495.008          50.000  
E 2  26011169.500   136689607.637          50.000    26011173.280   102073398.277          50.000  
E 7  26911681.540   141421790.434          50.000    26911687.780   105607163.492          50.000  
E15  25239395.360   132633875.301          50.000    25239401.160    99044761.793          50.000  
E27  25422760.320   133597478.477          50.000    25422764.680    99764337.883          50.000  
E30  22463938.880   118048784.477          50.000    22463942.460    88153304.625          50.000  
E36  26502498.640   139271531.008          50.000    26502504.120   104001453.512          50.000  
> 2020  5 21 18 12 19.0000000  0 15       0.000000000000
G 1  24442115.780   128444109.727          50.000    24442118.100    95916049.895          50.000  
G 6  23485270.140   123415861.391          50.000    23485274.040    92161190.641          50.000  
G13  22248205.060   116915094.344          50.000                                                  
G15  23127803.940   121537411.898          50.000                                                  
G17  20583331.980   108166140.723          50.000                                                  
G19  20219862.960   106256118.773          50.000                                                  
G24  23203044.940   121932766.023          50.000    23203047.680    91053685.676          50.000  
G28  21810258.320   114613675.773          50.000                                                  
G30  22757378.660   119590771.191          50.000    22757380.820    89304794.484          50.000  
E 2  26011478.700   136691232.543          50.000    26011482.480   102074611.684          50.000  
E 7  26912124.900   141424120.297          50.000    26912131.140   105608903.328          50.000  
E15  25238856.000   132631040.953          50.000    25238861.800    99042645.234          50.000  
E27  25422429.440   133595739.723          50.000    25422433.800    99763039.461          50.000  
E30  22463936.500   118048772.035          50.000    22463940.100    88153295.336          50.000  
E36  26502883.920   139273555.590          50.000    26502889.380   104002965.371          50.000  
> 2020  5 21 18 12 20.0000000  0 15       0.000000000000
G 1  24442557.680   128446431.891          50.000    24442560.000    95917783.977          50.000  
G 6  23484624.300   123412467.410          50.000    23484628.180    92158656.176          50.000  
G13  22248688.840   116917636.641          50.000                                                  
G15  23128099.040   121538962.676          50.000                                                  
G17  20583526.220   108167161.414          50.000                                                  
G19  20219674.260   106255127.117          50.000                                                  
G24  23202458.900   121929686.395          50.000    23202461.640    91051385.953          50.000  
G28  21810516.000   114615029.801          50.000                                                  
G30  22757964.700   119593850.797          50.000    22757966.860    89307094.188          50.000  
E 2  26011787.940   136692857.555          50.000    26011791.720   102075825.164          50.000  
E 7  26912568.280   141426450.301          50.000    26912574.520   105610643.262          50.000  
E15  25238316.680   132628206.805          50.000    25238322.480    99040528.828          50.000  
E27  25422098.580   133594000.992          50.000    25422102.940    99761741.059          50.000  
E30  22463934.160   118048759.723          50.000    22463937.760    88153286.145          50.000  
E36  26503269.240   139275580.516          50.000    26503274.720   104004477.492          50.000  
> 2020  5 21 18 12 21.0000000  0 15       0.000000000000
G 1  24442999.680   128448754.586          50.000    24443001.980    95919518.457          50.000  
G 6  23483978.460   123409073.563          50.000    23483982.340    92156121.813          50.000  
G13  22249172.700   116920179.328          50.000                                                  
G15  23128394.240   121540513.922          50.000                                                  
G17  20583720.540   108168182.570          50.000                                                  
G19  20219485.660   106254136.047          50.000                                                  
G24  23201872.900   121926606.977          50.000    23201875.640    91049086.391          50.000  
G28  21810773.660   114616383.902          50.000                                                  
G30  22758550.800   119596930.719          50.000    22758552.940    89309394.129          50.000  
E 2  26012097.180   136694482.680          50.000    26012100.960   102077038.730          50.000  
E 7  26913011.680   141428780.430          50.000    26913017.940   105612383.293          50.000  
E15  25237777.400   132625372.859          50.000    25237783.200    99038412.570          50.000  
E27  25421767.700   133592262.273          50.000    25421772.060    99760442.664          50.000  
E30  22463931.840   118048747.543          50.000    22463935.440    88153277.047          50.000  
E36  26503654.640   139277605.773          50.000    26503660.100   104005989.859          50.000  
> 2020  5 21 18 12 22.0000000  0 15       0.000000000000
G 1  24443441.780   128451077.820          50.000    24443444.080    95921253.340          50.000  
G 6  23483332.660   123405679.836          50.000    23483336.540    92153587.535          50.000  
G13  22249656.640   116922722.426          50.000                                                  
G15  23128689.520   121542065.621          50.000                                                  
G17  20583914.940   108169204.188          50.000                                                  
G19  20219297.180   106253145.590          50.000                                                  
G24  23201286.940   121923527.781          50.000    23201289.700    91046786.992          50.000  
G28  21811031.360   114617738.125          50.000                                                  
G30  22759136.940   119600010.949          50.000    22759139.100    89311694.301          50.000  
E 2  26012406.460   136696107.934          50.000    26012410.240   102078252.391          50.000  
E 7  26913455.120   141431110.719          50.000    26913461.380   105614123.445          50.000  
E15  25237238.160   132622539.133          50.000    25237243.960    99036296.477          50.000  
E27  25421436.840   133590523.566          50.000    25421441.200    99759144.281          50.000  
E30  22463929.560   118048735.523          50.000    22463933.140    88153268.074          50.000  
E36  26504040.100   139279631.391          50.000    26504045.580   104007502.492          50.000  
> 2020  5 21 18 12 23.0000000  0 15       0.000000000000
G 1  24443883.960   128453401.574          50.000    24443886.280    95922988.605          50.000  
G 6  23482686.880   123402286.234          50.000    23482690.760    92151053.355          50.000  
G13  22250140.640   116925265.914          50.000                                                  
G15  23128984.880   121543617.793          50.000                                                  
G17  20584109.440   108170226.262          50.000                                                  
G19  20219108.820   106252155.738          50.000                                                  
G24  23200701.040   121920448.801          50.000    23200703.780    91044487.754          50.000  
G28  21811289.080   114619092.422          50.000                                                  
G30  22759723.140   119603091.492          50.000    22759725.300    89313994.703          50.000  
E 2  26012715.760   136697733.285          50.000    26012719.540   102079466.129          50.000  
E 7  26913898.580   141433441.129          50.000    26913904.840   105615863.684          50.000  
E15  25236698.940   132619705.609          50.000    25236704.760    99034180.531          50.000  
E27  25421105.980   133588784.895          50.000    25421110.340    99757845.922          50.000  
E30  22463927.300   118048723.621          50.000    22463930.880    88153259.184          50.000  
E36  26504425.620   139281657.352          50.000    26504431.100   104009015.387          50.000  
> 2020  5 21 18 12 24.0000000  0 15       0.000000000000
G 1  24444326.260   128455725.875          50.000    24444328.580    95924724.285          50.000  
G 6  23482041.120   123398892.773          50.000    23482045.000    92148519.277          50.000  
G13  22250624.740   116927809.797          50.000                                                  
G15  23129280.340   121545170.418          50.000                                                  
G17  20584304.020   108171248.801          50.000                                                  
G19  20218920.580   106251166.492          50.000                                                  
G24  23200115.180   121917370.074          50.000    23200117.920    91042188.707          50.000  
G28  21811546.820   114620446.828          50.000                                                  
G30  22760309.420   119606172.340          50.000    22760311.560    89316295.336          50.000  
E 2  26013025.080   136699358.754          50.000    26013028.860   102080679.953          50.000  
E 7  26914342.080   141435771.688          50.000    26914348.340   105617604.035          50.000  
E15  25236159.780   132616872.293          50.000    25236165.600    99032064.746          50.000  
E27  25420775.120   133587046.227          50.000    25420779.480    99756547.566          50.000  
E30  22463925.060   118048711.867          50.000    22463928.640    88153250.406          50.000  
E36  26504811.220   139283683.648          50.000    26504816.700   104010528.531          50.000  
> 2020  5 21 18 12 25.0000000  0 15       0.000000000000
G 1  24444768.660   128458050.707          50.000    24444770.980    95926460.359          50.000  
G 6  23481395.400   123395499.441          50.000    23481399.280    92145985.297          50.000  
G13  22251108.900   116930354.082          50.000                                                  
G15  23129575.880   121546723.512          50.000                                                  
G17  20584498.700   108172271.801          50.000                                                  
G19  20218732.440   106250177.852          50.000                                                  
G24  23199529.360   121914291.578          50.000    23199532.100    91039889.832          50.000  
G28  21811804.580   114621801.328          50.000                                                  
G30  22760895.740   119609253.520          50.000    22760897.900    89318596.215          50.000  
E 2  26013334.420   136700984.336          50.000    26013338.180   102081893.859          50.000  
E 7  26914785.600   141438102.375          50.000    26914791.840   105619344.480          50.000  
E15  25235620.660   132614039.195          50.000    25235626.480    99029949.121          50.000  
E27  25420444.260   133585307.594          50.000    25420448.640    99755249.238          50.000  
E30  22463922.840   118048700.250          50.000    22463926.440    88153241.730          50.000  
E36  26505196.880   139285710.293          50.000    26505202.360   104012041.934          50.000  
> 2020  5 21 18 12 26.0000000  0 15       0.000000000000
G 1  24445211.160   128460376.055          50.000    24445213.480    95928196.820          50.000  
G 6  23480749.680   123392106.230          50.000    23480753.560    92143451.406          50.000  
G13  22251593.140   116932898.762          50.000                                                  
G15  23129871.520   121548277.066          50.000                                                  
G17  20584693.460   108173295.266          50.000                                                  
G19  20218544.420   106249189.816          50.000                                                  
G24  23198943.580   121911213.336          50.000    23198946.340    91037591.145          50.000  
G28  21812062.340   114623155.922          50.000                                                  
G30  22761482.140   119612334.992          50.000    22761484.280    89320897.316          50.000  
E 2  26013643.780   136702610.035          50.000    26013647.540   102083107.855          50.000  
E 7  26915229.140   141440433.203          50.000    26915235.400   105621085.035          50.000  
E15  25235081.580   132611206.293          50.000    25235087.400    99027833.645          50.000  
E27  25420113.420   133583568.977          50.000    25420117.780    99753950.922          50.000  
E30  22463920.660   118048688.781          50.000    22463924.260    88153233.164          50.000  
E36  26505582.600   139287737.285          50.000    26505588.080   104013555.594          50.000  
> 2020  5 21 18 12 27.0000000  0 15       0.000000000000
G 1  24445653.780   128462701.949          50.000    24445656.100    95929933.684          50.000  
G 6  23480104.000   123388713.160          50.000    23480107.880    92140917.621          50.000  
G13  22252077.440   116935443.836          50.000                                                  
G15  23130167.240   121549831.082          50.000                                                  
G17  20584888.300   108174319.184          50.000                                                  
G19  20218356.520   106248202.375          50.000                                                  
G24  23198357.860   121908135.316          50.000    23198360.600    91035292.625          50.000  
G28  21812320.140   114624510.613          50.000                                                  
G30  22762068.580   119615416.773          50.000    22762070.740    89323198.645          50.000  
E 2  26013953.160   136704235.852          50.000    26013956.940   102084321.938          50.000  
E 7  26915672.700   141442764.164          50.000    26915678.960   105622825.688          50.000  
E15  25234542.540   132608373.602          50.000    25234548.340    99025718.324          50.000  
E27  25419782.580   133581830.359          50.000    25419786.940    99752652.602          50.000  
E30  22463918.500   118048677.438          50.000    22463922.100    88153224.695          50.000  
E36  26505968.400   139289764.617          50.000    26505973.860   104015069.508          50.000  
> 2020  5 21 18 12 28.0000000  0 15       0.000000000000
G 1  24446096.480   128465028.348          50.000    24446098.800    95931670.930          50.000  
G 6  23479458.340   123385320.219          50.000    23479462.220    92138383.934          50.000  
G13  22252561.840   116937989.313          50.000                                                  
G15  23130463.040   121551385.559          50.000                                                  
G17  20585083.240   108175343.559          50.000                                                  
G19  20218168.740   106247215.543          50.000                                                  
G24  23197772.160   121905057.520          50.000    23197774.920    91032994.270          50.000  
G28  21812577.940   114625865.391          50.000                                                  
G30  22762655.080   119618498.867          50.000    22762657.240    89325500.203          50.000  
E 2  26014262.560   136705861.781          50.000    26014266.340   102085536.105          50.000  
E 7  26916116.300   141445095.270          50.000    26916122.560   105624566.449          50.000  
E15  25234003.540   132605541.121          50.000    25234009.340    99023603.160          50.000  
E27  25419451.740   133580091.773          50.000    25419456.100    99751354.309          50.000  
E30  22463916.380   118048666.230          50.000    22463919.960    88153216.328          50.000  
E36  26506354.240   139291792.285          50.000    26506359.720   104016583.680          50.000  
