     3.03           OBSERVATION DATA    M: Mixed            RINEX VERSION / TYPE
sbp2rinex v2.2 (RTKL                    20210504 171527 UTC PGM / RUN BY / DATE 
log: 2020-07-08-US-MTV-2.sbp                                COMMENT             
format: Swift Navigation SBP, option: CONVBASE,EPHALL,OBSALLCOMMENT             
                                                            MARKER NAME         
                                                            MARKER NUMBER       
                                                            MARKER TYPE         
                                                            OBSERVER / AGENCY   
                                                            REC # / TYPE / VERS 
                                                            ANT # / TYPE        
 -2743996.9171 -4320100.6815  3793542.1646                  APPROX POSITION XYZ 
        0.0000        0.0000        0.0000                  ANTENNA: DELTA H/E/N
G    6 C1C L1C S1C C5I L5I S5I                              SYS / # / OBS TYPES 
E    6 C1B L1B S1B C5I L5I S5I                              SYS / # / OBS TYPES 
  2020     7     8    23    25   15.0000000     GPS         TIME OF FIRST OBS   
  2020     7     9     0     2    3.0000000     GPS         TIME OF LAST OBS    
G                                                           SYS / PHASE SHIFT   
E                                                           SYS / PHASE SHIFT   
  0                                                         GLONASS SLOT / FRQ #
 C1C    0.000 C1P    0.000 C2C    0.000 C2P    0.000        GLONASS COD/PHS/BIS 
                                                            END OF HEADER       
> 2020  7  8 23 25 15.0000000  0 16       0.000000000000
G10  21950899.180   115352709.090          50.000    21950898.940    86140010.891          50.000  
G13  23901448.740   125603009.145          50.000                                                  
G15  21821975.020   114675073.379          50.000                                                  
G16  23163263.700   121723777.977          50.000                                                  
G20  20211587.180   106212612.910          50.000                                                  
G21  22096600.840   116118445.875          50.000                                                  
G26  23232755.760   122088864.895          50.000    23232757.400    91170247.051          50.000  
G27  23707840.540   124585494.172          50.000    23707841.900    93034622.406          50.000  
G29  22709508.300   119339258.258          50.000                                                  
E 3  25885443.500   136028890.980          50.000    25885448.300   101580002.656          50.000  
E 5  24019872.980   126225259.422          50.000    24019876.980    94259111.609          50.000  
E 9  24226806.920   127312711.848          50.000    24226810.720    95071171.262          50.000  
E15  25837508.140   135776987.035          50.000    25837513.300   101391893.043          50.000  
E27  27489458.700   144458038.703          50.000    27489463.860   107874492.711          50.000  
E30  26128952.120   137308519.316          50.000    26128957.560   102535563.020          50.000  
E36  25168065.620   132259039.285          50.000    25168070.520    98764853.172          50.000  
> 2020  7  8 23 25 16.0000000  0 16       0.000000000000
G10  21950484.640   115350530.668          50.000    21950484.400    86138384.148          50.000  
G13  23901798.280   125604845.953          50.000                                                  
G15  21822158.640   114676038.320          50.000                                                  
G16  23163303.700   121723988.199          50.000                                                  
G20  20211490.780   106212106.359          50.000                                                  
G21  22096328.100   116117012.648          50.000                                                  
G26  23233141.260   122090890.699          50.000    23233142.900    91171759.828          50.000  
G27  23707222.100   124582244.199          50.000    23707223.460    93032195.480          50.000  
G29  22710114.080   119342441.645          50.000                                                  
E 3  25884898.360   136026026.273          50.000    25884903.160   101577863.426          50.000  
E 5  24019732.060   126224518.914          50.000    24019736.060    94258558.633          50.000  
E 9  24227160.180   127314568.160          50.000    24227163.980    95072557.469          50.000  
E15  25837123.720   135774966.930          50.000    25837128.900   101390384.523          50.000  
E27  27489585.880   144458706.992          50.000    27489591.040   107874991.758          50.000  
E30  26129400.780   137310876.969          50.000    26129406.200   102537323.602          50.000  
E36  25168344.220   132260503.324          50.000    25168349.120    98765946.449          50.000  
> 2020  7  8 23 25 17.0000000  0 16       0.000000000000
G10  21950070.160   115348352.594          50.000    21950069.920    86136757.664          50.000  
G13  23902147.920   125606683.340          50.000                                                  
G15  21822342.380   114677003.938          50.000                                                  
G16  23163343.820   121724199.047          50.000                                                  
G20  20211394.460   106211600.234          50.000                                                  
G21  22096055.380   116115579.512          50.000                                                  
G26  23233526.820   122092916.855          50.000    23233528.460    91173272.867          50.000  
G27  23706603.680   124578994.434          50.000    23706605.040    93029768.707          50.000  
G29  22710719.920   119345625.336          50.000                                                  
E 3  25884353.260   136023161.738          50.000    25884358.060   101575724.324          50.000  
E 5  24019591.240   126223778.855          50.000    24019595.220    94258005.992          50.000  
E 9  24227513.480   127316424.816          50.000    24227517.280    95073943.930          50.000  
E15  25836739.300   135772946.809          50.000    25836744.480   101388875.992          50.000  
E27  27489713.120   144459375.691          50.000    27489718.280   107875491.113          50.000  
E30  26129849.440   137313234.750          50.000    26129854.880   102539084.281          50.000  
E36  25168622.840   132261967.523          50.000    25168627.740    98767039.848          50.000  
> 2020  7  8 23 25 18.0000000  0 16       0.000000000000
G10  21949655.760   115346174.883          50.000    21949655.520    86135131.449          50.000  
G13  23902497.680   125608521.281          50.000                                                  
G15  21822526.280   114677970.246          50.000                                                  
G16  23163384.080   121724410.520          50.000                                                  
G20  20211298.240   106211094.547          50.000                                                  
G21  22095782.680   116114146.465          50.000                                                  
G26  23233912.460   122094943.371          50.000    23233914.100    91174786.172          50.000  
G27  23705985.320   124575744.883          50.000    23705986.680    93027342.098          50.000  
G29  22711325.820   119348809.355          50.000                                                  
E 3  25883808.180   136020297.375          50.000    25883812.980   101573585.352          50.000  
E 5  24019450.500   126223039.254          50.000    24019454.480    94257453.695          50.000  
E 9  24227866.860   127318281.813          50.000    24227870.660    95075330.648          50.000  
E15  25836354.880   135770926.699          50.000    25836360.060   101387367.465          50.000  
E27  27489840.460   144460044.816          50.000    27489845.620   107875990.781          50.000  
E30  26130298.140   137315592.656          50.000    26130303.580   102540845.055          50.000  
E36  25168901.500   132263431.887          50.000    25168906.400    98768133.363          50.000  
> 2020  7  8 23 25 19.0000000  0 16       0.000000000000
G10  21949241.420   115343997.551          50.000    21949241.180    86133505.523          50.000  
G13  23902847.520   125610359.781          50.000                                                  
G15  21822710.280   114678937.238          50.000                                                  
G16  23163424.440   121724622.617          50.000                                                  
G20  20211202.080   106210589.293          50.000                                                  
G21  22095510.000   116112713.500          50.000                                                  
G26  23234298.160   122096970.242          50.000    23234299.800    91176299.742          50.000  
G27  23705366.980   124572495.535          50.000    23705368.340    93024915.637          50.000  
G29  22711931.780   119351993.695          50.000                                                  
E 3  25883263.140   136017433.188          50.000    25883267.940   101571446.512          50.000  
E 5  24019309.840   126222300.109          50.000    24019313.840    94256901.734          50.000  
E 9  24228220.300   127320139.160          50.000    24228224.100    95076717.629          50.000  
E15  25835970.460   135768906.574          50.000    25835975.640   101385858.934          50.000  
E27  27489967.860   144460714.363          50.000    27489973.020   107876490.766          50.000  
E30  26130746.860   137317950.695          50.000    26130752.300   102542605.926          50.000  
E36  25169180.200   132264896.422          50.000    25169185.100    98769227.008          50.000  
> 2020  7  8 23 25 20.0000000  0 16       0.000000000000
G10  21948827.160   115341820.586          50.000    21948826.920    86131879.867          50.000  
G13  23903197.500   125612198.848          50.000                                                  
G15  21822894.420   114679904.914          50.000                                                  
G16  23163464.920   121724835.348          50.000                                                  
G20  20211106.020   106210084.484          50.000                                                  
G21  22095237.340   116111280.629          50.000                                                  
G26  23234683.920   122098997.461          50.000    23234685.560    91177813.574          50.000  
G27  23704748.700   124569246.410          50.000    23704750.060    93022489.344          50.000  
G29  22712537.800   119355178.352          50.000                                                  
E 3  25882718.140   136014569.160          50.000    25882722.940   101569307.793          50.000  
E 5  24019169.280   126221561.426          50.000    24019173.260    94256350.121          50.000  
E 9  24228573.800   127321996.848          50.000    24228577.600    95078104.863          50.000  
E15  25835586.060   135766886.453          50.000    25835591.220   101384350.398          50.000  
E27  27490095.360   144461384.336          50.000    27490100.520   107876991.074          50.000  
E30  26131195.600   137320308.867          50.000    26131201.040   102544366.898          50.000  
E36  25169458.920   132266361.117          50.000    25169463.820    98770320.773          50.000  
> 2020  7  8 23 25 21.0000000  0 16       0.000000000000
G10  21948412.960   115339643.984          50.000    21948412.720    86130254.484          50.000  
G13  23903547.560   125614038.477          50.000                                                  
G15  21823078.700   114680873.270          50.000                                                  
G16  23163505.520   121725048.684          50.000                                                  
G20  20211010.040   106209580.098          50.000                                                  
G21  22094964.680   116109847.832          50.000                                                  
G26  23235069.760   122101025.051          50.000    23235071.400    91179327.684          50.000  
G27  23704130.440   124565997.477          50.000    23704131.800    93020063.195          50.000  
G29  22713143.880   119358363.320          50.000                                                  
E 3  25882173.160   136011705.316          50.000    25882177.960   101567169.207          50.000  
E 5  24019028.800   126220823.188          50.000    24019032.780    94255798.840          50.000  
E 9  24228927.380   127323854.875          50.000    24228931.180    95079492.352          50.000  
E15  25835201.640   135764866.320          50.000    25835206.800   101382841.859          50.000  
E27  27490222.940   144462054.742          50.000    27490228.100   107877491.699          50.000  
E30  26131644.380   137322667.172          50.000    26131649.820   102546127.969          50.000  
E36  25169737.680   132267825.973          50.000    25169742.560    98771414.656          50.000  
> 2020  7  8 23 25 22.0000000  0 16       0.000000000000
G10  21947998.840   115337467.758          50.000    21947998.600    86128629.379          50.000  
G13  23903897.740   125615878.664          50.000                                                  
G15  21823263.100   114681842.313          50.000                                                  
G16  23163546.240   121725262.672          50.000                                                  
G20  20210914.140   106209076.156          50.000                                                  
G21  22094692.040   116108415.137          50.000                                                  
G26  23235455.660   122103052.984          50.000    23235457.300    91180842.047          50.000  
G27  23703512.240   124562748.781          50.000    23703513.600    93017637.219          50.000  
G29  22713750.020   119361548.613          50.000                                                  
E 3  25881628.220   136008841.641          50.000    25881633.020   101565030.750          50.000  
E 5  24018888.400   126220085.410          50.000    24018892.380    94255247.902          50.000  
E 9  24229281.020   127325713.254          50.000    24229284.820    95080880.102          50.000  
E15  25834817.220   135762846.191          50.000    25834822.400   101381333.324          50.000  
E27  27490350.580   144462725.555          50.000    27490355.740   107877992.629          50.000  
E30  26132093.180   137325025.605          50.000    26132098.600   102547889.133          50.000  
E36  25170016.460   132269291.012          50.000    25170021.360    98772508.680          50.000  
> 2020  7  8 23 25 23.0000000  0 16       0.000000000000
G10  21947584.780   115335291.879          50.000    21947584.540    86127004.535          50.000  
G13  23904248.020   125617719.418          50.000                                                  
G15  21823447.640   114682812.023          50.000                                                  
G16  23163587.080   121725477.277          50.000                                                  
G20  20210818.340   106208572.637          50.000                                                  
G21  22094419.420   116106982.516          50.000                                                  
G26  23235841.640   122105081.277          50.000    23235843.280    91182356.680          50.000  
G27  23702894.080   124559500.285          50.000    23702895.420    93015211.395          50.000  
G29  22714356.220   119364734.227          50.000                                                  
E 3  25881083.320   136005978.125          50.000    25881088.120   101562892.410          50.000  
E 5  24018748.080   126219348.082          50.000    24018752.080    94254697.297          50.000  
E 9  24229634.720   127327571.969          50.000    24229638.520    95082268.102          50.000  
E15  25834432.800   135760826.055          50.000    25834437.980   101379824.781          50.000  
E27  27490478.320   144463396.816          50.000    27490483.480   107878493.895          50.000  
E30  26132542.000   137327384.168          50.000    26132547.440   102549650.398          50.000  
E36  25170295.280   132270756.191          50.000    25170300.160    98773602.805          50.000  
> 2020  7  8 23 25 24.0000000  0 16       0.000000000000
G10  21947170.800   115333116.363          50.000    21947170.560    86125379.965          50.000  
G13  23904598.420   125619560.734          50.000                                                  
G15  21823632.300   114683782.434          50.000                                                  
G16  23163628.020   121725692.512          50.000                                                  
G20  20210722.600   106208069.559          50.000                                                  
G21  22094146.820   116105549.992          50.000                                                  
G26  23236227.680   122107109.922          50.000    23236229.320    91183871.574          50.000  
G27  23702275.940   124556251.996          50.000    23702277.300    93012785.727          50.000  
G29  22714962.480   119367920.160          50.000                                                  
E 3  25880538.440   136003114.793          50.000    25880543.240   101560754.211          50.000  
E 5  24018607.860   126218611.211          50.000    24018611.860    94254147.039          50.000  
E 9  24229988.480   127329431.031          50.000    24229992.280    95083656.359          50.000  
E15  25834048.380   135758805.914          50.000    25834053.540   101378316.234          50.000  
E27  27490606.140   144464068.488          50.000    27490611.300   107878995.469          50.000  
E30  26132990.840   137329742.859          50.000    26132996.280   102551411.754          50.000  
E36  25170574.120   132272221.543          50.000    25170579.020    98774697.063          50.000  
> 2020  7  8 23 25 25.0000000  0 16       0.000000000000
G10  21946756.880   115330941.234          50.000    21946756.640    86123755.680          50.000  
G13  23904948.920   125621402.609          50.000                                                  
G15  21823817.080   114684753.516          50.000                                                  
G16  23163669.100   121725908.371          50.000                                                  
G20  20210626.940   106207566.918          50.000                                                  
G21  22093874.240   116104117.547          50.000                                                  
G26  23236613.780   122109138.922          50.000    23236615.420    91185386.738          50.000  
G27  23701657.860   124553003.930          50.000    23701659.220    93010360.223          50.000  
G29  22715568.800   119371106.410          50.000                                                  
E 3  25879993.600   136000251.621          50.000    25879998.400   101558616.125          50.000  
E 5  24018467.740   126217874.793          50.000    24018471.720    94253597.117          50.000  
E 9  24230342.320   127331290.434          50.000    24230346.120    95085044.875          50.000  
E15  25833663.960   135756785.770          50.000    25833669.120   101376807.688          50.000  
E27  27490734.040   144464740.586          50.000    27490739.200   107879497.359          50.000  
E30  26133439.700   137332101.676          50.000    26133445.140   102553173.207          50.000  
E36  25170853.000   132273687.063          50.000    25170857.900    98775791.441          50.000  
> 2020  7  8 23 25 26.0000000  0 16       0.000000000000
G10  21946343.040   115328766.465          50.000    21946342.800    86122131.664          50.000  
G13  23905299.520   125623245.055          50.000                                                  
G15  21824002.000   114685725.289          50.000                                                  
G16  23163710.300   121726124.859          50.000                                                  
G20  20210531.380   106207064.707          50.000                                                  
G21  22093601.680   116102685.199          50.000                                                  
G26  23236999.960   122111168.281          50.000    23237001.600    91186902.168          50.000  
G27  23701039.800   124549756.070          50.000    23701041.160    93007934.875          50.000  
G29  22716175.200   119374292.980          50.000                                                  
E 3  25879448.800   135997388.637          50.000    25879453.580   101556478.184          50.000  
E 5  24018327.680   126217138.828          50.000    24018331.680    94253047.531          50.000  
E 9  24230696.220   127333150.188          50.000    24230700.020    95086433.652          50.000  
E15  25833279.540   135754765.617          50.000    25833284.700   101375299.133          50.000  
E27  27490862.020   144465413.105          50.000    27490867.180   107879999.563          50.000  
E30  26133888.600   137334460.617          50.000    26133894.040   102554934.754          50.000  
E36  25171131.920   132275152.746          50.000    25171136.800    98776885.949          50.000  
> 2020  7  8 23 25 27.0000000  0 16       0.000000000000
G10  21945929.260   115326592.070          50.000    21945929.020    86120507.930          50.000  
G13  23905650.240   125625088.066          50.000                                                  
G15  21824187.060   114686697.730          50.000                                                  
G16  23163751.620   121726341.977          50.000                                                  
G20  20210435.900   106206562.938          50.000                                                  
G21  22093329.120   116101252.945          50.000                                                  
G26  23237386.200   122113198.000          50.000    23237387.840    91188417.863          50.000  
G27  23700421.800   124546508.414          50.000    23700423.160    93005509.676          50.000  
G29  22716781.640   119377479.875          50.000                                                  
E 3  25878904.020   135994525.809          50.000    25878908.800   101554340.359          50.000  
E 5  24018187.720   126216403.324          50.000    24018191.720    94252498.293          50.000  
E 9  24231050.180   127335010.273          50.000    24231053.980    95087822.676          50.000  
E15  25832895.120   135752745.473          50.000    25832900.280   101373790.582          50.000  
E27  27490990.060   144466086.039          50.000    27490995.220   107880502.078          50.000  
E30  26134337.520   137336819.691          50.000    26134342.960   102556696.398          50.000  
E36  25171410.860   132276618.594          50.000    25171415.760    98777980.570          50.000  
> 2020  7  8 23 25 28.0000000  0 16       0.000000000000
G10  21945515.560   115324418.027          50.000    21945515.320    86118884.457          50.000  
G13  23906001.060   125626931.633          50.000                                                  
G15  21824372.240   114687670.871          50.000                                                  
G16  23163793.060   121726559.727          50.000                                                  
G20  20210340.500   106206061.590          50.000                                                  
G21  22093056.600   116099820.762          50.000                                                  
G26  23237772.500   122115228.063          50.000    23237774.160    91189933.820          50.000  
G27  23699803.820   124543260.977          50.000    23699805.180    93003084.645          50.000  
G29  22717388.140   119380667.086          50.000                                                  
E 3  25878359.260   135991663.168          50.000    25878364.060   101552202.676          50.000  
E 5  24018047.840   126215668.277          50.000    24018051.840    94251949.395          50.000  
E 9  24231404.220   127336870.719          50.000    24231408.020    95089211.969          50.000  
E15  25832510.680   135750725.320          50.000    25832515.860   101372282.027          50.000  
E27  27491118.200   144466759.414          50.000    27491123.360   107881004.922          50.000  
E30  26134786.460   137339178.906          50.000    26134791.900   102558458.148          50.000  
E36  25171689.840   132278084.605          50.000    25171694.720    98779075.324          50.000  
> 2020  7  8 23 25 29.0000000  0 16       0.000000000000
G10  21945101.920   115322244.359          50.000    21945101.680    86117261.262          50.000  
G13  23906351.980   125628775.762          50.000                                                  
G15  21824557.540   114688644.676          50.000                                                  
G16  23163834.600   121726778.094          50.000                                                  
G20  20210245.180   106205560.684          50.000                                                  
G21  22092784.080   116098388.664          50.000                                                  
G26  23238158.880   122117258.480          50.000    23238160.540    91191450.039          50.000  
G27  23699185.900   124540013.738          50.000    23699187.260    93000659.758          50.000  
G29  22717994.720   119383854.617          50.000                                                  
E 3  25877814.560   135988800.688          50.000    25877819.360   101550065.105          50.000  
E 5  24017908.060   126214933.680          50.000    24017912.040    94251400.832          50.000  
E 9  24231758.300   127338731.496          50.000    24231762.100    95090601.508          50.000  
E15  25832126.260   135748705.168          50.000    25832131.440   101370773.473          50.000  
E27  27491246.420   144467433.199          50.000    27491251.580   107881508.074          50.000  
E30  26135235.420   137341538.242          50.000    26135240.860   102560219.988          50.000  
E36  25171968.840   132279550.797          50.000    25171973.740    98780170.203          50.000  
> 2020  7  8 23 25 30.0000000  0 16       0.000000000000
G10  21944688.360   115320071.051          50.000    21944688.120    86115638.336          50.000  
G13  23906703.020   125630620.457          50.000                                                  
G15  21824742.980   114689619.168          50.000                                                  
G16  23163876.280   121726997.094          50.000                                                  
G20  20210149.940   106205060.199          50.000                                                  
G21  22092511.580   116096956.660          50.000                                                  
G26  23238545.320   122119289.250          50.000    23238546.980    91192966.523          50.000  
G27  23698568.020   124536766.719          50.000    23698569.360    92998235.039          50.000  
G29  22718601.340   119387042.465          50.000                                                  
E 3  25877269.880   135985938.375          50.000    25877274.680   101547927.668          50.000  
E 5  24017768.360   126214199.547          50.000    24017772.340    94250852.613          50.000  
E 9  24232112.460   127340592.625          50.000    24232116.280    95091991.313          50.000  
E15  25831741.840   135746685.000          50.000    25831747.020   101369264.906          50.000  
E27  27491374.720   144468107.422          50.000    27491379.880   107882011.551          50.000  
E30  26135684.420   137343897.703          50.000    26135689.860   102561981.926          50.000  
E36  25172247.880   132281017.141          50.000    25172252.760    98781265.199          50.000  
> 2020  7  8 23 25 31.0000000  0 16       0.000000000000
G10  21944274.860   115317898.125          50.000    21944274.620    86114015.699          50.000  
G13  23907054.160   125632465.711          50.000                                                  
G15  21824928.560   114690594.348          50.000                                                  
G16  23163918.080   121727216.727          50.000                                                  
G20  20210054.780   106204560.156          50.000                                                  
G21  22092239.080   116095524.742          50.000                                                  
G26  23238931.840   122121320.387          50.000    23238933.480    91194483.277          50.000  
G27  23697950.160   124533519.914          50.000    23697951.520    92995810.477          50.000  
G29  22719208.020   119390230.633          50.000                                                  
E 3  25876725.240   135983076.242          50.000    25876730.020   101545790.359          50.000  
E 5  24017628.740   126213465.859          50.000    24017632.740    94250304.730          50.000  
E 9  24232466.700   127342454.086          50.000    24232470.500    95093381.367          50.000  
E15  25831357.420   135744664.832          50.000    25831362.580   101367756.336          50.000  
E27  27491503.100   144468782.059          50.000    27491508.260   107882515.336          50.000  
E30  26136133.440   137346257.293          50.000    26136138.880   102563743.957          50.000  
E36  25172526.940   132282483.645          50.000    25172531.840    98782360.316          50.000  
> 2020  7  8 23 25 32.0000000  0 16       0.000000000000
G10  21943861.440   115315725.551          50.000    21943861.200    86112393.320          50.000  
G13  23907405.400   125634311.527          50.000                                                  
G15  21825114.260   114691570.203          50.000                                                  
G16  23163960.000   121727436.977          50.000                                                  
G20  20209959.700   106204060.535          50.000                                                  
G21  22091966.620   116094092.918          50.000                                                  
G26  23239318.420   122123351.871          50.000    23239320.060    91196000.293          50.000  
G27  23697332.360   124530273.316          50.000    23697333.720    92993386.070          50.000  
G29  22719814.780   119393419.117          50.000                                                  
E 3  25876180.620   135980214.266          50.000    25876185.400   101543653.172          50.000  
E 5  24017489.220   126212732.629          50.000    24017493.200    94249757.188          50.000  
E 9  24232820.980   127344315.898          50.000    24232824.780    95094771.680          50.000  
E15  25830972.980   135742644.660          50.000    25830978.160   101366247.770          50.000  
E27  27491631.560   144469457.117          50.000    27491636.720   107883019.441          50.000  
E30  26136582.480   137348617.008          50.000    26136587.920   102565506.078          50.000  
E36  25172806.040   132283950.324          50.000    25172810.940    98783455.563          50.000  
> 2020  7  8 23 25 33.0000000  0 16       0.000000000000
G10  21943448.080   115313553.332          50.000    21943447.840    86110771.211          50.000  
G13  23907756.760   125636157.906          50.000                                                  
G15  21825300.080   114692546.738          50.000                                                  
G16  23164002.020   121727657.859          50.000                                                  
G20  20209864.720   106203561.348          50.000                                                  
G21  22091694.160   116092661.176          50.000                                                  
G26  23239705.060   122125383.711          50.000    23239706.720    91197517.578          50.000  
G27  23696714.600   124527026.938          50.000    23696715.940    92990961.828          50.000  
G29  22720421.600   119396607.934          50.000                                                  
E 3  25875636.040   135977352.469          50.000    25875640.820   101541516.117          50.000  
E 5  24017349.760   126211999.848          50.000    24017353.760    94249209.980          50.000  
E 9  24233175.340   127346178.047          50.000    24233179.140    95096162.246          50.000  
E15  25830588.560   135740624.477          50.000    25830593.740   101364739.191          50.000  
E27  27491760.100   144470132.613          50.000    27491765.260   107883523.867          50.000  
E30  26137031.540   137350976.863          50.000    26137036.980   102567268.305          50.000  
E36  25173085.180   132285417.156          50.000    25173090.060    98784550.926          50.000  
> 2020  7  8 23 25 34.0000000  0 16       0.000000000000
G10  21943034.800   115311381.500          50.000    21943034.540    86109149.387          50.000  
G13  23908108.220   125638004.840          50.000                                                  
G15  21825486.040   114693523.953          50.000                                                  
G16  23164044.180   121727879.367          50.000                                                  
G20  20209769.800   106203062.594          50.000                                                  
G21  22091421.740   116091229.516          50.000                                                  
G26  23240091.780   122127415.902          50.000    23240093.420    91199035.121          50.000  
G27  23696096.860   124523780.773          50.000    23696098.220    92988537.746          50.000  
G29  22721028.460   119399797.059          50.000                                                  
E 3  25875091.480   135974490.848          50.000    25875096.280   101539379.191          50.000  
E 5  24017210.420   126211267.527          50.000    24017214.400    94248663.117          50.000  
E 9  24233529.760   127348040.543          50.000    24233533.560    95097553.070          50.000  
E15  25830204.140   135738604.309          50.000    25830209.300   101363230.625          50.000  
E27  27491888.720   144470808.516          50.000    27491893.880   107884028.598          50.000  
E30  26137480.620   137353336.836          50.000    26137486.080   102569030.625          50.000  
E36  25173364.340   132286884.160          50.000    25173369.220    98785646.414          50.000  
> 2020  7  8 23 25 35.0000000  0 16       0.000000000000
G10  21942621.580   115309210.016          50.000    21942621.320    86107527.824          50.000  
G13  23908459.780   125639852.344          50.000                                                  
G15  21825672.140   114694501.855          50.000                                                  
G16  23164086.440   121728101.504          50.000                                                  
G20  20209674.980   106202564.277          50.000                                                  
G21  22091149.320   116089797.953          50.000                                                  
G26  23240478.560   122129448.453          50.000    23240480.220    91200552.934          50.000  
G27  23695479.180   124520534.816          50.000    23695480.540    92986113.820          50.000  
G29  22721635.400   119402986.508          50.000                                                  
E 3  25874546.960   135971629.387          50.000    25874551.760   101537242.391          50.000  
E 5  24017071.140   126210535.660          50.000    24017075.140    94248116.594          50.000  
E 9  24233884.240   127349903.379          50.000    24233888.060    95098944.148          50.000  
E15  25829819.700   135736584.117          50.000    25829824.880   101361722.039          50.000  
E27  27492017.420   144471484.828          50.000    27492022.580   107884533.637          50.000  
E30  26137929.740   137355696.934          50.000    26137935.180   102570793.031          50.000  
E36  25173643.520   132288351.332          50.000    25173648.420    98786742.027          50.000  
> 2020  7  8 23 25 36.0000000  0 16       0.000000000000
G10  21942208.420   115307038.910          50.000    21942208.180    86105906.547          50.000  
G13  23908811.460   125641700.410          50.000                                                  
G15  21825858.360   114695480.441          50.000                                                  
G16  23164128.840   121728324.254          50.000                                                  
G20  20209580.240   106202066.387          50.000                                                  
G21  22090876.920   116088366.477          50.000                                                  
G26  23240865.420   122131481.344          50.000    23240867.060    91202071.000          50.000  
G27  23694861.540   124517289.063          50.000    23694862.880    92983690.043          50.000  
G29  22722242.380   119406176.277          50.000                                                  
E 3  25874002.480   135968768.109          50.000    25874007.280   101535105.719          50.000  
E 5  24016931.960   126209804.238          50.000    24016935.940    94247570.402          50.000  
E 9  24234238.800   127351766.555          50.000    24234242.600    95100335.480          50.000  
E15  25829435.280   135734563.922          50.000    25829440.440   101360213.453          50.000  
E27  27492146.200   144472161.586          50.000    27492151.380   107885039.008          50.000  
E30  26138378.880   137358057.160          50.000    26138384.320   102572555.539          50.000  
E36  25173922.760   132289818.656          50.000    25173927.640    98787837.758          50.000  
> 2020  7  8 23 25 37.0000000  0 16       0.000000000000
G10  21941795.340   115304868.172          50.000    21941795.100    86104285.543          50.000  
G13  23909163.240   125643549.035          50.000                                                  
G15  21826044.700   114696459.703          50.000                                                  
G16  23164171.340   121728547.645          50.000                                                  
G20  20209485.580   106201568.934          50.000                                                  
G21  22090604.520   116086935.090          50.000                                                  
G26  23241252.320   122133514.602          50.000    23241253.980    91203589.344          50.000  
G27  23694243.920   124514043.531          50.000    23694245.280    92981266.430          50.000  
G29  22722849.440   119409366.359          50.000                                                  
E 3  25873458.020   135965907.000          50.000    25873462.820   101532969.176          50.000  
E 5  24016792.860   126209073.285          50.000    24016796.860    94247024.563          50.000  
E 9  24234593.420   127353630.078          50.000    24234597.220    95101727.070          50.000  
E15  25829050.840   135732543.738          50.000    25829056.020   101358704.875          50.000  
E27  27492275.080   144472838.773          50.000    27492280.240   107885544.699          50.000  
E30  26138828.040   137360417.527          50.000    26138833.480   102574318.148          50.000  
E36  25174202.000   132291286.152          50.000    25174206.900    98788933.613          50.000  
> 2020  7  8 23 25 38.0000000  0 16       0.000000000000
G10  21941382.340   115302697.785          50.000    21941382.080    86102664.797          50.000  
G13  23909515.140   125645398.223          50.000                                                  
G15  21826231.180   114697439.648          50.000                                                  
G16  23164213.980   121728771.664          50.000                                                  
G20  20209391.000   106201071.918          50.000                                                  
G21  22090332.160   116085503.785          50.000                                                  
G26  23241639.300   122135548.207          50.000    23241640.960    91205107.941          50.000  
G27  23693626.360   124510798.199          50.000    23693627.720    92978842.973          50.000  
G29  22723456.560   119412556.758          50.000                                                  
E 3  25872913.600   135963046.055          50.000    25872918.400   101530832.758          50.000  
E 5  24016653.840   126208342.781          50.000    24016657.840    94246479.055          50.000  
E 9  24234948.100   127355493.941          50.000    24234951.900    95103118.918          50.000  
E15  25828666.420   135730523.539          50.000    25828671.580   101357196.285          50.000  
E27  27492404.020   144473516.375          50.000    27492409.180   107886050.699          50.000  
E30  26139277.220   137362778.016          50.000    26139282.680   102576080.848          50.000  
E36  25174481.300   132292753.809          50.000    25174486.180    98790029.590          50.000  
> 2020  7  8 23 25 39.0000000  0 16       0.000000000000
G10  21940969.400   115300527.789          50.000    21940969.160    86101044.348          50.000  
G13  23909867.140   125647247.973          50.000                                                  
G15  21826417.780   114698420.277          50.000                                                  
G16  23164256.720   121728996.309          50.000                                                  
G20  20209296.500   106200575.324          50.000                                                  
G21  22090059.820   116084072.578          50.000                                                  
G26  23242026.360   122137582.172          50.000    23242028.020    91206626.809          50.000  
G27  23693008.840   124507553.094          50.000    23693010.200    92976419.676          50.000  
G29  22724063.720   119415747.473          50.000                                                  
E 3  25872369.220   135960185.289          50.000    25872374.020   101528696.473          50.000  
E 5  24016514.920   126207612.734          50.000    24016518.920    94245933.891          50.000  
E 9  24235302.840   127357358.148          50.000    24235306.640    95104511.020          50.000  
E15  25828281.980   135728503.340          50.000    25828287.160   101355687.695          50.000  
E27  27492533.040   144474194.383          50.000    27492538.200   107886557.004          50.000  
E30  26139726.440   137365138.625          50.000    26139731.880   102577843.641          50.000  
E36  25174760.620   132294221.645          50.000    25174765.500    98791125.699          50.000  
> 2020  7  8 23 25 40.0000000  0 16       0.000000000000
G10  21940556.520   115298358.148          50.000    21940556.280    86099424.160          50.000  
G13  23910219.240   125649098.285          50.000                                                  
G15  21826604.520   114699401.598          50.000                                                  
G16  23164299.580   121729221.570          50.000                                                  
G20  20209202.080   106200079.172          50.000                                                  
G21  22089787.480   116082641.445          50.000                                                  
G26  23242413.480   122139616.473          50.000    23242415.120    91208145.930          50.000  
G27  23692391.360   124504308.191          50.000    23692392.700    92973996.539          50.000  
G29  22724670.960   119418938.512          50.000                                                  
E 3  25871824.860   135957324.695          50.000    25871829.660   101526560.316          50.000  
E 5  24016376.080   126206883.141          50.000    24016380.080    94245389.066          50.000  
E 9  24235657.660   127359222.699          50.000    24235661.460    95105903.379          50.000  
E15  25827897.540   135726483.137          50.000    25827902.720   101354179.105          50.000  
E27  27492662.140   144474872.836          50.000    27492667.300   107887063.641          50.000  
E30  26140175.680   137367499.375          50.000    26140181.120   102579606.539          50.000  
E36  25175039.960   132295689.625          50.000    25175044.860    98792221.922          50.000  
> 2020  7  8 23 25 41.0000000  0 16       0.000000000000
G10  21940143.720   115296188.867          50.000    21940143.480    86097804.246          50.000  
G13  23910571.440   125650949.168          50.000                                                  
G15  21826791.400   114700383.586          50.000                                                  
G16  23164342.580   121729447.465          50.000                                                  
G20  20209107.740   106199583.457          50.000                                                  
G21  22089515.160   116081210.406          50.000                                                  
G26  23242800.660   122141651.141          50.000    23242802.320    91209665.324          50.000  
G27  23691773.900   124501063.504          50.000    23691775.260    92971573.559          50.000  
G29  22725278.260   119422129.867          50.000                                                  
E 3  25871280.540   135954464.270          50.000    25871285.340   101524424.285          50.000  
E 5  24016237.340   126206154.008          50.000    24016241.320    94244844.582          50.000  
E 9  24236012.540   127361087.598          50.000    24236016.340    95107295.996          50.000  
E15  25827513.120   135724462.930          50.000    25827518.280   101352670.508          50.000  
E27  27492791.340   144475551.711          50.000    27492796.500   107887570.590          50.000  
E30  26140624.940   137369860.246          50.000    26140630.380   102581369.523          50.000  
E36  25175319.340   132297157.789          50.000    25175324.240    98793318.277          50.000  
> 2020  7  8 23 25 42.0000000  0 16       0.000000000000
G10  21939731.000   115294019.961          50.000    21939730.760    86096184.605          50.000  
G13  23910923.760   125652800.613          50.000                                                  
G15  21826978.380   114701366.258          50.000                                                  
G16  23164385.680   121729673.988          50.000                                                  
G20  20209013.500   106199088.172          50.000                                                  
G21  22089242.860   116079779.457          50.000                                                  
G26  23243187.920   122143686.160          50.000    23243189.560    91211184.980          50.000  
G27  23691156.500   124497819.039          50.000    23691157.860    92969150.746          50.000  
G29  22725885.620   119425321.535          50.000                                                  
E 3  25870736.260   135951604.016          50.000    25870741.060   101522288.383          50.000  
E 5  24016098.680   126205425.328          50.000    24016102.660    94244300.441          50.000  
E 9  24236367.480   127362952.828          50.000    24236371.280    95108688.863          50.000  
E15  25827128.680   135722442.723          50.000    25827133.860   101351161.910          50.000  
E27  27492920.600   144476230.996          50.000    27492925.760   107888077.852          50.000  
E30  26141074.220   137372221.246          50.000    26141079.660   102583132.605          50.000  
E36  25175598.760   132298626.102          50.000    25175603.640    98794414.742          50.000  
> 2020  7  8 23 25 43.0000000  0 16       0.000000000000
G10  21939318.340   115291851.422          50.000    21939318.100    86094565.242          50.000  
G13  23911276.180   125654652.613          50.000                                                  
G15  21827165.520   114702349.609          50.000                                                  
G16  23164428.900   121729901.137          50.000                                                  
G20  20208919.320   106198593.313          50.000                                                  
G21  22088970.580   116078348.586          50.000                                                  
G26  23243575.240   122145721.535          50.000    23243576.880    91212704.902          50.000  
G27  23690539.140   124494574.789          50.000    23690540.500    92966728.090          50.000  
G29  22726493.040   119428513.520          50.000                                                  
E 3  25870192.000   135948743.930          50.000    25870196.800   101520152.602          50.000  
E 5  24015960.100   126204697.094          50.000    24015964.080    94243756.629          50.000  
E 9  24236722.480   127364818.406          50.000    24236726.280    95110081.988          50.000  
E15  25826744.240   135720422.508          50.000    25826749.420   101349653.309          50.000  
E27  27493049.940   144476910.727          50.000    27493055.100   107888585.441          50.000  
E30  26141523.520   137374582.371          50.000    26141528.980   102584895.785          50.000  
E36  25175878.200   132300094.590          50.000    25175883.100    98795511.340          50.000  
> 2020  7  8 23 25 44.0000000  0 16       0.000000000000
G10  21938905.740   115289683.246          50.000    21938905.500    86092946.152          50.000  
G13  23911628.720   125656505.176          50.000                                                  
G15  21827352.780   114703333.652          50.000                                                  
G16  23164472.260   121730128.918          50.000                                                  
G20  20208825.240   106198098.891          50.000                                                  
G21  22088698.300   116076917.816          50.000                                                  
G26  23243962.620   122147757.270          50.000    23243964.280    91214225.090          50.000  
G27  23689921.820   124491330.746          50.000    23689923.180    92964305.594          50.000  
G29  22727100.500   119431705.820          50.000                                                  
E 3  25869647.780   135945884.027          50.000    25869652.580   101518016.965          50.000  
E 5  24015821.600   126203969.328          50.000    24015825.600    94243213.164          50.000  
E 9  24237077.560   127366684.324          50.000    24237081.360    95111475.367          50.000  
E15  25826359.820   135718402.293          50.000    25826364.980   101348144.707          50.000  
E27  27493179.380   144477590.863          50.000    27493184.540   107889093.336          50.000  
E30  26141972.860   137376943.625          50.000    26141978.300   102586659.055          50.000  
E36  25176157.680   132301563.246          50.000    25176162.560    98796608.063          50.000  
> 2020  7  8 23 25 45.0000000  0 16       0.000000000000
G10  21938493.220   115287515.434          50.000    21938492.980    86091327.332          50.000  
G13  23911981.360   125658358.297          50.000                                                  
G15  21827540.160   114704318.371          50.000                                                  
G16  23164515.720   121730357.340          50.000                                                  
G20  20208731.240   106197604.902          50.000                                                  
G21  22088426.060   116075487.133          50.000                                                  
G26  23244350.080   122149793.336          50.000    23244351.720    91215745.531          50.000  
G27  23689304.540   124488086.910          50.000    23689305.900    92961883.250          50.000  
G29  22727708.040   119434898.453          50.000                                                  
E 3  25869103.600   135943024.289          50.000    25869108.380   101515881.445          50.000  
E 5  24015683.200   126203242.012          50.000    24015687.200    94242670.039          50.000  
E 9  24237432.700   127368550.586          50.000    24237436.500    95112869.004          50.000  
E15  25825975.380   135716382.070          50.000    25825980.560   101346636.102          50.000  
E27  27493308.880   144478271.426          50.000    27493314.040   107889601.543          50.000  
E30  26142422.220   137379305.000          50.000    26142427.660   102588422.418          50.000  
E36  25176437.180   132303032.063          50.000    25176442.080    98797704.906          50.000  
> 2020  7  8 23 25 46.0000000  0 16       0.000000000000
G10  21938080.780   115285348.000          50.000    21938080.540    86089708.793          50.000  
G13  23912334.100   125660211.969          50.000                                                  
G15  21827727.680   114705303.770          50.000                                                  
G16  23164559.300   121730586.395          50.000                                                  
G20  20208637.320   106197111.355          50.000                                                  
G21  22088153.820   116074056.539          50.000                                                  
G26  23244737.600   122151829.770          50.000    23244739.240    91217266.242          50.000  
G27  23688687.300   124484843.289          50.000    23688688.660    92959461.066          50.000  
G29  22728315.640   119438091.395          50.000                                                  
E 3  25868559.440   135940164.723          50.000    25868564.220   101513746.055          50.000  
E 5  24015544.880   126202515.152          50.000    24015548.880    94242127.254          50.000  
E 9  24237787.900   127370417.188          50.000    24237791.700    95114262.895          50.000  
E15  25825590.940   135714361.848          50.000    25825596.120   101345127.496          50.000  
E27  27493438.460   144478952.402          50.000    27493443.620   107890110.066          50.000  
E30  26142871.600   137381666.508          50.000    26142877.040   102590185.883          50.000  
E36  25176716.720   132304501.031          50.000    25176721.620    98798801.859          50.000  
> 2020  7  8 23 25 47.0000000  0 16       0.000000000000
G10  21937668.400   115283180.922          50.000    21937668.160    86088090.523          50.000  
G13  23912686.960   125662066.211          50.000                                                  
G15  21827915.320   114706289.852          50.000                                                  
G16  23164603.020   121730816.078          50.000                                                  
G20  20208543.480   106196618.242          50.000                                                  
G21  22087881.600   116072626.020          50.000                                                  
G26  23245125.180   122153866.551          50.000    23245126.840    91218787.215          50.000  
G27  23688070.100   124481599.879          50.000    23688071.460    92957039.039          50.000  
G29  22728923.300   119441284.645          50.000                                                  
E 3  25868015.320   135937305.340          50.000    25868020.100   101511610.805          50.000  
E 5  24015406.660   126201788.738          50.000    24015410.640    94241584.805          50.000  
E 9  24238143.180   127372284.141          50.000    24238146.980    95115657.047          50.000  
E15  25825206.500   135712341.621          50.000    25825211.680   101343618.883          50.000  
E27  27493568.140   144479633.824          50.000    27493573.300   107890618.918          50.000  
E30  26143321.000   137384028.152          50.000    26143326.440   102591949.445          50.000  
E36  25176996.280   132305970.180          50.000    25177001.180    98799898.953          50.000  
> 2020  7  8 23 25 48.0000000  0 16       0.000000000000
G10  21937256.080   115281014.219          50.000    21937255.840    86086472.527          50.000  
G13  23913039.900   125663921.004          50.000                                                  
G15  21828103.100   114707276.609          50.000                                                  
G16  23164646.840   121731046.367          50.000                                                  
G20  20208449.740   106196125.559          50.000                                                  
G21  22087609.400   116071195.602          50.000                                                  
G26  23245512.840   122155903.688          50.000    23245514.480    91220308.453          50.000  
G27  23687452.940   124478356.684          50.000    23687454.300    92954617.176          50.000  
G29  22729531.020   119444478.211          50.000                                                  
E 3  25867471.220   135934446.109          50.000    25867476.000   101509475.664          50.000  
E 5  24015268.520   126201062.789          50.000    24015272.500    94241042.699          50.000  
E 9  24238498.500   127374151.422          50.000    24238502.300    95117051.445          50.000  
E15  25824822.060   135710321.383          50.000    25824827.240   101342110.266          50.000  
E27  27493697.880   144480315.633          50.000    27493703.040   107891128.059          50.000  
E30  26143770.440   137386389.910          50.000    26143775.880   102593713.098          50.000  
E36  25177275.880   132307439.488          50.000    25177280.780    98800996.164          50.000  
> 2020  7  8 23 25 49.0000000  0 16       0.000000000000
G10  21936843.840   115278847.875          50.000    21936843.600    86084854.809          50.000  
G13  23913392.980   125665776.371          50.000                                                  
G15  21828291.000   114708264.051          50.000                                                  
G16  23164690.780   121731277.293          50.000                                                  
G20  20208356.060   106195633.301          50.000                                                  
G21  22087337.220   116069765.273          50.000                                                  
G26  23245900.560   122157941.176          50.000    23245902.220    91221829.953          50.000  
G27  23686835.820   124475113.711          50.000    23686837.180    92952195.473          50.000  
G29  22730138.800   119447672.113          50.000                                                  
E 3  25866927.160   135931587.066          50.000    25866931.960   101507340.664          50.000  
E 5  24015130.460   126200337.293          50.000    24015134.440    94240500.934          50.000  
E 9  24238853.900   127376019.055          50.000    24238857.700    95118446.105          50.000  
E15  25824437.620   135708301.148          50.000    25824442.800   101340601.648          50.000  
E27  27493827.700   144480997.898          50.000    27493832.880   107891637.543          50.000  
E30  26144219.880   137388751.805          50.000    26144225.340   102595476.848          50.000  
E36  25177555.520   132308908.961          50.000    25177560.420    98802093.496          50.000  
> 2020  7  8 23 25 50.0000000  0 16       0.000000000000
G10  21936431.680   115276681.891          50.000    21936431.420    86083237.352          50.000  
G13  23913746.140   125667632.281          50.000                                                  
G15  21828479.020   114709252.176          50.000                                                  
G16  23164734.840   121731508.840          50.000                                                  
G20  20208262.480   106195141.492          50.000                                                  
G21  22087065.060   116068335.031          50.000                                                  
G26  23246288.360   122159979.027          50.000    23246290.000    91223351.723          50.000  
G27  23686218.740   124471870.945          50.000    23686220.100    92949773.930          50.000  
G29  22730746.640   119450866.320          50.000                                                  
E 3  25866383.140   135928728.199          50.000    25866387.920   101505205.797          50.000  
E 5  24014992.480   126199612.254          50.000    24014996.480    94239959.508          50.000  
E 9  24239209.360   127377887.027          50.000    24239213.160    95119841.020          50.000  
E15  25824053.200   135706280.914          50.000    25824058.360   101339093.031          50.000  
E27  27493957.620   144481680.582          50.000    27493962.780   107892147.340          50.000  
E30  26144669.360   137391113.828          50.000    26144674.820   102597240.695          50.000  
E36  25177835.180   132310378.605          50.000    25177840.080    98803190.957          50.000  
> 2020  7  8 23 25 51.0000000  0 16       0.000000000000
G10  21936019.560   115274516.285          50.000    21936019.320    86081620.180          50.000  
G13  23914099.420   125669488.754          50.000                                                  
G15  21828667.200   114710240.977          50.000                                                  
G16  23164779.020   121731741.020          50.000                                                  
G20  20208168.960   106194650.113          50.000                                                  
G21  22086792.900   116066904.867          50.000                                                  
G26  23246676.200   122162017.223          50.000    23246677.860    91224873.750          50.000  
G27  23685601.700   124468628.395          50.000    23685603.060    92947352.547          50.000  
G29  22731354.540   119454060.855          50.000                                                  
E 3  25865839.140   135925869.500          50.000    25865843.940   101503071.055          50.000  
E 5  24014854.600   126198887.676          50.000    24014858.600    94239418.426          50.000  
E 9  24239564.900   127379755.344          50.000    24239568.700    95121236.191          50.000  
E15  25823668.760   135704260.676          50.000    25823673.920   101337584.414          50.000  
E27  27494087.600   144482363.668          50.000    27494092.780   107892657.438          50.000  
E30  26145118.860   137393475.977          50.000    26145124.320   102599004.633          50.000  
E36  25178114.880   132311848.418          50.000    25178119.780    98804288.543          50.000  
> 2020  7  8 23 25 52.0000000  0 16       0.000000000000
G10  21935607.540   115272351.043          50.000    21935607.300    86080003.277          50.000  
G13  23914452.800   125671345.781          50.000                                                  
G15  21828855.480   114711230.465          50.000                                                  
G16  23164823.320   121731973.820          50.000                                                  
G20  20208075.540   106194159.168          50.000                                                  
G21  22086520.780   116065474.805          50.000                                                  
G26  23247064.120   122164055.766          50.000    23247065.780    91226396.039          50.000  
G27  23684984.700   124465386.059          50.000    23684986.060    92944931.320          50.000  
G29  22731962.500   119457255.699          50.000                                                  
E 3  25865295.180   135923010.961          50.000    25865299.960   101500936.434          50.000  
E 5  24014716.800   126198163.543          50.000    24014720.800    94238877.680          50.000  
E 9  24239920.480   127381624.000          50.000    24239924.300    95122631.617          50.000  
E15  25823284.320   135702240.434          50.000    25823289.480   101336075.793          50.000  
E27  27494217.680   144483047.207          50.000    27494222.840   107893167.871          50.000  
E30  26145568.400   137395838.246          50.000    26145573.840   102600768.668          50.000  
E36  25178394.600   132313318.383          50.000    25178399.500    98805386.246          50.000  
> 2020  7  8 23 25 53.0000000  0 16       0.000000000000
G10  21935195.580   115270186.180          50.000    21935195.340    86078386.656          50.000  
G13  23914806.300   125673203.383          50.000                                                  
G15  21829043.900   114712220.637          50.000                                                  
G16  23164867.740   121732207.250          50.000                                                  
G20  20207982.200   106193668.652          50.000                                                  
G21  22086248.660   116064044.828          50.000                                                  
G26  23247452.120   122166094.668          50.000    23247453.780    91227918.594          50.000  
G27  23684367.760   124462143.941          50.000    23684369.100    92942510.262          50.000  
G29  22732570.520   119460450.855          50.000                                                  
E 3  25864751.260   135920152.613          50.000    25864756.040   101498801.953          50.000  
E 5  24014579.100   126197439.871          50.000    24014583.080    94238337.273          50.000  
E 9  24240276.140   127383493.004          50.000    24240279.960    95124027.297          50.000  
E15  25822899.880   135700220.188          50.000    25822905.040   101334567.168          50.000  
E27  27494347.840   144483731.156          50.000    27494353.000   107893678.613          50.000  
E30  26146017.940   137398200.637          50.000    26146023.400   102602532.789          50.000  
E36  25178674.360   132314788.527          50.000    25178679.260    98806484.078          50.000  
> 2020  7  8 23 25 54.0000000  0 16       0.000000000000
G10  21934783.680   115268021.672          50.000    21934783.440    86076770.305          50.000  
G13  23915159.880   125675061.539          50.000                                                  
G15  21829232.460   114713211.480          50.000                                                  
G16  23164912.280   121732441.305          50.000                                                  
G20  20207888.940   106193178.574          50.000                                                  
G21  22085976.560   116062614.938          50.000                                                  
G26  23247840.180   122168133.910          50.000    23247841.820    91229441.406          50.000  
G27  23683750.840   124458902.031          50.000    23683752.180    92940089.355          50.000  
G29  22733178.600   119463646.340          50.000                                                  
E 3  25864207.360   135917294.434          50.000    25864212.140   101496667.602          50.000  
E 5  24014441.460   126196716.645          50.000    24014445.460    94237797.203          50.000  
E 9  24240631.880   127385362.340          50.000    24240635.680    95125423.230          50.000  
E15  25822515.440   135698199.934          50.000    25822520.600   101333058.535          50.000  
E27  27494478.060   144484415.520          50.000    27494483.220   107894189.660          50.000  
E30  26146467.520   137400563.188          50.000    26146472.960   102604297.027          50.000  
E36  25178954.160   132316258.824          50.000    25178959.060    98807582.023          50.000  
> 2020  7  8 23 25 55.0000000  0 16       0.000000000000
G10  21934371.860   115265857.531          50.000    21934371.620    86075154.227          50.000  
G13  23915513.600   125676920.262          50.000                                                  
G15  21829421.140   114714203.023          50.000                                                  
G16  23164956.940   121732675.984          50.000                                                  
G20  20207795.760   106192688.930          50.000                                                  
G21  22085704.480   116061185.133          50.000                                                  
G26  23248228.300   122170173.520          50.000    23248229.960    91230964.488          50.000  
G27  23683133.960   124455660.332          50.000    23683135.320    92937668.605          50.000  
G29  22733786.740   119466842.133          50.000                                                  
E 3  25863663.500   135914436.414          50.000    25863668.280   101494533.363          50.000  
E 5  24014303.940   126195993.883          50.000    24014307.920    94237257.477          50.000  
E 9  24240987.660   127387232.027          50.000    24240991.460    95126819.422          50.000  
E15  25822130.980   135696179.676          50.000    25822136.160   101331549.902          50.000  
E27  27494608.380   144485100.313          50.000    27494613.540   107894701.031          50.000  
E30  26146917.120   137402925.832          50.000    26146922.560   102606061.344          50.000  
E36  25179233.980   132317729.289          50.000    25179238.880    98808680.102          50.000  
> 2020  7  8 23 25 56.0000000  0 16       0.000000000000
G10  21933960.100   115263693.762          50.000    21933959.860    86073538.426          50.000  
G13  23915867.400   125678779.543          50.000                                                  
G15  21829609.960   114715195.238          50.000                                                  
G16  23165001.720   121732911.293          50.000                                                  
G20  20207702.660   106192199.707          50.000                                                  
G21  22085432.400   116059755.418          50.000                                                  
G26  23248616.500   122172213.473          50.000    23248618.140    91232487.828          50.000  
G27  23682517.120   124452418.840          50.000    23682518.480    92935248.012          50.000  
G29  22734394.940   119470038.238          50.000                                                  
E 3  25863119.660   135911578.578          50.000    25863124.460   101492399.266          50.000  
E 5  24014166.480   126195271.566          50.000    24014170.460    94236718.082          50.000  
E 9  24241343.520   127389102.047          50.000    24241347.320    95128215.867          50.000  
E15  25821746.540   135694159.418          50.000    25821751.720   101330041.270          50.000  
E27  27494738.780   144485785.535          50.000    27494743.940   107895212.723          50.000  
E30  26147366.740   137405288.617          50.000    26147372.200   102607825.758          50.000  
E36  25179513.820   132319199.922          50.000    25179518.720    98809778.301          50.000  
> 2020  7  8 23 25 57.0000000  0 16       0.000000000000
G10  21933548.420   115261530.352          50.000    21933548.180    86071922.895          50.000  
G13  23916221.320   125680639.395          50.000                                                  
G15  21829798.900   114716188.129          50.000                                                  
G16  23165046.620   121733147.223          50.000                                                  
G20  20207609.660   106191710.938          50.000                                                  
G21  22085160.360   116058325.797          50.000                                                  
G26  23249004.740   122174253.777          50.000    23249006.400    91234011.430          50.000  
G27  23681900.340   124449177.578          50.000    23681901.680    92932827.590          50.000  
G29  22735003.200   119473234.676          50.000                                                  
E 3  25862575.860   135908720.910          50.000    25862580.660   101490265.297          50.000  
E 5  24014029.120   126194549.715          50.000    24014033.100    94236179.039          50.000  
E 9  24241699.440   127390972.406          50.000    24241703.240    95129612.566          50.000  
E15  25821362.100   135692139.156          50.000    25821367.280   101328532.633          50.000  
E27  27494869.240   144486471.176          50.000    27494874.400   107895724.727          50.000  
E30  26147816.380   137407651.523          50.000    26147821.840   102609590.262          50.000  
E36  25179793.720   132320670.727          50.000    25179798.600    98810876.625          50.000  
> 2020  7  8 23 25 58.0000000  0 16       0.000000000000
G10  21933136.820   115259367.320          50.000    21933136.560    86070307.645          50.000  
G13  23916575.340   125682499.785          50.000                                                  
G15  21829987.960   114717181.703          50.000                                                  
G16  23165091.640   121733383.766          50.000                                                  
G20  20207516.720   106191222.594          50.000                                                  
G21  22084888.320   116056896.254          50.000                                                  
G26  23249393.080   122176294.438          50.000    23249394.720    91235535.301          50.000  
G27  23681283.580   124445936.527          50.000    23681284.920    92930407.324          50.000  
G29  22735611.520   119476431.418          50.000                                                  
E 3  25862032.100   135905863.426          50.000    25862036.900   101488131.461          50.000  
E 5  24013891.840   126193828.324          50.000    24013895.820    94235640.340          50.000  
E 9  24242055.420   127392843.121          50.000    24242059.220    95131009.527          50.000  
E15  25820977.660   135690118.895          50.000    25820982.820   101327023.996          50.000  
E27  27494999.800   144487157.234          50.000    27495004.960   107896237.043          50.000  
E30  26148266.060   137410014.559          50.000    26148271.500   102611354.867          50.000  
E36  25180073.620   132322141.684          50.000    25180078.520    98811975.066          50.000  
> 2020  7  8 23 25 59.0000000  0 16       0.000000000000
G10  21932725.280   115257204.652          50.000    21932725.020    86068692.664          50.000  
G13  23916929.480   125684360.750          50.000                                                  
G15  21830177.160   114718175.965          50.000                                                  
G16  23165136.760   121733620.945          50.000                                                  
G20  20207423.880   106190734.676          50.000                                                  
G21  22084616.320   116055466.809          50.000                                                  
G26  23249781.460   122178335.441          50.000    23249783.120    91237059.426          50.000  
G27  23680666.880   124442695.688          50.000    23680668.220    92927987.223          50.000  
G29  22736219.900   119479628.480          50.000                                                  
E 3  25861488.380   135903006.109          50.000    25861493.160   101485997.750          50.000  
E 5  24013754.640   126193107.383          50.000    24013758.640    94235101.977          50.000  
E 9  24242411.460   127394714.176          50.000    24242415.280    95132406.738          50.000  
E15  25820593.220   135688098.625          50.000    25820598.380   101325515.355          50.000  
E27  27495130.440   144487843.719          50.000    27495135.600   107896749.676          50.000  
E30  26148715.760   137412377.719          50.000    26148721.200   102613119.563          50.000  
E36  25180353.580   132323612.813          50.000    25180358.480    98813073.641          50.000  
> 2020  7  8 23 26  0.0000000  0 16       0.000000000000
G10  21932313.800   115255042.340          50.000    21932313.540    86067077.953          50.000  
G13  23917283.700   125686222.277          50.000                                                  
G15  21830366.500   114719170.902          50.000                                                  
G16  23165182.020   121733858.754          50.000                                                  
G20  20207331.120   106190247.195          50.000                                                  
G21  22084344.320   116054037.445          50.000                                                  
G26  23250169.920   122180376.809          50.000    23250171.580    91238583.820          50.000  
G27  23680050.200   124439455.063          50.000    23680051.540    92925567.273          50.000  
G29  22736828.340   119482825.855          50.000                                                  
E 3  25860944.680   135900148.969          50.000    25860949.480   101483864.172          50.000  
E 5  24013617.540   126192386.898          50.000    24013621.540    94234563.949          50.000  
E 9  24242767.580   127396585.563          50.000    24242771.380    95133804.203          50.000  
E15  25820208.760   135686078.352          50.000    25820213.940   101324006.707          50.000  
E27  27495261.140   144488530.621          50.000    27495266.300   107897262.621          50.000  
E30  26149165.480   137414741.008          50.000    26149170.920   102614884.355          50.000  
E36  25180633.560   132325084.109          50.000    25180638.440    98814172.332          50.000  
> 2020  7  8 23 26  1.0000000  0 16       0.000000000000
G10  21931902.400   115252880.398          50.000    21931902.140    86065463.516          50.000  
G13  23917638.060   125688084.355          50.000                                                  
G15  21830555.960   114720166.508          50.000                                                  
G16  23165227.380   121734097.168          50.000                                                  
G20  20207238.440   106189760.148          50.000                                                  
G21  22084072.340   116052608.168          50.000                                                  
G26  23250558.460   122182418.520          50.000    23250560.100    91240108.473          50.000  
G27  23679433.560   124436214.652          50.000    23679434.920    92923147.488          50.000  
G29  22737436.840   119486023.547          50.000                                                  
E 3  25860401.020   135897291.980          50.000    25860405.800   101481730.707          50.000  
E 5  24013480.520   126191666.859          50.000    24013484.520    94234026.258          50.000  
E 9  24243123.760   127398457.289          50.000    24243127.560    95135201.922          50.000  
E15  25819824.320   135684058.074          50.000    25819829.500   101322498.063          50.000  
E27  27495391.940   144489217.953          50.000    27495397.100   107897775.887          50.000  
E30  26149615.220   137417104.418          50.000    26149620.660   102616649.238          50.000  
E36  25180913.560   132326555.563          50.000    25180918.460    98815271.145          50.000  
> 2020  7  8 23 26  2.0000000  0 16       0.000000000000
G10  21931491.060   115250718.828          50.000    21931490.820    86063849.355          50.000  
G13  23917992.500   125689946.996          50.000                                                  
G15  21830745.540   114721162.805          50.000                                                  
G16  23165272.880   121734336.223          50.000                                                  
G20  20207145.840   106189273.539          50.000                                                  
G21  22083800.360   116051178.988          50.000                                                  
G26  23250947.040   122184460.578          50.000    23250948.700    91241633.391          50.000  
G27  23678816.980   124432974.461          50.000    23678818.320    92920727.863          50.000  
G29  22738045.400   119489221.563          50.000                                                  
E 3  25859857.380   135894435.188          50.000    25859862.180   101479597.391          50.000  
E 5  24013343.600   126190947.289          50.000    24013347.580    94233488.918          50.000  
E 9  24243480.000   127400329.363          50.000    24243483.820    95136599.898          50.000  
E15  25819439.880   135682037.793          50.000    25819445.040   101320989.410          50.000  
E27  27495522.820   144489905.695          50.000    27495527.980   107898289.465          50.000  
E30  26150064.980   137419467.957          50.000    26150070.440   102618414.219          50.000  
E36  25181193.600   132328027.188          50.000    25181198.500    98816370.086          50.000  
> 2020  7  8 23 26  3.0000000  0 16       0.000000000000
G10  21931079.800   115248557.621          50.000    21931079.540    86062235.469          50.000  
G13  23918347.060   125691810.203          50.000                                                  
G15  21830935.260   114722159.781          50.000                                                  
G16  23165318.500   121734575.902          50.000                                                  
G20  20207053.320   106188787.352          50.000                                                  
G21  22083528.420   116049749.883          50.000                                                  
G26  23251335.700   122186502.992          50.000    23251337.360    91243158.566          50.000  
G27  23678200.440   124429734.473          50.000    23678201.780    92918308.395          50.000  
G29  22738654.020   119492419.891          50.000                                                  
E 3  25859313.780   135891578.559          50.000    25859318.580   101477464.191          50.000  
E 5  24013206.760   126190228.164          50.000    24013210.740    94232951.910          50.000  
E 9  24243836.320   127402201.773          50.000    24243840.120    95137998.129          50.000  
E15  25819055.420   135680017.512          50.000    25819060.600   101319480.758          50.000  
E27  27495653.760   144490593.867          50.000    27495658.940   107898803.355          50.000  
E30  26150514.780   137421831.621          50.000    26150520.220   102620179.293          50.000  
E36  25181473.680   132329498.977          50.000    25181478.580    98817469.148          50.000  
> 2020  7  8 23 26  4.0000000  0 16       0.000000000000
G10  21930668.600   115246396.777          50.000    21930668.360    86060621.852          50.000  
G13  23918701.720   125693673.953          50.000                                                  
G15  21831125.120   114723157.438          50.000                                                  
G16  23165364.220   121734816.207          50.000                                                  
G20  20206960.880   106188301.605          50.000                                                  
G21  22083256.480   116048320.867          50.000                                                  
G26  23251724.420   122188545.754          50.000    23251726.080    91244684.004          50.000  
G27  23677583.920   124426494.711          50.000    23677585.280    92915889.094          50.000  
G29  22739262.700   119495618.535          50.000                                                  
E 3  25858770.220   135888722.105          50.000    25858775.000   101475331.125          50.000  
E 5  24013070.000   126189509.500          50.000    24013073.980    94232415.242          50.000  
E 9  24244192.680   127404074.539          50.000    24244196.500    95139396.621          50.000  
E15  25818670.980   135677997.223          50.000    25818676.140   101317972.102          50.000  
E27  27495784.800   144491282.453          50.000    27495789.960   107899317.559          50.000  
E30  26150964.580   137424195.406          50.000    26150970.040   102621944.453          50.000  
E36  25181753.780   132330970.926          50.000    25181758.680    98818568.332          50.000  
> 2020  7  8 23 26  5.0000000  0 16       0.000000000000
G10  21930257.480   115244236.309          50.000    21930257.220    86059008.516          50.000  
G13  23919056.480   125695538.273          50.000                                                  
G15  21831315.080   114724155.770          50.000                                                  
G16  23165410.060   121735057.133          50.000                                                  
G20  20206868.540   106187816.289          50.000                                                  
G21  22082984.560   116046891.945          50.000                                                  
G26  23252113.220   122190588.867          50.000    23252114.880    91246209.703          50.000  
G27  23676967.460   124423255.156          50.000    23676968.800    92913469.945          50.000  
G29  22739871.460   119498817.504          50.000                                                  
E 3  25858226.680   135885865.828          50.000    25858231.480   101473198.195          50.000  
E 5  24012933.320   126188791.293          50.000    24012937.320    94231878.918          50.000  
E 9  24244549.120   127405947.629          50.000    24244552.940    95140795.355          50.000  
E15  25818286.540   135675976.938          50.000    25818291.700   101316463.445          50.000  
E27  27495915.920   144491971.477          50.000    27495921.080   107899832.086          50.000  
E30  26151414.440   137426559.332          50.000    26151419.880   102623709.723          50.000  
E36  25182033.920   132332443.043          50.000    25182038.820    98819667.637          50.000  
> 2020  7  8 23 26  6.0000000  0 16       0.000000000000
G10  21929846.420   115242076.215          50.000    21929846.180    86057395.457          50.000  
G13  23919411.360   125697403.156          50.000                                                  
G15  21831505.200   114725154.781          50.000                                                  
G16  23165456.040   121735298.691          50.000                                                  
G20  20206776.260   106187331.414          50.000                                                  
G21  22082712.660   116045463.105          50.000                                                  
G26  23252502.080   122192632.340          50.000    23252503.740    91247735.672          50.000  
G27  23676351.020   124420015.816          50.000    23676352.380    92911050.961          50.000  
G29  22740480.260   119502016.777          50.000                                                  
E 3  25857683.180   135883009.719          50.000    25857687.980   101471065.387          50.000  
E 5  24012796.740   126188073.531          50.000    24012800.720    94231342.930          50.000  
E 9  24244905.640   127407821.070          50.000    24244909.440    95142194.352          50.000  
E15  25817902.080   135673956.648          50.000    25817907.260   101314954.789          50.000  
E27  27496047.120   144492660.918          50.000    27496052.280   107900346.930          50.000  
E30  26151864.300   137428923.363          50.000    26151869.740   102625475.066          50.000  
E36  25182314.080   132333915.332          50.000    25182318.980    98820767.074          50.000  
> 2020  7  8 23 26  7.0000000  0 16       0.000000000000
G10  21929435.440   115239916.477          50.000    21929435.200    86055782.668          50.000  
G13  23919766.340   125699268.594          50.000                                                  
G15  21831695.440   114726154.473          50.000                                                  
G16  23165502.120   121735540.871          50.000                                                  
G20  20206684.080   106186846.969          50.000                                                  
G21  22082440.780   116044034.355          50.000                                                  
G26  23252891.000   122194676.156          50.000    23252892.660    91249261.898          50.000  
G27  23675734.640   124416776.695          50.000    23675736.000    92908632.137          50.000  
G29  22741089.120   119505216.375          50.000                                                  
E 3  25857139.720   135880153.785          50.000    25857144.520   101468932.707          50.000  
E 5  24012660.240   126187356.230          50.000    24012664.240    94230807.285          50.000  
E 9  24245262.200   127409694.848          50.000    24245266.000    95143593.602          50.000  
E15  25817517.640   135671936.352          50.000    25817522.800   101313446.129          50.000  
E27  27496178.400   144493350.777          50.000    27496183.560   107900862.086          50.000  
E30  26152314.180   137431287.531          50.000    26152319.640   102627240.516          50.000  
E36  25182594.280   132335387.781          50.000    25182599.180    98821866.629          50.000  
> 2020  7  8 23 26  8.0000000  0 16       0.000000000000
G10  21929024.520   115237757.105          50.000    21929024.280    86054170.152          50.000  
G13  23920121.440   125701134.590          50.000                                                  
G15  21831885.800   114727154.855          50.000                                                  
G16  23165548.320   121735783.676          50.000                                                  
G20  20206591.960   106186362.949          50.000                                                  
G21  22082168.920   116042605.691          50.000                                                  
G26  23253280.000   122196720.313          50.000    23253281.660    91250788.375          50.000  
G27  23675118.300   124413537.777          50.000    23675119.640    92906213.465          50.000  
G29  22741698.040   119508416.285          50.000                                                  
E 3  25856596.280   135877298.023          50.000    25856601.080   101466800.160          50.000  
E 5  24012523.840   126186639.387          50.000    24012527.820    94230271.977          50.000  
E 9  24245618.840   127411568.965          50.000    24245622.640    95144993.105          50.000  
E15  25817133.180   135669916.039          50.000    25817138.340   101311937.453          50.000  
E27  27496309.740   144494041.055          50.000    27496314.920   107901377.551          50.000  
E30  26152764.100   137433651.832          50.000    26152769.540   102629006.066          50.000  
E36  25182874.520   132336860.402          50.000    25182879.400    98822966.313          50.000  
> 2020  7  8 23 26  9.0000000  0 16       0.000000000000
G10  21928613.680   115235598.090          50.000    21928613.420    86052557.902          50.000  
G13  23920476.620   125703001.137          50.000                                                  
G15  21832076.300   114728155.906          50.000                                                  
G16  23165594.640   121736027.102          50.000                                                  
G20  20206499.940   106185879.363          50.000                                                  
G21  22081897.080   116041177.117          50.000                                                  
G26  23253669.060   122198764.832          50.000    23253670.720    91252315.125          50.000  
G27  23674502.000   124410299.094          50.000    23674503.340    92903794.969          50.000  
G29  22742307.020   119511616.504          50.000                                                  
E 3  25856052.880   135874442.422          50.000    25856057.680   101464667.730          50.000  
E 5  24012387.500   126185922.996          50.000    24012391.500    94229737.008          50.000  
E 9  24245975.520   127413443.418          50.000    24245979.340    95146392.855          50.000  
E15  25816748.720   135667895.738          50.000    25816753.900   101310428.785          50.000  
E27  27496441.180   144494731.750          50.000    27496446.360   107901893.328          50.000  
E30  26153214.020   137436016.250          50.000    26153219.480   102630771.703          50.000  
E36  25183154.780   132338333.168          50.000    25183159.660    98824066.105          50.000  
> 2020  7  8 23 26 10.0000000  0 16       0.000000000000
G10  21928202.900   115233439.449          50.000    21928202.660    86050945.926          50.000  
G13  23920831.920   125704868.238          50.000                                                  
G15  21832266.920   114729157.633          50.000                                                  
G16  23165641.080   121736271.152          50.000                                                  
G20  20206408.000   106185396.211          50.000                                                  
G21  22081625.240   116039748.629          50.000                                                  
G26  23254058.180   122200809.699          50.000    23254059.840    91253842.137          50.000  
G27  23673885.740   124407060.621          50.000    23673887.080    92901376.633          50.000  
G29  22742916.060   119514817.039          50.000                                                  
E 3  25855509.520   135871587.008          50.000    25855514.300   101462535.441          50.000  
E 5  24012251.260   126185207.066          50.000    24012255.260    94229202.387          50.000  
E 9  24246332.300   127415318.223          50.000    24246336.100    95147792.871          50.000  
E15  25816364.280   135665875.434          50.000    25816369.440   101308920.117          50.000  
E27  27496572.700   144495422.883          50.000    27496577.880   107902409.434          50.000  
E30  26153663.980   137438380.797          50.000    26153669.440   102632537.434          50.000  
E36  25183435.060   132339806.113          50.000    25183439.960    98825166.031          50.000  
> 2020  7  8 23 26 11.0000000  0 16       0.000000000000
G10  21927792.200   115231281.191          50.000    21927791.940    86049334.246          50.000  
G13  23921187.340   125706735.828          50.000                                                  
G15  21832457.640   114730160.172          50.000                                                  
G16  23165687.660   121736515.793          50.000                                                  
G20  20206316.140   106184913.551          50.000                                                  
G21  22081353.400   116038320.352          50.000                                                  
G26  23254447.400   122202854.797          50.000    23254449.080    91255369.254          50.000  
G27  23673269.520   124403822.359          50.000    23673270.860    92898958.449          50.000  
G29  22743525.180   119518017.871          50.000                                                  
E 3  25854966.180   135868731.832          50.000    25854970.960   101460403.359          50.000  
E 5  24012115.100   126184491.641          50.000    24012119.080    94228668.180          50.000  
E 9  24246689.120   127417193.363          50.000    24246692.920    95149193.141          50.000  
E15  25815979.820   135663855.180          50.000    25815984.980   101307411.523          50.000  
E27  27496704.320   144496114.313          50.000    27496709.500   107902925.691          50.000  
E30  26154113.980   137440745.328          50.000    26154119.460   102634303.082          50.000  
E36  25183715.380   132341279.215          50.000    25183720.280    98826266.070          50.000  
> 2020  7  8 23 26 12.0000000  0 16       0.000000000000
G10  21927381.560   115229123.281          50.000    21927381.320    86047722.820          50.000  
G13  23921542.860   125708604.059          50.000                                                  
G15  21832648.520   114731163.266          50.000                                                  
G16  23165734.340   121736761.102          50.000                                                  
G20  20206224.360   106184431.266          50.000                                                  
G21  22081081.600   116036892.035          50.000                                                  
G26  23254836.660   122204900.355          50.000    23254838.340    91256896.781          50.000  
G27  23672653.340   124400584.305          50.000    23672654.680    92896540.418          50.000  
G29  22744134.340   119521219.047          50.000                                                  
E 3  25854422.880   135865876.750          50.000    25854427.660   101458271.320          50.000  
E 5  24011979.040   126183776.617          50.000    24011983.020    94228134.230          50.000  
E 9  24247046.020   127419068.832          50.000    24247049.820    95150593.652          50.000  
E15  25815595.360   135661834.859          50.000    25815600.520   101305902.844          50.000  
E27  27496836.000   144496806.273          50.000    27496841.180   107903442.414          50.000  
E30  26154564.000   137443110.121          50.000    26154569.480   102636068.992          50.000  
E36  25183995.740   132342752.484          50.000    25184000.640    98827366.238          50.000  
> 2020  7  8 23 26 13.0000000  0 16       0.000000000000
G10  21926971.000   115226965.742          50.000    21926970.740    86046111.672          50.000  
G13  23921898.480   125710472.852          50.000                                                  
G15  21832839.540   114732167.031          50.000                                                  
G16  23165781.140   121737007.027          50.000                                                  
G20  20206132.660   106183949.402          50.000                                                  
G21  22080809.820   116035463.816          50.000                                                  
G26  23255225.980   122206946.277          50.000    23255227.660    91258424.578          50.000  
G27  23672037.200   124397346.480          50.000    23672038.540    92894122.566          50.000  
G29  22744743.560   119524420.527          50.000                                                  
E 3  25853879.600   135863021.848          50.000    25853884.380   101456139.410          50.000  
E 5  24011843.060   126183062.043          50.000    24011847.040    94227600.621          50.000  
E 9  24247402.980   127420944.652          50.000    24247406.780    95151994.426          50.000  
E15  25815210.920   135659814.539          50.000    25815216.080   101304394.160          50.000  
E27  27496967.760   144497498.660          50.000    27496972.940   107903959.457          50.000  
E30  26155014.020   137445475.039          50.000    26155019.500   102637835.004          50.000  
E36  25184276.140   132344225.910          50.000    25184281.040    98828466.523          50.000  
> 2020  7  8 23 26 14.0000000  0 16       0.000000000000
G10  21926560.500   115224808.570          50.000    21926560.260    86044500.797          50.000  
G13  23922254.220   125712342.195          50.000                                                  
G15  21833030.680   114733171.488          50.000                                                  
G16  23165828.060   121737253.578          50.000                                                  
G20  20206041.060   106183467.980          50.000                                                  
G21  22080538.060   116034035.684          50.000                                                  
G26  23255615.380   122208992.535          50.000    23255617.060    91259952.625          50.000  
G27  23671421.100   124394108.852          50.000    23671422.440    92891704.855          50.000  
G29  22745352.860   119527622.336          50.000                                                  
E 3  25853336.380   135860167.141          50.000    25853341.160   101454007.648          50.000  
E 5  24011707.180   126182347.926          50.000    24011711.160    94227067.352          50.000  
E 9  24247760.000   127422820.813          50.000    24247763.800    95153395.453          50.000  
E15  25814826.460   135657794.207          50.000    25814831.620   101302885.473          50.000  
E27  27497099.600   144498191.473          50.000    27497104.780   107904476.813          50.000  
E30  26155464.080   137447840.070          50.000    26155469.560   102639601.098          50.000  
E36  25184556.560   132345699.523          50.000    25184561.460    98829566.945          50.000  
> 2020  7  8 23 26 15.0000000  0 16       0.000000000000
G10  21926150.080   115222651.762          50.000    21926149.820    86042890.195          50.000  
G13  23922610.040   125714212.102          50.000                                                  
G15  21833221.960   114734176.609          50.000                                                  
G16  23165875.100   121737500.758          50.000                                                  
G20  20205949.540   106182986.996          50.000                                                  
G21  22080266.320   116032607.633          50.000                                                  
G26  23256004.840   122211039.145          50.000    23256006.520    91261480.934          50.000  
G27  23670805.040   124390871.445          50.000    23670806.380    92889287.316          50.000  
G29  22745962.200   119530824.453          50.000                                                  
E 3  25852793.180   135857312.590          50.000    25852797.960   101451876.004          50.000  
E 5  24011571.380   126181634.262          50.000    24011575.360    94226534.422          50.000  
E 9  24248117.080   127424697.309          50.000    24248120.900    95154796.730          50.000  
E15  25814442.000   135655773.883          50.000    25814447.160   101301376.789          50.000  
E27  27497231.520   144498884.699          50.000    27497236.700   107904994.480          50.000  
E30  26155914.160   137450205.250          50.000    26155919.640   102641367.301          50.000  
E36  25184837.000   132347173.293          50.000    25184841.900    98830667.488          50.000  
> 2020  7  8 23 26 16.0000000  0 16       0.000000000000
G10  21925739.720   115220495.328          50.000    21925739.480    86041279.867          50.000  
G13  23922965.980   125716082.563          50.000                                                  
G15  21833413.360   114735182.426          50.000                                                  
G16  23165922.260   121737748.555          50.000                                                  
G20  20205858.080   106182506.438          50.000                                                  
G21  22079994.580   116031179.672          50.000                                                  
G26  23256394.360   122213086.113          50.000    23256396.040    91263009.512          50.000  
G27  23670189.040   124387634.273          50.000    23670190.380    92886869.945          50.000  
G29  22746571.600   119534026.883          50.000                                                  
E 3  25852250.000   135854458.219          50.000    25852254.780   101449744.496          50.000  
E 5  24011435.660   126180921.055          50.000    24011439.640    94226001.832          50.000  
E 9  24248474.240   127426574.148          50.000    24248478.040    95156198.266          50.000  
E15  25814057.560   135653753.559          50.000    25814062.720   101299868.102          50.000  
E27  27497363.520   144499578.355          50.000    27497368.720   107905512.473          50.000  
E30  26156364.260   137452570.535          50.000    26156369.740   102643133.586          50.000  
E36  25185117.480   132348647.215          50.000    25185122.380    98831768.145          50.000  
> 2020  7  8 23 26 17.0000000  0 16       0.000000000000
G10  21925329.440   115218339.258          50.000    21925329.180    86039669.816          50.000  
G13  23923322.040   125717953.590          50.000                                                  
G15  21833604.900   114736188.918          50.000                                                  
G16  23165969.540   121737996.980          50.000                                                  
G20  20205766.720   106182026.309          50.000                                                  
G21  22079722.880   116029751.805          50.000                                                  
G26  23256783.960   122215133.418          50.000    23256785.640    91264538.344          50.000  
G27  23669573.060   124384397.293          50.000    23669574.400    92884452.723          50.000  
G29  22747181.060   119537229.625          50.000                                                  
E 3  25851706.880   135851604.016          50.000    25851711.660   101447613.113          50.000  
E 5  24011300.020   126180208.309          50.000    24011304.000    94225469.586          50.000  
E 9  24248831.460   127428451.328          50.000    24248835.260    95157600.059          50.000  
E15  25813673.100   135651733.215          50.000    25813678.260   101298359.406          50.000  
E27  27497495.600   144500272.438          50.000    27497500.800   107906030.777          50.000  
E30  26156814.400   137454935.949          50.000    26156819.860   102644899.965          50.000  
E36  25185398.000   132350121.316          50.000    25185402.900    98832868.934          50.000  
> 2020  7  8 23 26 18.0000000  0 16       0.000000000000
G10  21924919.220   115216183.555          50.000    21924918.980    86038060.039          50.000  
G13  23923678.180   125719825.176          50.000                                                  
G15  21833796.560   114737196.082          50.000                                                  
G16  23166016.940   121738246.035          50.000                                                  
G20  20205675.440   106181546.609          50.000                                                  
G21  22079451.180   116028324.016          50.000                                                  
G26  23257173.620   122217181.074          50.000    23257175.300    91266067.438          50.000  
G27  23668957.120   124381160.535          50.000    23668958.460    92882035.660          50.000  
G29  22747790.600   119540432.688          50.000                                                  
E 3  25851163.760   135848749.984          50.000    25851168.540   101445481.855          50.000  
E 5  24011164.480   126179496.012          50.000    24011168.460    94224937.676          50.000  
E 9  24249188.740   127430328.852          50.000    24249192.540    95159002.102          50.000  
E15  25813288.640   135649712.879          50.000    25813293.800   101296850.715          50.000  
E27  27497627.760   144500966.938          50.000    27497632.960   107906549.398          50.000  
E30  26157264.540   137457301.496          50.000    26157270.020   102646666.441          50.000  
E36  25185678.540   132351595.586          50.000    25185683.440    98833969.848          50.000  
> 2020  7  8 23 26 19.0000000  0 16       0.000000000000
G10  21924509.080   115214028.215          50.000    21924508.820    86036450.531          50.000  
G13  23924034.440   125721697.316          50.000                                                  
G15  21833988.340   114738203.934          50.000                                                  
G16  23166064.440   121738495.711          50.000                                                  
G20  20205584.240   106181067.344          50.000                                                  
G21  22079179.500   116026896.320          50.000                                                  
G26  23257563.340   122219229.086          50.000    23257565.020    91267596.793          50.000  
G27  23668341.240   124377924.000          50.000    23668342.580    92879618.770          50.000  
G29  22748400.180   119543636.066          50.000                                                  
E 3  25850620.700   135845896.137          50.000    25850625.480   101443350.734          50.000  
E 5  24011029.020   126178784.168          50.000    24011033.000    94224406.102          50.000  
E 9  24249546.080   127432206.707          50.000    24249549.900    95160404.398          50.000  
E15  25812904.180   135647692.531          50.000    25812909.340   101295342.016          50.000  
E27  27497760.000   144501661.852          50.000    27497765.200   107907068.324          50.000  
E30  26157714.720   137459667.160          50.000    26157720.200   102648433.008          50.000  
E36  25185959.120   132353070.004          50.000    25185964.020    98835070.875          50.000  
> 2020  7  8 23 26 20.0000000  0 16       0.000000000000
G10  21924099.000   115211873.250          50.000    21924098.760    86034841.305          50.000  
G13  23924390.820   125723570.027          50.000                                                  
G15  21834180.260   114739212.461          50.000                                                  
G16  23166112.080   121738746.016          50.000                                                  
G20  20205493.120   106180588.512          50.000                                                  
G21  22078907.840   116025468.715          50.000                                                  
G26  23257953.140   122221277.453          50.000    23257954.820    91269126.418          50.000  
G27  23667725.380   124374687.676          50.000    23667726.720    92877202.035          50.000  
G29  22749009.820   119546839.762          50.000                                                  
E 3  25850077.660   135843042.457          50.000    25850082.440   101441219.742          50.000  
E 5  24010893.660   126178072.793          50.000    24010897.640    94223874.883          50.000  
E 9  24249903.500   127434084.910          50.000    24249907.300    95161806.949          50.000  
E15  25812519.720   135645672.195          50.000    25812524.880   101293833.320          50.000  
E27  27497892.320   144502357.195          50.000    27497897.520   107907587.574          50.000  
E30  26158164.920   137462032.945          50.000    26158170.400   102650199.660          50.000  
E36  25186239.740   132354544.602          50.000    25186244.640    98836172.031          50.000  
> 2020  7  8 23 26 21.0000000  0 16       0.000000000000
G10  21923689.000   115209718.648          50.000    21923688.740    86033232.352          50.000  
G13  23924747.300   125725443.289          50.000                                                  
G15  21834372.300   114740221.672          50.000                                                  
G16  23166159.840   121738996.938          50.000                                                  
G20  20205402.100   106180110.109          50.000                                                  
G21  22078636.180   116024041.195          50.000                                                  
G26  23258343.000   122223326.160          50.000    23258344.680    91270656.293          50.000  
G27  23667109.580   124371451.574          50.000    23667110.920    92874785.465          50.000  
G29  22749619.540   119550043.773          50.000                                                  
E 3  25849534.660   135840188.945          50.000    25849539.440   101439088.871          50.000  
E 5  24010758.380   126177361.855          50.000    24010762.360    94223343.988          50.000  
E 9  24250260.980   127435963.453          50.000    24250264.780    95163209.758          50.000  
E15  25812135.260   135643651.844          50.000    25812140.420   101292324.617          50.000  
E27  27498024.740   144503052.953          50.000    27498029.920   107908107.133          50.000  
E30  26158615.140   137464398.859          50.000    26158620.620   102651966.414          50.000  
E36  25186520.360   132356019.352          50.000    25186525.260    98837273.309          50.000  
> 2020  7  8 23 26 22.0000000  0 16       0.000000000000
G10  21923279.060   115207564.414          50.000    21923278.820    86031623.668          50.000  
G13  23925103.860   125727317.102          50.000                                                  
G15  21834564.480   114741231.563          50.000                                                  
G16  23166207.700   121739248.488          50.000                                                  
G20  20205311.140   106179632.141          50.000                                                  
G21  22078364.560   116022613.758          50.000                                                  
G26  23258732.920   122225375.219          50.000    23258734.600    91272186.434          50.000  
G27  23666493.800   124368215.680          50.000    23666495.140    92872369.051          50.000  
G29  22750229.300   119553248.102          50.000                                                  
E 3  25848991.700   135837335.625          50.000    25848996.480   101436958.148          50.000  
E 5  24010623.180   126176651.391          50.000    24010627.160    94222813.445          50.000  
E 9  24250618.520   127437842.336          50.000    24250622.320    95164612.816          50.000  
E15  25811750.820   135641631.496          50.000    25811755.980   101290815.918          50.000  
E27  27498157.220   144503749.133          50.000    27498162.400   107908627.008          50.000  
E30  26159065.380   137466764.898          50.000    26159070.860   102653733.262          50.000  
E36  25186801.040   132357494.281          50.000    25186805.940    98838374.715          50.000  
> 2020  7  8 23 26 23.0000000  0 16       0.000000000000
G10  21922869.200   115205410.551          50.000    21922868.940    86030015.266          50.000  
G13  23925460.560   125729191.484          50.000                                                  
G15  21834756.800   114742242.129          50.000                                                  
G16  23166255.700   121739500.672          50.000                                                  
G20  20205220.280   106179154.613          50.000                                                  
G21  22078092.940   116021186.406          50.000                                                  
G26  23259122.920   122227424.625          50.000    23259124.600    91273716.832          50.000  
G27  23665878.080   124364979.992          50.000    23665879.420    92869952.793          50.000  
G29  22750839.120   119556452.738          50.000                                                  
E 3  25848448.760   135834482.465          50.000    25848453.540   101434827.539          50.000  
E 5  24010488.060   126175941.375          50.000    24010492.060    94222283.238          50.000  
E 9  24250976.120   127439721.555          50.000    24250979.940    95166016.129          50.000  
E15  25811366.360   135639611.145          50.000    25811371.520   101289307.211          50.000  
E27  27498289.780   144504445.742          50.000    27498294.960   107909147.199          50.000  
E30  26159515.660   137469131.066          50.000    26159521.140   102655500.203          50.000  
E36  25187081.740   132358969.359          50.000    25187086.640    98839476.234          50.000  
> 2020  7  8 23 26 24.0000000  0 16       0.000000000000
G10  21922459.400   115203257.047          50.000    21922459.160    86028407.129          50.000  
G13  23925817.340   125731066.418          50.000                                                  
G15  21834949.220   114743253.383          50.000                                                  
G16  23166303.800   121739753.480          50.000                                                  
G20  20205129.480   106178677.523          50.000                                                  
G21  22077821.340   116019759.152          50.000                                                  
G26  23259512.980   122229474.383          50.000    23259514.660    91275247.496          50.000  
G27  23665262.400   124361744.539          50.000    23665263.740    92867536.707          50.000  
G29  22751449.000   119559657.691          50.000                                                  
E 3  25847905.860   135831629.477          50.000    25847910.640   101432697.063          50.000  
E 5  24010353.040   126175231.816          50.000    24010357.020    94221753.371          50.000  
E 9  24251333.800   127441601.121          50.000    24251337.600    95167419.703          50.000  
E15  25810981.900   135637590.793          50.000    25810987.060   101287798.508          50.000  
E27  27498422.420   144505142.770          50.000    27498427.600   107909667.707          50.000  
E30  26159965.940   137471497.344          50.000    26159971.420   102657267.227          50.000  
E36  25187362.480   132360444.629          50.000    25187367.380    98840577.895          50.000  
> 2020  7  8 23 26 25.0000000  0 16       0.000000000000
G10  21922049.680   115201103.918          50.000    21922049.420    86026799.273          50.000  
G13  23926174.240   125732941.914          50.000                                                  
G15  21835141.800   114744265.309          50.000                                                  
G16  23166352.040   121740006.906          50.000                                                  
G20  20205038.780   106178200.863          50.000                                                  
G21  22077549.760   116018331.973          50.000                                                  
G26  23259903.100   122231524.477          50.000    23259904.780    91276778.410          50.000  
G27  23664646.740   124358509.293          50.000    23664648.080    92865120.777          50.000  
G29  22752058.960   119562862.957          50.000                                                  
E 3  25847362.980   135828776.680          50.000    25847367.760   101430566.727          50.000  
E 5  24010218.120   126174522.711          50.000    24010222.100    94221223.844          50.000  
E 9  24251691.540   127443481.020          50.000    24251695.340    95168823.520          50.000  
E15  25810597.440   135635570.426          50.000    25810602.600   101286289.793          50.000  
E27  27498555.140   144505840.219          50.000    27498560.340   107910188.527          50.000  
E30  26160416.260   137473863.762          50.000    26160421.740   102659034.355          50.000  
E36  25187643.240   132361920.039          50.000    25187648.140    98841679.660          50.000  
> 2020  7  8 23 26 26.0000000  0 16       0.000000000000
G10  21921640.020   115198951.141          50.000    21921639.760    86025191.680          50.000  
G13  23926531.240   125734817.969          50.000                                                  
G15  21835334.500   114745277.926          50.000                                                  
G16  23166400.380   121740260.961          50.000                                                  
G20  20204948.160   106177724.637          50.000                                                  
G21  22077278.200   116016904.875          50.000                                                  
G26  23260293.300   122233574.941          50.000    23260294.980    91278309.598          50.000  
G27  23664031.140   124355274.266          50.000    23664032.480    92862705.012          50.000  
G29  22752668.960   119566068.539          50.000                                                  
E 3  25846820.160   135825924.043          50.000    25846824.940   101428436.512          50.000  
E 5  24010083.260   126173814.063          50.000    24010087.240    94220694.660          50.000  
E 9  24252049.340   127445361.262          50.000    24252053.140    95170227.598          50.000  
E15  25810212.980   135633550.066          50.000    25810218.140   101284781.082          50.000  
E27  27498687.940   144506538.082          50.000    27498693.140   107910709.660          50.000  
E30  26160866.600   137476230.293          50.000    26160872.080   102660801.570          50.000  
E36  25187924.040   132363395.621          50.000    25187928.940    98842781.559          50.000  
> 2020  7  8 23 26 27.0000000  0 16       0.000000000000
G10  21921230.440   115196798.754          50.000    21921230.180    86023584.379          50.000  
G13  23926888.360   125736694.574          50.000                                                  
G15  21835527.320   114746291.207          50.000                                                  
G16  23166448.840   121740515.645          50.000                                                  
G20  20204857.620   106177248.840          50.000                                                  
G21  22077006.660   116015477.883          50.000                                                  
G26  23260683.540   122235625.734          50.000    23260685.220    91279841.031          50.000  
G27  23663415.580   124352039.457          50.000    23663416.920    92860289.406          50.000  
G29  22753279.020   119569274.438          50.000                                                  
E 3  25846277.340   135823071.586          50.000    25846282.120   101426306.434          50.000  
E 5  24009948.500   126173105.867          50.000    24009952.480    94220165.813          50.000  
E 9  24252407.200   127447241.840          50.000    24252411.000    95171631.926          50.000  
E15  25809828.520   135631529.699          50.000    25809833.680   101283272.367          50.000  
E27  27498820.820   144507236.383          50.000    27498826.020   107911231.113          50.000  
E30  26161316.960   137478596.949          50.000    26161322.440   102662568.875          50.000  
E36  25188204.860   132364871.375          50.000    25188209.780    98843883.578          50.000  
> 2020  7  8 23 26 28.0000000  0 16       0.000000000000
G10  21920820.920   115194646.727          50.000    21920820.660    86021977.344          50.000  
G13  23927245.580   125738571.746          50.000                                                  
G15  21835720.260   114747305.176          50.000                                                  
G16  23166497.440   121740770.957          50.000                                                  
G20  20204767.160   106176773.477          50.000                                                  
G21  22076735.120   116014050.969          50.000                                                  
G26  23261073.880   122237676.887          50.000    23261075.560    91281372.734          50.000  
G27  23662800.060   124348804.875          50.000    23662801.400    92857873.977          50.000  
G29  22753889.140   119572480.652          50.000                                                  
E 3  25845734.580   135820219.320          50.000    25845739.360   101424176.492          50.000  
E 5  24009813.820   126172398.133          50.000    24009817.800    94219637.313          50.000  
E 9  24252765.120   127449122.766          50.000    24252768.940    95173036.512          50.000  
E15  25809444.060   135629509.336          50.000    25809449.220   101281763.656          50.000  
E27  27498953.800   144507935.098          50.000    27498958.980   107911752.883          50.000  
E30  26161767.360   137480963.742          50.000    26161772.840   102664336.281          50.000  
E36  25188485.720   132366347.293          50.000    25188490.640    98844985.727          50.000  
> 2020  7  8 23 26 29.0000000  0 16       0.000000000000
G10  21920411.480   115192495.063          50.000    21920411.220    86020370.586          50.000  
G13  23927602.900   125740449.477          50.000                                                  
G15  21835913.360   114748319.824          50.000                                                  
G16  23166546.140   121741026.895          50.000                                                  
G20  20204676.800   106176298.547          50.000                                                  
G21  22076463.600   116012624.141          50.000                                                  
G26  23261464.260   122239728.387          50.000    23261465.940    91282904.699          50.000  
G27  23662184.580   124345570.512          50.000    23662185.920    92855458.703          50.000  
G29  22754499.340   119575687.172          50.000                                                  
E 3  25845191.840   135817367.203          50.000    25845196.620   101422046.668          50.000  
E 5  24009679.240   126171690.852          50.000    24009683.220    94219109.145          50.000  
E 9  24253123.120   127451004.031          50.000    24253126.940    95174441.348          50.000  
E15  25809059.600   135627488.969          50.000    25809064.740   101280254.938          50.000  
E27  27499086.840   144508634.230          50.000    27499092.020   107912274.961          50.000  
E30  26162217.760   137483330.648          50.000    26162223.240   102666103.777          50.000  
E36  25188766.620   132367823.375          50.000    25188771.520    98846087.992          50.000  
> 2020  7  8 23 26 30.0000000  0 16       0.000000000000
G10  21920002.100   115190343.773          50.000    21920001.840    86018764.102          50.000  
G13  23927960.320   125742327.758          50.000                                                  
G15  21836106.560   114749335.148          50.000                                                  
G16  23166594.960   121741283.457          50.000                                                  
G20  20204586.500   106175824.055          50.000                                                  
G21  22076192.120   116011197.402          50.000                                                  
G26  23261854.720   122241780.230          50.000    23261856.400    91284436.918          50.000  
G27  23661569.140   124342336.352          50.000    23661570.480    92853043.586          50.000  
G29  22755109.580   119578894.023          50.000                                                  
E 3  25844649.140   135814515.270          50.000    25844653.920   101419916.977          50.000  
E 5  24009544.740   126170984.020          50.000    24009548.720    94218581.316          50.000  
E 9  24253481.180   127452885.629          50.000    24253485.000    95175846.438          50.000  
E15  25808675.120   135625468.598          50.000    25808680.280   101278746.219          50.000  
E27  27499219.960   144509333.793          50.000    27499225.160   107912797.359          50.000  
E30  26162668.200   137485697.680          50.000    26162673.680   102667871.363          50.000  
E36  25189047.540   132369299.621          50.000    25189052.440    98847190.383          50.000  
> 2020  7  8 23 26 31.0000000  0 16       0.000000000000
G10  21919592.800   115188192.844          50.000    21919592.540    86017157.887          50.000  
G13  23928317.860   125744206.605          50.000                                                  
G15  21836299.900   114750351.156          50.000                                                  
G16  23166643.900   121741540.637          50.000                                                  
G20  20204496.300   106175349.984          50.000                                                  
G21  22075920.640   116009770.758          50.000                                                  
G26  23262245.240   122243832.430          50.000    23262246.920    91285969.402          50.000  
G27  23660953.760   124339102.418          50.000    23660955.100    92850628.637          50.000  
G29  22755719.880   119582101.180          50.000                                                  
E 3  25844106.480   135811663.527          50.000    25844111.260   101417787.426          50.000  
E 5  24009410.320   126170277.648          50.000    24009414.300    94218053.832          50.000  
E 9  24253839.300   127454767.566          50.000    24253843.120    95177251.781          50.000  
E15  25808290.660   135623448.219          50.000    25808295.820   101277237.496          50.000  
E27  27499353.160   144510033.762          50.000    27499358.360   107913320.063          50.000  
E30  26163118.660   137488064.836          50.000    26163124.140   102669639.043          50.000  
E36  25189328.500   132370776.027          50.000    25189333.400    98848292.895          50.000  
> 2020  7  8 23 26 32.0000000  0 16       0.000000000000
G10  21919183.560   115186042.277          50.000    21919183.300    86015551.945          50.000  
G13  23928675.500   125746086.004          50.000                                                  
G15  21836493.380   114751367.848          50.000                                                  
G16  23166692.960   121741798.445          50.000                                                  
G20  20204406.160   106174876.352          50.000                                                  
G21  22075649.160   116008344.191          50.000                                                  
G26  23262635.820   122245884.973          50.000    23262637.520    91287502.145          50.000  
G27  23660338.400   124335868.695          50.000    23660339.740    92848213.844          50.000  
G29  22756330.240   119585308.648          50.000                                                  
E 3  25843563.840   135808811.934          50.000    25843568.620   101415657.992          50.000  
E 5  24009275.980   126169571.738          50.000    24009279.960    94217526.691          50.000  
E 9  24254197.500   127456649.848          50.000    24254201.300    95178657.379          50.000  
E15  25807906.200   135621427.840          50.000    25807911.360   101275728.773          50.000  
E27  27499486.440   144510734.156          50.000    27499491.640   107913843.082          50.000  
E30  26163569.140   137490432.113          50.000    26163574.620   102671406.813          50.000  
E36  25189609.480   132372252.605          50.000    25189614.380    98849395.531          50.000  
> 2020  7  8 23 26 33.0000000  0 16       0.000000000000
G10  21918774.380   115183892.078          50.000    21918774.140    86013946.277          50.000  
G13  23929033.240   125747965.969          50.000                                                  
G15  21836686.980   114752385.207          50.000                                                  
G16  23166742.140   121742056.875          50.000                                                  
G20  20204316.120   106174403.148          50.000                                                  
G21  22075377.720   116006917.715          50.000                                                  
G26  23263026.480   122247937.852          50.000    23263028.160    91289035.141          50.000  
G27  23659723.080   124332635.188          50.000    23659724.420    92845799.215          50.000  
G29  22756940.660   119588516.430          50.000                                                  
E 3  25843021.240   135805960.531          50.000    25843026.020   101413528.699          50.000  
E 5  24009141.740   126168866.277          50.000    24009145.720    94216999.887          50.000  
E 9  24254555.760   127458532.469          50.000    24254559.560    95180063.234          50.000  
E15  25807521.740   135619407.453          50.000    25807526.900   101274220.043          50.000  
E27  27499619.800   144511434.977          50.000    27499625.000   107914366.422          50.000  
E30  26164019.640   137492799.523          50.000    26164025.120   102673174.684          50.000  
E36  25189890.500   132373729.359          50.000    25189895.400    98850498.301          50.000  
> 2020  7  8 23 26 34.0000000  0 16       0.000000000000
G10  21918365.300   115181742.262          50.000    21918365.040    86012340.895          50.000  
G13  23929391.100   125749846.484          50.000                                                  
G15  21836880.700   114753403.246          50.000                                                  
G16  23166791.440   121742315.938          50.000                                                  
G20  20204226.160   106173930.383          50.000                                                  
G21  22075106.280   116005491.324          50.000                                                  
G26  23263417.200   122249991.109          50.000    23263418.900    91290568.414          50.000  
G27  23659107.820   124329401.910          50.000    23659109.160    92843384.750          50.000  
G29  22757551.160   119591724.531          50.000                                                  
E 3  25842478.660   135803109.297          50.000    25842483.440   101411399.531          50.000  
E 5  24009007.580   126168161.273          50.000    24009011.560    94216473.422          50.000  
E 9  24254914.060   127460415.426          50.000    24254917.880    95181469.336          50.000  
E15  25807137.280   135617387.074          50.000    25807142.440   101272711.320          50.000  
E27  27499753.260   144512136.215          50.000    27499758.440   107914890.074          50.000  
E30  26164470.160   137495167.051          50.000    26164475.660   102674942.641          50.000  
E36  25190171.560   132375206.270          50.000    25190176.460    98851601.188          50.000  
> 2020  7  8 23 26 35.0000000  0 16       0.000000000000
G10  21917956.260   115179592.809          50.000    21917956.020    86010735.785          50.000  
G13  23929749.060   125751727.566          50.000                                                  
G15  21837074.560   114754421.961          50.000                                                  
G16  23166840.860   121742575.617          50.000                                                  
G20  20204136.280   106173458.055          50.000                                                  
G21  22074834.880   116004065.027          50.000                                                  
G26  23263808.000   122252044.680          50.000    23263809.680    91292101.922          50.000  
G27  23658492.580   124326168.836          50.000    23658493.920    92840970.445          50.000  
G29  22758161.700   119594932.934          50.000                                                  
E 3  25841936.120   135800258.242          50.000    25841940.900   101409270.496          50.000  
E 5  24008873.520   126167456.723          50.000    24008877.500    94215947.293          50.000  
E 9  24255272.440   127462298.723          50.000    24255276.260    95182875.691          50.000  
E15  25806752.800   135615366.691          50.000    25806757.960   101271202.590          50.000  
E27  27499886.780   144512837.879          50.000    27499891.980   107915414.039          50.000  
E30  26164920.720   137497534.695          50.000    26164926.200   102676710.684          50.000  
E36  25190452.640   132376683.336          50.000    25190457.540    98852704.195          50.000  
> 2020  7  8 23 26 36.0000000  0 16       0.000000000000
G10  21917547.320   115177443.715          50.000    21917547.060    86009130.941          50.000  
G13  23930107.120   125753609.207          50.000                                                  
G15  21837268.560   114755441.363          50.000                                                  
G16  23166890.400   121742835.922          50.000                                                  
G20  20204046.480   106172986.141          50.000                                                  
G21  22074563.480   116002638.824          50.000                                                  
G26  23264198.840   122254098.621          50.000    23264200.540    91293635.707          50.000  
G27  23657877.380   124322935.984          50.000    23657878.720    92838556.305          50.000  
G29  22758772.300   119598141.672          50.000                                                  
E 3  25841393.620   135797407.363          50.000    25841398.400   101407141.594          50.000  
E 5  24008739.540   126166752.637          50.000    24008743.520    94215421.516          50.000  
E 9  24255630.900   127464182.359          50.000    24255634.700    95184282.305          50.000  
E15  25806368.340   135613346.305          50.000    25806373.500   101269693.859          50.000  
E27  27500020.380   144513539.953          50.000    27500025.580   107915938.316          50.000  
E30  26165371.300   137499902.477          50.000    26165376.780   102678478.832          50.000  
E36  25190733.740   132378160.574          50.000    25190738.640    98853807.324          50.000  
> 2020  7  8 23 26 37.0000000  0 16       0.000000000000
G10  21917138.420   115175294.980          50.000    21917138.160    86007526.371          50.000  
G13  23930465.300   125755491.406          50.000                                                  
G15  21837462.680   114756461.449          50.000                                                  
G16  23166940.060   121743096.840          50.000                                                  
G20  20203956.760   106172514.668          50.000                                                  
G21  22074292.100   116001212.695          50.000                                                  
G26  23264589.760   122256152.891          50.000    23264591.440    91295169.738          50.000  
G27  23657262.240   124319703.359          50.000    23657263.580    92836142.332          50.000  
G29  22759382.960   119601350.707          50.000                                                  
E 3  25840851.160   135794556.660          50.000    25840855.940   101405012.820          50.000  
E 5  24008605.640   126166048.992          50.000    24008609.620    94214896.066          50.000  
E 9  24255989.400   127466066.340          50.000    24255993.220    95185689.172          50.000  
E15  25805983.880   135611325.906          50.000    25805989.040   101268185.121          50.000  
E27  27500154.060   144514242.457          50.000    27500159.260   107916462.914          50.000  
E30  26165821.900   137502270.371          50.000    26165827.380   102680247.063          50.000  
E36  25191014.880   132379637.980          50.000    25191019.780    98854910.582          50.000  
> 2020  7  8 23 26 38.0000000  0 16       0.000000000000
G10  21916729.600   115173146.633          50.000    21916729.360    86005922.082          50.000  
G13  23930823.580   125757374.156          50.000                                                  
G15  21837656.920   114757482.215          50.000                                                  
G16  23166989.820   121743358.391          50.000                                                  
G20  20203867.120   106172043.621          50.000                                                  
G21  22074020.740   115999786.664          50.000                                                  
G26  23264980.760   122258207.523          50.000    23264982.440    91296704.043          50.000  
G27  23656647.140   124316470.941          50.000    23656648.480    92833728.516          50.000  
G29  22759993.680   119604560.066          50.000                                                  
E 3  25840308.720   135791706.129          50.000    25840313.500   101402884.180          50.000  
E 5  24008471.840   126165345.816          50.000    24008475.820    94214370.969          50.000  
E 9  24256347.980   127467950.656          50.000    24256351.800    95187096.289          50.000  
E15  25805599.420   135609305.516          50.000    25805604.560   101266676.387          50.000  
E27  27500287.840   144514945.383          50.000    27500293.020   107916987.824          50.000  
E30  26166272.520   137504638.395          50.000    26166278.000   102682015.391          50.000  
E36  25191296.060   132381115.555          50.000    25191300.960    98856013.965          50.000  
> 2020  7  8 23 26 39.0000000  0 16       0.000000000000
G10  21916320.860   115170998.652          50.000    21916320.600    86004318.070          50.000  
G13  23931181.960   125759257.469          50.000                                                  
G15  21837851.300   114758503.660          50.000                                                  
G16  23167039.720   121743620.570          50.000                                                  
G20  20203777.580   106171573.020          50.000                                                  
G21  22073749.400   115998360.719          50.000                                                  
G26  23265371.800   122260262.496          50.000    23265373.480    91298238.598          50.000  
G27  23656032.080   124313238.750          50.000    23656033.420    92831314.863          50.000  
G29  22760604.460   119607769.730          50.000                                                  
E 3  25839766.320   135788855.770          50.000    25839771.100   101400755.664          50.000  
E 5  24008338.120   126164643.098          50.000    24008342.100    94213846.211          50.000  
E 9  24256706.620   127469835.316          50.000    24256710.440    95188503.664          50.000  
E15  25805214.940   135607285.121          50.000    25805220.100   101265167.652          50.000  
E27  27500421.680   144515648.734          50.000    27500426.880   107917513.055          50.000  
E30  26166723.160   137507006.535          50.000    26166728.640   102683783.805          50.000  
E36  25191577.260   132382593.293          50.000    25191582.180    98857117.469          50.000  
> 2020  7  8 23 26 40.0000000  0 16       0.000000000000
G10  21915912.180   115168851.027          50.000    21915911.940    86002714.328          50.000  
G13  23931540.460   125761141.324          50.000                                                  
G15  21838045.800   114759525.781          50.000                                                  
G16  23167089.740   121743883.371          50.000                                                  
G20  20203688.100   106171102.844          50.000                                                  
G21  22073478.060   115996934.855          50.000                                                  
G26  23265762.920   122262317.820          50.000    23265764.600    91299773.414          50.000  
G27  23655417.040   124310006.770          50.000    23655418.380    92828901.375          50.000  
G29  22761215.320   119610979.711          50.000                                                  
E 3  25839223.940   135786005.586          50.000    25839228.720   101398627.281          50.000  
E 5  24008204.480   126163940.828          50.000    24008208.460    94213321.789          50.000  
E 9  24257065.340   127471720.309          50.000    24257069.140    95189911.289          50.000  
E15  25804830.480   135605264.715          50.000    25804835.640   101263658.906          50.000  
E27  27500555.600   144516352.512          50.000    27500560.800   107918038.602          50.000  
E30  26167173.840   137509374.809          50.000    26167179.320   102685552.320          50.000  
E36  25191858.500   132384071.199          50.000    25191863.420    98858221.098          50.000  
> 2020  7  8 23 26 41.0000000  0 16       0.000000000000
G10  21915503.580   115166703.777          50.000    21915503.320    86001110.863          50.000  
G13  23931899.060   125763025.754          50.000                                                  
G15  21838240.440   114760548.586          50.000                                                  
G16  23167139.860   121744146.801          50.000                                                  
G20  20203598.720   106170633.102          50.000                                                  
G21  22073206.740   115995509.082          50.000                                                  
G26  23266154.100   122264373.492          50.000    23266155.800    91301308.492          50.000  
G27  23654802.060   124306775.012          50.000    23654803.400    92826488.047          50.000  
G29  22761826.220   119614190.004          50.000                                                  
E 3  25838681.620   135783155.594          50.000    25838686.380   101396499.039          50.000  
E 5  24008070.940   126163239.027          50.000    24008074.920    94212797.715          50.000  
E 9  24257424.100   127473605.652          50.000    24257427.920    95191319.176          50.000  
E15  25804446.000   135603244.316          50.000    25804451.160   101262150.168          50.000  
E27  27500689.600   144517056.703          50.000    27500694.800   107918564.453          50.000  
E30  26167624.520   137511743.195          50.000    26167630.020   102687320.918          50.000  
E36  25192139.780   132385549.273          50.000    25192144.680    98859324.855          50.000  
> 2020  7  8 23 26 42.0000000  0 16       0.000000000000
G10  21915095.040   115164556.883          50.000    21915094.780    85999507.660          50.000  
G13  23932257.760   125764910.730          50.000                                                  
G15  21838435.200   114761572.063          50.000                                                  
G16  23167190.120   121744410.852          50.000                                                  
G20  20203509.420   106170163.789          50.000                                                  
G21  22072935.460   115994083.398          50.000                                                  
G26  23266545.360   122266429.516          50.000    23266547.040    91302843.832          50.000  
G27  23654187.120   124303543.465          50.000    23654188.460    92824074.883          50.000  
G29  22762437.180   119617400.609          50.000                                                  
E 3  25838139.300   135780305.766          50.000    25838144.080   101394370.922          50.000  
E 5  24007937.460   126162537.664          50.000    24007941.440    94212273.973          50.000  
E 9  24257782.940   127475491.324          50.000    24257786.740    95192727.305          50.000  
E15  25804061.540   135601223.906          50.000    25804066.700   101260641.422          50.000  
E27  27500823.700   144517761.316          50.000    27500828.900   107919090.625          50.000  
E30  26168075.240   137514111.719          50.000    26168080.740   102689089.621          50.000  
E36  25192421.080   132387027.500          50.000    25192425.980    98860428.723          50.000  
> 2020  7  8 23 26 48.0000000  0  9       0.000000000000
G10  21912645.900   115151686.547          50.000    21912645.680    85989896.586          50.000  
G13  23934411.920   125776230.871          50.000                                                  
G15  21839605.480   114767721.875          50.000                                                  
G16  23167496.320   121746019.938          50.000                                                  
G20  20202975.860   106167359.906          50.000                                                  
G21  22071309.820   115985540.656          50.000                                                  
G26  23268895.400   122278779.043          50.000    23268897.120    91312065.770          50.000  
G27  23650500.820   124284171.801          50.000    23650502.200    92809608.918          50.000  
G29  22766101.980   119636659.219          50.000                                                  
> 2020  7  8 23 26 49.0000000  0 16       0.000000000000
G10  21912237.860   115149542.246          50.000    21912237.620    85988295.324          50.000  
G13  23934771.360   125778119.758          50.000                                                  
G15  21839801.140   114768750.117          50.000                                                  
G16  23167547.400   121746288.375          50.000                                                  
G20  20202887.120   106166893.621          50.000                                                  
G21  22071038.640   115984115.609          50.000                                                  
G26  23269287.120   122280837.492          50.000    23269288.820    91313602.922          50.000  
G27  23649886.180   124280941.793          50.000    23649887.540    92807196.902          50.000  
G29  22766713.360   119639872.039          50.000                                                  
E 3  25834342.820   135760355.074          50.000    25834347.620   101379472.582          50.000  
E 5  24007004.420   126157634.383          50.000    24007008.420    94208612.316          50.000  
E 9  24260296.260   127488698.824          50.000    24260300.100    95202589.926          50.000  
E15  25801372.580   135587093.289          50.000    25801377.760   101250089.227          50.000  
E27  27501767.060   144522718.656          50.000    27501772.280   107922792.422          50.000  
E30  26171232.000   137530700.559          50.000    26171237.520   102701477.266          50.000  
E36  25194389.320   132397370.633          50.000    25194394.260    98868152.375          50.000  
> 2020  7  8 23 26 50.0000000  0 16       0.000000000000
G10  21911829.880   115147398.313          50.000    21911829.660    85986694.336          50.000  
G13  23935130.900   125780009.188          50.000                                                  
G15  21839996.940   114769779.027          50.000                                                  
G16  23167598.600   121746557.422          50.000                                                  
G20  20202798.480   106166427.758          50.000                                                  
G21  22070767.480   115982690.645          50.000                                                  
G26  23269678.900   122282896.297          50.000    23269680.600    91315140.340          50.000  
G27  23649271.560   124277712.012          50.000    23649272.940    92804785.055          50.000  
G29  22767324.800   119643085.152          50.000                                                  
E 3  25833800.780   135757506.664          50.000    25833805.580   101377345.523          50.000  
E 5  24006871.640   126156936.691          50.000    24006875.660    94208091.313          50.000  
E 9  24260655.600   127490587.223          50.000    24260659.440    95204000.094          50.000  
E15  25800988.100   135585072.867          50.000    25800993.300   101248580.473          50.000  
E27  27501901.780   144523426.645          50.000    27501907.000   107923321.113          50.000  
E30  26171682.920   137533070.063          50.000    26171688.440   102703246.699          50.000  
E36  25194670.880   132398850.199          50.000    25194675.800    98869257.246          50.000  
> 2020  7  8 23 26 51.0000000  0 16       0.000000000000
G10  21911421.960   115145254.746          50.000    21911421.740    85985093.621          50.000  
G13  23935490.560   125781899.191          50.000                                                  
G15  21840192.880   114770808.625          50.000                                                  
G16  23167649.920   121746827.105          50.000                                                  
G20  20202709.920   106165962.348          50.000                                                  
G21  22070496.340   115981265.766          50.000                                                  
G26  23270070.740   122284955.430          50.000    23270072.440    91316678.004          50.000  
G27  23648657.000   124274482.445          50.000    23648658.360    92802373.363          50.000  
G29  22767936.300   119646298.586          50.000                                                  
E 3  25833258.780   135754658.418          50.000    25833263.580   101375218.582          50.000  
E 5  24006738.960   126156239.445          50.000    24006742.980    94207570.641          50.000  
E 9  24261015.020   127492475.953          50.000    24261018.860    95205410.508          50.000  
E15  25800603.640   135583052.441          50.000    25800608.820   101247071.715          50.000  
E27  27502036.580   144524135.051          50.000    27502041.820   107923850.117          50.000  
E30  26172133.840   137535439.680          50.000    26172139.360   102705016.219          50.000  
E36  25194952.460   132400329.930          50.000    25194957.400    98870362.238          50.000  
> 2020  7  8 23 26 52.0000000  0 16       0.000000000000
G10  21911014.140   115143111.551          50.000    21911013.900    85983493.184          50.000  
G13  23935850.320   125783789.742          50.000                                                  
G15  21840388.920   114771838.898          50.000                                                  
G16  23167701.360   121747097.414          50.000                                                  
G20  20202621.440   106165497.367          50.000                                                  
G21  22070225.220   115979840.980          50.000                                                  
G26  23270462.640   122287014.914          50.000    23270464.360    91318215.930          50.000  
G27  23648042.480   124271253.102          50.000    23648043.840    92799961.840          50.000  
G29  22768547.860   119649512.344          50.000                                                  
E 3  25832716.820   135751810.359          50.000    25832721.620   101373091.789          50.000  
E 5  24006606.360   126155542.652          50.000    24006610.380    94207050.309          50.000  
E 9  24261374.500   127494365.023          50.000    24261378.340    95206821.176          50.000  
E15  25800219.160   135581032.020          50.000    25800224.340   101245562.957          50.000  
E27  27502171.480   144524843.875          50.000    27502176.700   107924379.434          50.000  
E30  26172584.780   137537809.426          50.000    26172590.300   102706785.832          50.000  
E36  25195234.080   132401809.832          50.000    25195239.000    98871467.359          50.000  
> 2020  7  8 23 26 53.0000000  0 16       0.000000000000
G10  21910606.360   115140968.727          50.000    21910606.140    85981893.023          50.000  
G13  23936210.180   125785680.848          50.000                                                  
G15  21840585.100   114772869.855          50.000                                                  
G16  23167752.920   121747368.348          50.000                                                  
G20  20202533.020   106165032.813          50.000                                                  
G21  22069954.100   115978416.277          50.000                                                  
G26  23270854.620   122289074.746          50.000    23270856.340    91319754.113          50.000  
G27  23647428.000   124268023.973          50.000    23647429.360    92797550.480          50.000  
G29  22769159.460   119652726.410          50.000                                                  
E 3  25832174.880   135748962.480          50.000    25832179.680   101370965.125          50.000  
E 5  24006473.860   126154846.324          50.000    24006477.880    94206530.324          50.000  
E 9  24261734.040   127496254.430          50.000    24261737.880    95208232.098          50.000  
E15  25799834.680   135579011.598          50.000    25799839.860   101244054.199          50.000  
E27  27502306.440   144525553.121          50.000    27502311.660   107924909.063          50.000  
E30  26173035.760   137540179.289          50.000    26173041.280   102708555.531          50.000  
E36  25195515.720   132403289.898          50.000    25195520.660    98872572.602          50.000  
> 2020  7  8 23 26 54.0000000  0 16       0.000000000000
G10  21910198.680   115138826.270          50.000    21910198.440    85980293.133          50.000  
G13  23936570.160   125787572.508          50.000                                                  
G15  21840781.420   114773901.484          50.000                                                  
G16  23167804.600   121747639.891          50.000                                                  
G20  20202444.720   106164568.691          50.000                                                  
G21  22069683.000   115976991.668          50.000                                                  
G26  23271246.660   122291134.926          50.000    23271248.380    91321292.559          50.000  
G27  23646813.560   124264795.063          50.000    23646814.920    92795139.281          50.000  
G29  22769771.140   119655940.781          50.000                                                  
E 3  25831632.980   135746114.781          50.000    25831637.780   101368838.598          50.000  
E 5  24006341.440   126154150.457          50.000    24006345.460    94206010.684          50.000  
E 9  24262093.640   127498144.180          50.000    24262097.500    95209643.273          50.000  
E15  25799450.200   135576991.168          50.000    25799455.400   101242545.438          50.000  
E27  27502441.480   144526262.789          50.000    27502446.720   107925439.012          50.000  
E30  26173486.760   137542549.281          50.000    26173492.280   102710325.332          50.000  
E36  25195797.400   132404770.137          50.000    25195802.340    98873677.977          50.000  
> 2020  7  8 23 26 55.0000000  0 16       0.000000000000
G10  21909791.040   115136684.176          50.000    21909790.820    85978693.520          50.000  
G13  23936930.240   125789464.734          50.000                                                  
G15  21840977.860   114774933.797          50.000                                                  
G16  23167856.380   121747912.074          50.000                                                  
G20  20202356.480   106164105.000          50.000                                                  
G21  22069411.940   115975567.152          50.000                                                  
G26  23271638.760   122293195.449          50.000    23271640.480    91322831.258          50.000  
G27  23646199.160   124261566.375          50.000    23646200.520    92792728.250          50.000  
G29  22770382.880   119659155.480          50.000                                                  
E 3  25831091.100   135743267.234          50.000    25831095.920   101366712.184          50.000  
E 5  24006209.120   126153455.039          50.000    24006213.120    94205491.379          50.000  
E 9  24262453.320   127500034.258          50.000    24262457.160    95211054.695          50.000  
E15  25799065.740   135574970.730          50.000    25799070.920   101241036.668          50.000  
E27  27502576.600   144526972.863          50.000    27502581.840   107925969.258          50.000  
E30  26173937.760   137544919.387          50.000    26173943.280   102712095.211          50.000  
E36  25196079.120   132406250.527          50.000    25196084.040    98874783.461          50.000  
> 2020  7  8 23 26 56.0000000  0 16       0.000000000000
G10  21909383.480   115134542.453          50.000    21909383.260    85977094.180          50.000  
G13  23937290.420   125791357.508          50.000                                                  
G15  21841174.440   114775966.789          50.000                                                  
G16  23167908.300   121748184.867          50.000                                                  
G20  20202268.320   106163641.738          50.000                                                  
G21  22069140.860   115974142.695          50.000                                                  
G26  23272030.940   122295256.320          50.000    23272032.640    91324370.215          50.000  
G27  23645584.800   124258337.906          50.000    23645586.160    92790317.379          50.000  
G29  22770994.680   119662370.473          50.000                                                  
E 3  25830549.280   135740419.875          50.000    25830554.080   101364585.906          50.000  
E 5  24006076.860   126152760.070          50.000    24006080.880    94204972.406          50.000  
E 9  24262813.060   127501924.688          50.000    24262816.900    95212466.375          50.000  
E15  25798681.260   135572950.301          50.000    25798686.440   101239527.910          50.000  
E27  27502711.820   144527683.367          50.000    27502717.040   107926499.828          50.000  
E30  26174388.820   137547289.625          50.000    26174394.340   102713865.191          50.000  
E36  25196360.860   132407731.090          50.000    25196365.800    98875889.074          50.000  
> 2020  7  8 23 26 57.0000000  0 16       0.000000000000
G10  21908976.000   115132401.090          50.000    21908975.780    85975495.113          50.000  
G13  23937650.720   125793250.840          50.000                                                  
G15  21841371.140   114777000.461          50.000                                                  
G16  23167960.340   121748458.297          50.000                                                  
G20  20202180.240   106163178.910          50.000                                                  
G21  22068869.820   115972718.344          50.000                                                  
G26  23272423.160   122297317.539          50.000    23272424.880    91325909.438          50.000  
G27  23644970.480   124255109.660          50.000    23644971.840    92787906.680          50.000  
G29  22771606.540   119665585.785          50.000                                                  
E 3  25830007.480   135737572.695          50.000    25830012.280   101362459.770          50.000  
E 5  24005944.700   126152065.566          50.000    24005948.720    94204453.781          50.000  
E 9  24263172.860   127503815.445          50.000    24263176.700    95213878.309          50.000  
E15  25798296.780   135570929.863          50.000    25798301.960   101238019.141          50.000  
E27  27502847.100   144528394.297          50.000    27502852.320   107927030.715          50.000  
E30  26174839.880   137549659.977          50.000    26174845.400   102715635.262          50.000  
E36  25196642.620   132409211.820          50.000    25196647.560    98876994.813          50.000  
> 2020  7  8 23 26 58.0000000  0 16       0.000000000000
G10  21908568.580   115130260.102          50.000    21908568.360    85973896.320          50.000  
G13  23938011.120   125795144.730          50.000                                                  
G15  21841567.980   114778034.813          50.000                                                  
G16  23168012.480   121748732.352          50.000                                                  
G20  20202092.260   106162716.523          50.000                                                  
G21  22068598.800   115971294.098          50.000                                                  
G26  23272815.480   122299379.109          50.000    23272817.200    91327448.922          50.000  
G27  23644356.200   124251881.629          50.000    23644357.560    92785496.137          50.000  
G29  22772218.440   119668801.418          50.000                                                  
E 3  25829465.700   135734725.703          50.000    25829470.520   101360333.770          50.000  
E 5  24005812.620   126151371.512          50.000    24005816.640    94203935.496          50.000  
E 9  24263532.720   127505706.547          50.000    24263536.560    95215290.492          50.000  
E15  25797912.300   135568909.422          50.000    25797917.480   101236510.371          50.000  
E27  27502982.460   144529105.648          50.000    27502987.700   107927561.918          50.000  
E30  26175290.960   137552030.453          50.000    26175296.480   102717405.418          50.000  
E36  25196924.440   132410692.715          50.000    25196929.360    98878100.676          50.000  
> 2020  7  8 23 26 59.0000000  0 16       0.000000000000
G10  21908161.240   115128119.488          50.000    21908161.020    85972297.813          50.000  
G13  23938371.620   125797039.176          50.000                                                  
G15  21841764.940   114779069.844          50.000                                                  
G16  23168064.760   121749007.031          50.000                                                  
G20  20202004.340   106162254.566          50.000                                                  
G21  22068327.780   115969869.922          50.000                                                  
G26  23273207.840   122301441.012          50.000    23273209.560    91328988.652          50.000  
G27  23643741.980   124248653.820          50.000    23643743.340    92783085.762          50.000  
G29  22772830.420   119672017.355          50.000                                                  
E 3  25828923.980   135731878.891          50.000    25828928.780   101358207.898          50.000  
E 5  24005680.640   126150677.922          50.000    24005684.660    94203417.555          50.000  
E 9  24263892.660   127507597.984          50.000    24263896.500    95216702.930          50.000  
E15  25797527.820   135566888.984          50.000    25797533.020   101235001.602          50.000  
E27  27503117.920   144529817.418          50.000    27503123.140   107928093.434          50.000  
E30  26175742.080   137554401.051          50.000    26175747.600   102719175.672          50.000  
E36  25197206.280   132412173.773          50.000    25197211.200    98879206.664          50.000  
> 2020  7  8 23 27  0.0000000  0 16       0.000000000000
G10  21907753.960   115125979.230          50.000    21907753.740    85970699.570          50.000  
G13  23938732.220   125798934.184          50.000                                                  
G15  21841962.020   114780105.555          50.000                                                  
G16  23168117.140   121749282.332          50.000                                                  
G20  20201916.520   106161793.031          50.000                                                  
G21  22068056.800   115968445.848          50.000                                                  
G26  23273600.280   122303503.254          50.000    23273602.000    91330528.637          50.000  
G27  23643127.780   124245426.238          50.000    23643129.140    92780675.555          50.000  
G29  22773442.460   119675233.617          50.000                                                  
E 3  25828382.280   135729032.234          50.000    25828387.080   101356082.152          50.000  
E 5  24005548.740   126149984.785          50.000    24005552.760    94202899.953          50.000  
E 9  24264252.640   127509489.762          50.000    24264256.480    95218115.617          50.000  
E15  25797143.340   135564868.539          50.000    25797148.540   101233492.828          50.000  
E27  27503253.440   144530529.602          50.000    27503258.660   107928625.258          50.000  
E30  26176193.200   137556771.770          50.000    26176198.740   102720946.012          50.000  
E36  25197488.140   132413655.004          50.000    25197493.080    98880312.773          50.000  
> 2020  7  8 23 27  1.0000000  0 16       0.000000000000
G10  21907346.760   115123839.352          50.000    21907346.520    85969101.605          50.000  
G13  23939092.940   125800829.746          50.000                                                  
G15  21842159.240   114781141.945          50.000                                                  
G16  23168169.640   121749558.258          50.000                                                  
G20  20201828.780   106161331.934          50.000                                                  
G21  22067785.820   115967021.855          50.000                                                  
G26  23273992.780   122305565.863          50.000    23273994.500    91332068.895          50.000  
G27  23642513.640   124242198.879          50.000    23642515.000    92778265.512          50.000  
G29  22774054.540   119678450.180          50.000                                                  
E 3  25827840.600   135726185.750          50.000    25827845.420   101353956.531          50.000  
E 5  24005416.940   126149292.102          50.000    24005420.940    94202382.688          50.000  
E 9  24264612.700   127511381.875          50.000    24264616.540    95219528.559          50.000  
E15  25796758.860   135562848.094          50.000    25796764.060   101231984.051          50.000  
E27  27503389.040   144531242.215          50.000    27503394.280   107929157.402          50.000  
E30  26176644.360   137559142.605          50.000    26176649.880   102722716.438          50.000  
E36  25197770.040   132415136.391          50.000    25197774.980    98881419.004          50.000  
> 2020  7  8 23 27  2.0000000  0 16       0.000000000000
G10  21906939.620   115121699.828          50.000    21906939.400    85967503.910          50.000  
G13  23939453.760   125802725.863          50.000                                                  
G15  21842356.580   114782179.012          50.000                                                  
G16  23168222.280   121749834.805          50.000                                                  
G20  20201741.120   106160871.270          50.000                                                  
G21  22067514.860   115965597.957          50.000                                                  
G26  23274385.340   122307628.809          50.000    23274387.060    91333609.406          50.000  
G27  23641899.520   124238971.719          50.000    23641900.900    92775855.621          50.000  
G29  22774666.700   119681667.094          50.000                                                  
E 3  25827298.980   135723339.465          50.000    25827303.780   101351831.059          50.000  
E 5  24005285.200   126148599.875          50.000    24005289.220    94201865.766          50.000  
E 9  24264972.820   127513274.328          50.000    24264976.680    95220941.754          50.000  
E15  25796374.400   135560827.652          50.000    25796379.580   101230475.281          50.000  
E27  27503524.720   144531955.246          50.000    27503529.960   107929689.859          50.000  
E30  26177095.540   137561513.570          50.000    26177101.060   102724486.961          50.000  
E36  25198051.980   132416617.953          50.000    25198056.900    98882525.363          50.000  
> 2020  7  8 23 27  3.0000000  0 16       0.000000000000
G10  21906532.560   115119560.684          50.000    21906532.320    85965906.500          50.000  
G13  23939814.680   125804622.539          50.000                                                  
G15  21842554.060   114783216.746          50.000                                                  
G16  23168275.020   121750111.973          50.000                                                  
G20  20201653.540   106160411.023          50.000                                                  
G21  22067243.920   115964174.145          50.000                                                  
G26  23274777.980   122309692.090          50.000    23274779.700    91335150.164          50.000  
G27  23641285.460   124235744.793          50.000    23641286.820    92773445.906          50.000  
G29  22775278.920   119684884.309          50.000                                                  
E 3  25826757.380   135720493.348          50.000    25826762.180   101349705.711          50.000  
E 5  24005153.560   126147908.105          50.000    24005157.580    94201349.188          50.000  
E 9  24265333.000   127515167.113          50.000    24265336.860    95222355.195          50.000  
E15  25795989.920   135558807.199          50.000    25795995.100   101228966.500          50.000  
E27  27503660.500   144532668.691          50.000    27503665.720   107930222.629          50.000  
E30  26177546.740   137563884.656          50.000    26177552.280   102726257.578          50.000  
E36  25198333.940   132418099.680          50.000    25198338.880    98883631.848          50.000  
> 2020  7  8 23 27  4.0000000  0 16       0.000000000000
G10  21906125.560   115117421.902          50.000    21906125.320    85964309.359          50.000  
G13  23940175.720   125806519.766          50.000                                                  
G15  21842751.660   114784255.168          50.000                                                  
G16  23168327.880   121750389.762          50.000                                                  
G20  20201566.040   106159951.219          50.000                                                  
G21  22066972.980   115962750.418          50.000                                                  
G26  23275170.660   122311755.719          50.000    23275172.400    91336691.184          50.000  
G27  23640671.440   124232518.086          50.000    23640672.800    92771036.352          50.000  
G29  22775891.200   119688101.840          50.000                                                  
E 3  25826215.820   135717647.402          50.000    25826220.620   101347580.492          50.000  
E 5  24005022.020   126147216.789          50.000    24005026.020    94200832.941          50.000  
E 9  24265693.260   127517060.242          50.000    24265697.100    95223768.895          50.000  
E15  25795605.440   135556786.738          50.000    25795610.620   101227457.715          50.000  
E27  27503796.340   144533382.563          50.000    27503801.560   107930755.711          50.000  
E30  26177997.980   137566255.867          50.000    26178003.500   102728028.285          50.000  
E36  25198615.940   132419581.574          50.000    25198620.860    98884738.457          50.000  
> 2020  7  8 23 27  5.0000000  0 16       0.000000000000
G10  21905718.620   115115283.488          50.000    21905718.400    85962712.492          50.000  
G13  23940536.860   125808417.559          50.000                                                  
G15  21842949.400   114785294.270          50.000                                                  
G16  23168380.860   121750668.184          50.000                                                  
G20  20201478.620   106159491.844          50.000                                                  
G21  22066702.080   115961326.777          50.000                                                  
G26  23275563.440   122313819.691          50.000    23275565.160    91338232.465          50.000  
G27  23640057.460   124229291.605          50.000    23640058.820    92768626.969          50.000  
G29  22776503.540   119691319.676          50.000                                                  
E 3  25825674.280   135714801.648          50.000    25825679.080   101345455.418          50.000  
E 5  24004890.540   126146525.934          50.000    24004894.560    94200317.043          50.000  
E 9  24266053.580   127518953.707          50.000    24266057.420    95225182.844          50.000  
E15  25795220.960   135554766.285          50.000    25795226.140   101225948.938          50.000  
E27  27503932.260   144534096.848          50.000    27503937.500   107931289.105          50.000  
E30  26178449.220   137568627.188          50.000    26178454.740   102729799.074          50.000  
E36  25198897.960   132421063.629          50.000    25198902.900    98885845.184          50.000  
> 2020  7  8 23 27  6.0000000  0 16       0.000000000000
G10  21905311.780   115113145.445          50.000    21905311.540    85961115.898          50.000  
G13  23940898.100   125810315.902          50.000                                                  
G15  21843147.260   114786334.047          50.000                                                  
G16  23168433.960   121750947.230          50.000                                                  
G20  20201391.280   106159032.898          50.000                                                  
G21  22066431.180   115959903.234          50.000                                                  
G26  23275956.260   122315884.012          50.000    23275957.980    91339774.000          50.000  
G27  23639443.520   124226065.340          50.000    23639444.880    92766217.742          50.000  
G29  22777115.920   119694537.813          50.000                                                  
E 3  25825132.780   135711956.059          50.000    25825137.580   101343330.465          50.000  
E 5  24004759.160   126145835.523          50.000    24004763.180    94199801.477          50.000  
E 9  24266413.960   127520847.512          50.000    24266417.800    95226597.047          50.000  
E15  25794836.480   135552745.828          50.000    25794841.660   101224440.152          50.000  
E27  27504068.280   144534811.563          50.000    27504073.500   107931822.820          50.000  
E30  26178900.500   137570998.637          50.000    26178906.020   102731569.957          50.000  
E36  25199180.020   132422545.852          50.000    25199184.960    98886952.039          50.000  
> 2020  7  8 23 27  7.0000000  0 16       0.000000000000
G10  21904904.980   115111007.773          50.000    21904904.760    85959519.586          50.000  
G13  23941259.440   125812214.801          50.000                                                  
G15  21843345.260   114787374.492          50.000                                                  
G16  23168487.180   121751226.871          50.000                                                  
G20  20201304.040   106158574.387          50.000                                                  
G21  22066160.300   115958479.762          50.000                                                  
G26  23276349.160   122317948.688          50.000    23276350.880    91341315.801          50.000  
G27  23638829.620   124222839.297          50.000    23638831.000    92763808.688          50.000  
G29  22777728.380   119697756.285          50.000                                                  
E 3  25824591.320   135709110.645          50.000    25824596.120   101341205.645          50.000  
E 5  24004627.880   126145145.586          50.000    24004631.880    94199286.266          50.000  
E 9  24266774.400   127522741.652          50.000    24266778.240    95228011.504          50.000  
E15  25794452.000   135550725.367          50.000    25794457.180   101222931.367          50.000  
E27  27504204.360   144535526.688          50.000    27504209.580   107932356.840          50.000  
E30  26179351.800   137573370.207          50.000    26179357.320   102733340.934          50.000  
E36  25199462.100   132424028.234          50.000    25199467.040    98888059.012          50.000  
> 2020  7  8 23 27  8.0000000  0 16       0.000000000000
G10  21904498.260   115108870.469          50.000    21904498.040    85957923.547          50.000  
G13  23941620.900   125814114.258          50.000                                                  
G15  21843543.380   114788415.637          50.000                                                  
G16  23168540.520   121751507.160          50.000                                                  
G20  20201216.860   106158116.313          50.000                                                  
G21  22065889.460   115957056.406          50.000                                                  
G26  23276742.120   122320013.695          50.000    23276743.840    91342857.848          50.000  
G27  23638215.780   124219613.465          50.000    23638217.140    92761399.785          50.000  
G29  22778340.900   119700975.059          50.000                                                  
E 3  25824049.900   135706265.422          50.000    25824054.700   101339080.965          50.000  
E 5  24004496.660   126144456.094          50.000    24004500.680    94198771.387          50.000  
E 9  24267134.900   127524636.129          50.000    24267138.760    95229426.207          50.000  
E15  25794067.500   135548704.906          50.000    25794072.700   101221422.582          50.000  
E27  27504340.520   144536242.242          50.000    27504345.760   107932891.184          50.000  
E30  26179803.120   137575741.898          50.000    26179808.640   102735112.004          50.000  
E36  25199744.220   132425510.789          50.000    25199749.160    98889166.113          50.000  
> 2020  7  8 23 27  9.0000000  0 16       0.000000000000
G10  21904091.620   115106733.531          50.000    21904091.400    85956327.781          50.000  
G13  23941982.460   125816014.266          50.000                                                  
G15  21843741.620   114789457.445          50.000                                                  
G16  23168593.960   121751788.066          50.000                                                  
G20  20201129.780   106157658.660          50.000                                                  
G21  22065618.620   115955633.117          50.000                                                  
G26  23277135.140   122322079.047          50.000    23277136.860    91344400.156          50.000  
G27  23637601.960   124216387.867          50.000    23637603.320    92758991.063          50.000  
G29  22778953.480   119704194.145          50.000                                                  
E 3  25823508.500   135703420.363          50.000    25823513.300   101336956.406          50.000  
E 5  24004365.560   126143767.070          50.000    24004369.560    94198256.852          50.000  
E 9  24267495.480   127526530.949          50.000    24267499.320    95230841.172          50.000  
E15  25793683.020   135546684.445          50.000    25793688.220   101219913.797          50.000  
E27  27504476.760   144536958.203          50.000    27504482.000   107933425.828          50.000  
E30  26180254.460   137578113.707          50.000    26180259.980   102736883.156          50.000  
E36  25200026.380   132426993.523          50.000    25200031.320    98890273.348          50.000  
> 2020  7  8 23 27 10.0000000  0 16       0.000000000000
G10  21903685.040   115104596.949          50.000    21903684.820    85954732.285          50.000  
G13  23942344.140   125817914.844          50.000                                                  
G15  21843940.020   114790499.941          50.000                                                  
G16  23168647.540   121752069.594          50.000                                                  
G20  20201042.780   106157201.449          50.000                                                  
G21  22065347.780   115954209.938          50.000                                                  
G26  23277528.220   122324144.746          50.000    23277529.960    91345942.723          50.000  
G27  23636988.180   124213162.473          50.000    23636989.560    92756582.488          50.000  
G29  22779566.100   119707413.543          50.000                                                  
E 3  25822967.140   135700575.492          50.000    25822971.940   101334831.992          50.000  
E 5  24004234.520   126143078.492          50.000    24004238.540    94197742.656          50.000  
E 9  24267856.120   127528426.105          50.000    24267859.960    95232256.387          50.000  
E15  25793298.540   135544663.988          50.000    25793303.740   101218405.012          50.000  
E27  27504613.100   144537674.590          50.000    27504618.320   107933960.789          50.000  
E30  26180705.820   137580485.637          50.000    26180711.340   102738654.402          50.000  
E36  25200308.560   132428476.402          50.000    25200313.500    98891380.691          50.000  
> 2020  7  8 23 27 11.0000000  0 16       0.000000000000
G10  21903278.540   115102460.750          50.000    21903278.320    85953137.070          50.000  
G13  23942705.900   125819815.957          50.000                                                  
G15  21844138.520   114791543.113          50.000                                                  
G16  23168701.240   121752351.750          50.000                                                  
G20  20200955.860   106156744.664          50.000                                                  
G21  22065076.980   115952786.824          50.000                                                  
G26  23277921.380   122326210.777          50.000    23277923.100    91347485.539          50.000  
G27  23636374.460   124209937.316          50.000    23636375.820    92754174.094          50.000  
G29  22780178.800   119710633.250          50.000                                                  
E 3  25822425.800   135697730.797          50.000    25822430.600   101332707.707          50.000  
E 5  24004103.580   126142390.375          50.000    24004107.580    94197228.801          50.000  
E 9  24268216.820   127530321.602          50.000    24268220.660    95233671.852          50.000  
E15  25792914.060   135542643.520          50.000    25792919.260   101216896.223          50.000  
E27  27504749.500   144538391.398          50.000    27504754.720   107934496.070          50.000  
E30  26181157.200   137582857.684          50.000    26181162.740   102740425.730          50.000  
E36  25200590.780   132429959.469          50.000    25200595.720    98892488.176          50.000  
> 2020  7  8 23 27 12.0000000  0 16       0.000000000000
G10  21902872.100   115100324.910          50.000    21902871.880    85951542.125          50.000  
G13  23943067.780   125821717.641          50.000                                                  
G15  21844337.160   114792586.961          50.000                                                  
G16  23168755.040   121752634.527          50.000                                                  
G20  20200869.020   106156288.316          50.000                                                  
G21  22064806.180   115951363.816          50.000                                                  
G26  23278314.600   122328277.168          50.000    23278316.340    91349028.621          50.000  
G27  23635760.780   124206712.383          50.000    23635762.140    92751765.863          50.000  
G29  22780791.540   119713853.270          50.000                                                  
E 3  25821884.520   135694886.262          50.000    25821889.320   101330583.543          50.000  
E 5  24003972.720   126141702.719          50.000    24003976.740    94196715.293          50.000  
E 9  24268577.580   127532217.430          50.000    24268581.440    95235087.566          50.000  
E15  25792529.580   135540623.051          50.000    25792534.760   101215387.430          50.000  
E27  27504885.980   144539108.637          50.000    27504891.220   107935031.668          50.000  
E30  26181608.620   137585229.859          50.000    26181614.140   102742197.160          50.000  
E36  25200873.020   132431442.676          50.000    25200877.960    98893595.766          50.000  
> 2020  7  8 23 27 13.0000000  0 16       0.000000000000
G10  21902465.740   115098189.449          50.000    21902465.520    85949947.461          50.000  
G13  23943429.760   125823619.875          50.000                                                  
G15  21844535.920   114793631.488          50.000                                                  
G16  23168808.980   121752917.930          50.000                                                  
G20  20200782.260   106155832.379          50.000                                                  
G21  22064535.420   115949940.891          50.000                                                  
G26  23278707.900   122330343.898          50.000    23278709.620    91350571.953          50.000  
G27  23635147.140   124203487.660          50.000    23635148.500    92749357.793          50.000  
G29  22781404.360   119717073.586          50.000                                                  
E 3  25821343.260   135692041.926          50.000    25821348.060   101328459.523          50.000  
E 5  24003841.940   126141015.512          50.000    24003845.960    94196202.117          50.000  
E 9  24268938.420   127534113.598          50.000    24268942.260    95236503.535          50.000  
E15  25792145.100   135538602.582          50.000    25792150.280   101213878.641          50.000  
E27  27505022.540   144539826.281          50.000    27505027.780   107935567.570          50.000  
E30  26182060.060   137587602.156          50.000    26182065.580   102743968.680          50.000  
E36  25201155.300   132432926.074          50.000    25201160.240    98894703.496          50.000  
> 2020  7  8 23 27 14.0000000  0 16       0.000000000000
G10  21902059.440   115096054.352          50.000    21902059.220    85948353.070          50.000  
G13  23943791.860   125825522.660          50.000                                                  
G15  21844734.820   114794676.695          50.000                                                  
G16  23168863.020   121753201.957          50.000                                                  
G20  20200695.580   106155376.887          50.000                                                  
G21  22064264.660   115948518.055          50.000                                                  
G26  23279101.240   122332410.969          50.000    23279102.980    91352115.543          50.000  
G27  23634533.520   124200263.156          50.000    23634534.900    92746949.887          50.000  
G29  22782017.220   119720294.230          50.000                                                  
E 3  25820802.020   135689197.762          50.000    25820806.820   101326335.637          50.000  
E 5  24003711.260   126140328.766          50.000    24003715.280    94195689.289          50.000  
E 9  24269299.300   127536010.098          50.000    24269303.160    95237919.754          50.000  
E15  25791760.620   135536582.105          50.000    25791765.800   101212369.844          50.000  
E27  27505159.180   144540544.344          50.000    27505164.420   107936103.785          50.000  
E30  26182511.500   137589974.566          50.000    26182517.040   102745740.281          50.000  
E36  25201437.620   132434409.625          50.000    25201442.560    98895811.344          50.000  
> 2020  7  8 23 27 15.0000000  0 16       0.000000000000
G10  21901653.220   115093919.621          50.000    21901653.000    85946758.957          50.000  
G13  23944154.060   125827426.004          50.000                                                  
G15  21844933.840   114795722.574          50.000                                                  
G16  23168917.200   121753486.605          50.000                                                  
G20  20200608.980   106154921.824          50.000                                                  
G21  22063993.920   115947095.301          50.000                                                  
G26  23279494.660   122334478.387          50.000    23279496.380    91353659.395          50.000  
G27  23633919.960   124197038.883          50.000    23633921.340    92744542.148          50.000  
G29  22782630.140   119723515.180          50.000                                                  
E 3  25820260.840   135686353.770          50.000    25820265.640   101324211.879          50.000  
E 5  24003580.660   126139642.469          50.000    24003584.680    94195176.793          50.000  
E 9  24269660.260   127537906.938          50.000    24269664.120    95239336.223          50.000  
E15  25791376.140   135534561.629          50.000    25791381.320   101210861.047          50.000  
E27  27505295.920   144541262.840          50.000    27505301.140   107936640.324          50.000  
E30  26182962.980   137592347.098          50.000    26182968.520   102747511.977          50.000  
E36  25201719.960   132435893.344          50.000    25201724.900    98896919.313          50.000  
> 2020  7  8 23 27 16.0000000  0 16       0.000000000000
G10  21901247.060   115091785.262          50.000    21901246.840    85945165.113          50.000  
G13  23944516.360   125829329.902          50.000                                                  
G15  21845133.000   114796769.137          50.000                                                  
G16  23168971.480   121753771.891          50.000                                                  
G20  20200522.460   106154467.191          50.000                                                  
G21  22063723.200   115945672.648          50.000                                                  
G26  23279888.140   122336546.145          50.000    23279889.880    91355203.500          50.000  
G27  23633306.460   124193814.824          50.000    23633307.820    92742134.574          50.000  
G29  22783243.140   119726736.438          50.000                                                  
E 3  25819719.680   135683509.953          50.000    25819724.480   101322088.250          50.000  
E 5  24003450.160   126138956.637          50.000    24003454.160    94194664.645          50.000  
E 9  24270021.280   127539804.113          50.000    24270025.140    95240752.941          50.000  
E15  25790991.640   135532541.148          50.000    25790996.840   101209352.246          50.000  
E27  27505432.720   144541981.742          50.000    27505437.940   107937177.164          50.000  
E30  26183414.480   137594719.754          50.000    26183420.020   102749283.762          50.000  
E36  25202002.340   132437377.227          50.000    25202007.280    98898027.406          50.000  
> 2020  7  8 23 27 17.0000000  0 16       0.000000000000
G10  21900840.980   115089651.277          50.000    21900840.760    85943571.555          50.000  
G13  23944878.760   125831234.352          50.000                                                  
G15  21845332.280   114797816.379          50.000                                                  
G16  23169025.880   121754057.797          50.000                                                  
G20  20200436.040   106154012.992          50.000                                                  
G21  22063452.500   115944250.086          50.000                                                  
G26  23280281.700   122338614.246          50.000    23280283.420    91356747.855          50.000  
G27  23632692.980   124190590.996          50.000    23632694.340    92739727.172          50.000  
G29  22783856.180   119729958.012          50.000                                                  
E 3  25819178.540   135680666.324          50.000    25819183.340   101319964.758          50.000  
E 5  24003319.740   126138271.262          50.000    24003323.740    94194152.840          50.000  
E 9  24270382.360   127541701.633          50.000    24270386.220    95242169.922          50.000  
E15  25790607.160   135530520.672          50.000    25790612.340   101207843.445          50.000  
E27  27505569.600   144542701.074          50.000    27505574.840   107937714.328          50.000  
E30  26183866.020   137597092.531          50.000    26183871.540   102751055.641          50.000  
E36  25202284.740   132438861.281          50.000    25202289.680    98899135.629          50.000  
> 2020  7  8 23 27 18.0000000  0 16       0.000000000000
G10  21900434.960   115087517.648          50.000    21900434.740    85941978.262          50.000  
G13  23945241.280   125833139.367          50.000                                                  
G15  21845531.700   114798864.293          50.000                                                  
G16  23169080.420   121754344.309          50.000                                                  
G20  20200349.680   106153559.223          50.000                                                  
G21  22063181.800   115942827.590          50.000                                                  
G26  23280675.300   122340682.707          50.000    23280677.040    91358292.484          50.000  
G27  23632079.540   124187367.383          50.000    23632080.900    92737319.930          50.000  
G29  22784469.280   119733179.898          50.000                                                  
E 3  25818637.460   135677822.867          50.000    25818642.260   101317841.398          50.000  
E 5  24003189.400   126137586.336          50.000    24003193.420    94193641.371          50.000  
E 9  24270743.520   127543599.484          50.000    24270747.360    95243587.148          50.000  
E15  25790222.680   135528500.191          50.000    25790227.860   101206334.648          50.000  
E27  27505706.560   144543420.820          50.000    27505711.800   107938251.797          50.000  
E30  26184317.560   137599465.426          50.000    26184323.100   102752827.605          50.000  
E36  25202567.180   132440345.504          50.000    25202572.120    98900243.973          50.000  
> 2020  7  8 23 27 19.0000000  0 16       0.000000000000
G10  21900029.020   115085384.398          50.000    21900028.800    85940385.250          50.000  
G13  23945603.880   125835044.926          50.000                                                  
G15  21845731.240   114799912.898          50.000                                                  
G16  23169135.060   121754631.469          50.000                                                  
G20  20200263.420   106153105.879          50.000                                                  
G21  22062911.120   115941405.199          50.000                                                  
G26  23281068.980   122342751.496          50.000    23281070.720    91359837.359          50.000  
G27  23631466.160   124184144.000          50.000    23631467.520    92734912.855          50.000  
G29  22785082.460   119736402.102          50.000                                                  
E 3  25818096.400   135674979.590          50.000    25818101.200   101315718.172          50.000  
E 5  24003059.140   126136901.875          50.000    24003063.160    94193130.246          50.000  
E 9  24271104.740   127545497.680          50.000    24271108.580    95245004.629          50.000  
E15  25789838.200   135526479.707          50.000    25789843.380   101204825.844          50.000  
E27  27505843.620   144544140.992          50.000    27505848.840   107938789.586          50.000  
E30  26184769.140   137601838.449          50.000    26184774.660   102754599.668          50.000  
E36  25202849.660   132441829.883          50.000    25202854.600    98901352.438          50.000  
> 2020  7  8 23 27 20.0000000  0 16       0.000000000000
G10  21899623.140   115083251.504          50.000    21899622.920    85938792.504          50.000  
G13  23945966.620   125836951.047          50.000                                                  
G15  21845930.900   114800962.168          50.000                                                  
G16  23169189.820   121754919.227          50.000                                                  
G20  20200177.240   106152652.973          50.000                                                  
G21  22062640.480   115939982.898          50.000                                                  
G26  23281462.740   122344820.629          50.000    23281464.460    91361382.488          50.000  
G27  23630852.800   124180920.836          50.000    23630854.160    92732505.949          50.000  
G29  22785695.680   119739624.609          50.000                                                  
E 3  25817555.380   135672136.500          50.000    25817560.180   101313595.086          50.000  
E 5  24002928.980   126136217.859          50.000    24002933.000    94192619.453          50.000  
E 9  24271466.000   127547396.199          50.000    24271469.860    95246422.355          50.000  
E15  25789453.700   135524459.215          50.000    25789458.900   101203317.035          50.000  
E27  27505980.740   144544861.574          50.000    27505985.960   107939327.684          50.000  
E30  26185220.720   137604211.578          50.000    26185226.260   102756371.809          50.000  
E36  25203132.160   132443314.441          50.000    25203137.100    98902461.035          50.000  
> 2020  7  8 23 27 21.0000000  0 16       0.000000000000
G10  21899217.340   115081118.992          50.000    21899217.120    85937200.043          50.000  
G13  23946329.440   125838857.719          50.000                                                  
G15  21846130.700   114802012.117          50.000                                                  
G16  23169244.700   121755207.617          50.000                                                  
G20  20200091.120   106152200.496          50.000                                                  
G21  22062369.840   115938560.680          50.000                                                  
G26  23281856.540   122346890.102          50.000    23281858.260    91362927.871          50.000  
G27  23630239.500   124177697.887          50.000    23630240.860    92730099.203          50.000  
G29  22786308.960   119742847.426          50.000                                                  
E 3  25817014.380   135669293.566          50.000    25817019.180   101311472.117          50.000  
E 5  24002798.920   126135534.305          50.000    24002802.920    94192109.008          50.000  
E 9  24271827.360   127549295.066          50.000    24271831.200    95247840.340          50.000  
E15  25789069.220   135522438.730          50.000    25789074.400   101201808.234          50.000  
E27  27506117.940   144545582.578          50.000    27506123.180   107939866.094          50.000  
E30  26185672.340   137606584.832          50.000    26185677.880   102758144.039          50.000  
E36  25203414.680   132444799.148          50.000    25203419.620    98903569.746          50.000  
> 2020  7  8 23 27 22.0000000  0 16       0.000000000000
G10  21898811.600   115078986.840          50.000    21898811.380    85935607.855          50.000  
G13  23946692.380   125840764.945          50.000                                                  
G15  21846330.640   114803062.746          50.000                                                  
G16  23169299.700   121755496.633          50.000                                                  
G20  20200005.100   106151748.465          50.000                                                  
G21  22062099.220   115937138.551          50.000                                                  
G26  23282250.420   122348959.926          50.000    23282252.140    91364473.520          50.000  
G27  23629626.240   124174475.164          50.000    23629627.600    92727692.625          50.000  
G29  22786922.300   119746070.559          50.000                                                  
E 3  25816473.420   135666450.840          50.000    25816478.220   101309349.301          50.000  
E 5  24002668.920   126134851.211          50.000    24002672.940    94191598.906          50.000  
E 9  24272188.760   127551194.266          50.000    24272192.620    95249258.574          50.000  
E15  25788684.740   135520418.238          50.000    25788689.920   101200299.426          50.000  
E27  27506255.220   144546304.004          50.000    27506260.460   107940404.820          50.000  
E30  26186123.980   137608958.211          50.000    26186129.520   102759916.367          50.000  
E36  25203697.260   132446284.039          50.000    25203702.200    98904678.590          50.000  
> 2020  7  8 23 27 23.0000000  0 16       0.000000000000
G10  21898405.940   115076855.059          50.000    21898405.720    85934015.938          50.000  
G13  23947055.420   125842672.730          50.000                                                  
G15  21846530.700   114804114.059          50.000                                                  
G16  23169354.820   121755786.277          50.000                                                  
G20  20199919.160   106151296.855          50.000                                                  
G21  22061828.600   115935716.516          50.000                                                  
G26  23282644.360   122351030.078          50.000    23282646.080    91366019.410          50.000  
G27  23629013.020   124171252.672          50.000    23629014.380    92725286.219          50.000  
G29  22787535.700   119749293.992          50.000                                                  
E 3  25815932.500   135663608.262          50.000    25815937.300   101307226.598          50.000  
E 5  24002539.020   126134168.570          50.000    24002543.040    94191089.141          50.000  
E 9  24272550.220   127553093.801          50.000    24272554.080    95250677.055          50.000  
E15  25788300.240   135518397.746          50.000    25788305.440   101198790.613          50.000  
E27  27506392.580   144547025.844          50.000    27506397.820   107940943.859          50.000  
E30  26186575.640   137611331.703          50.000    26186581.180   102761688.777          50.000  
E36  25203979.840   132447769.086          50.000    25203984.780    98905787.555          50.000  
> 2020  7  8 23 27 24.0000000  0 16       0.000000000000
G10  21898000.340   115074723.652          50.000    21898000.120    85932424.305          50.000  
G13  23947418.560   125844581.066          50.000                                                  
G15  21846730.880   114805166.035          50.000                                                  
G16  23169410.040   121756076.543          50.000                                                  
G20  20199833.320   106150845.688          50.000                                                  
G21  22061558.020   115934294.586          50.000                                                  
G26  23283038.360   122353100.586          50.000    23283040.080    91367565.570          50.000  
G27  23628399.840   124168030.391          50.000    23628401.200    92722879.973          50.000  
G29  22788149.160   119752517.738          50.000                                                  
E 3  25815391.620   135660765.883          50.000    25815396.420   101305104.043          50.000  
E 5  24002409.200   126133486.383          50.000    24002413.220    94190579.715          50.000  
E 9  24272911.760   127554993.680          50.000    24272915.620    95252095.793          50.000  
E15  25787915.760   135516377.258          50.000    25787920.940   101197281.809          50.000  
E27  27506530.020   144547748.121          50.000    27506535.260   107941483.219          50.000  
E30  26187027.320   137613705.320          50.000    26187032.860   102763461.281          50.000  
E36  25204262.480   132449254.301          50.000    25204267.420    98906896.641          50.000  
> 2020  7  8 23 27 25.0000000  0 16       0.000000000000
G10  21897594.820   115072592.602          50.000    21897594.600    85930832.938          50.000  
G13  23947781.820   125846489.961          50.000                                                  
G15  21846931.200   114806218.691          50.000                                                  
G16  23169465.400   121756367.422          50.000                                                  
G20  20199747.540   106150394.930          50.000                                                  
G21  22061287.460   115932872.742          50.000                                                  
G26  23283432.420   122355171.434          50.000    23283434.160    91369111.980          50.000  
G27  23627786.700   124164808.336          50.000    23627788.060    92720473.891          50.000  
G29  22788762.680   119755741.797          50.000                                                  
E 3  25814850.760   135657923.668          50.000    25814855.560   101302981.609          50.000  
E 5  24002279.480   126132804.660          50.000    24002283.480    94190070.633          50.000  
E 9  24273273.360   127556893.887          50.000    24273277.220    95253514.781          50.000  
E15  25787531.280   135514356.766          50.000    25787536.460   101195773.000          50.000  
E27  27506667.560   144548470.801          50.000    27506672.780   107942022.879          50.000  
E30  26187479.040   137616079.051          50.000    26187484.560   102765233.875          50.000  
E36  25204545.140   132450739.691          50.000    25204550.080    98908005.863          50.000  
> 2020  7  8 23 27 26.0000000  0 16       0.000000000000
G10  21897189.360   115070461.930          50.000    21897189.140    85929241.852          50.000  
G13  23948145.160   125848399.406          50.000                                                  
G15  21847131.640   114807272.035          50.000                                                  
G16  23169520.880   121756658.930          50.000                                                  
G20  20199661.840   106149944.613          50.000                                                  
G21  22061016.900   115931450.984          50.000                                                  
G26  23283826.560   122357242.621          50.000    23283828.300    91370658.645          50.000  
G27  23627173.600   124161586.500          50.000    23627174.960    92718067.977          50.000  
G29  22789376.260   119758966.164          50.000                                                  
E 3  25814309.940   135655081.648          50.000    25814314.740   101300859.320          50.000  
E 5  24002149.840   126132123.387          50.000    24002153.840    94189561.895          50.000  
E 9  24273635.020   127558794.430          50.000    24273638.880    95254934.016          50.000  
E15  25787146.780   135512336.266          50.000    25787151.960   101194264.184          50.000  
E27  27506805.160   144549193.895          50.000    27506810.380   107942562.852          50.000  
E30  26187930.760   137618452.906          50.000    26187936.300   102767006.555          50.000  
E36  25204827.820   132452225.230          50.000    25204832.760    98909115.191          50.000  
> 2020  7  8 23 27 27.0000000  0 16       0.000000000000
G10  21896783.980   115068331.602          50.000    21896783.760    85927651.020          50.000  
G13  23948508.620   125850309.402          50.000                                                  
G15  21847332.220   114808326.051          50.000                                                  
G16  23169576.460   121756951.066          50.000                                                  
G20  20199576.240   106149494.727          50.000                                                  
G21  22060746.360   115930029.313          50.000                                                  
G26  23284220.760   122359314.152          50.000    23284222.500    91372205.563          50.000  
G27  23626560.540   124158364.887          50.000    23626561.900    92715662.227          50.000  
G29  22789989.900   119762190.840          50.000                                                  
E 3  25813769.160   135652239.785          50.000    25813773.960   101298737.156          50.000  
E 5  24002020.280   126131442.574          50.000    24002024.300    94189053.492          50.000  
E 9  24273996.760   127560695.313          50.000    24274000.600    95256353.504          50.000  
E15  25786762.300   135510315.758          50.000    25786767.480   101192755.367          50.000  
E27  27506942.840   144549917.422          50.000    27506948.060   107943103.148          50.000  
E30  26188382.520   137620826.871          50.000    26188388.060   102768779.320          50.000  
E36  25205110.540   132453710.957          50.000    25205115.500    98910224.660          50.000  
> 2020  7  8 23 27 28.0000000  0 16       0.000000000000
G10  21896378.660   115066201.680          50.000    21896378.440    85926060.492          50.000  
G13  23948872.200   125852219.961          50.000                                                  
G15  21847532.920   114809380.738          50.000                                                  
G16  23169632.180   121757243.824          50.000                                                  
G20  20199490.700   106149045.270          50.000                                                  
G21  22060475.860   115928607.734          50.000                                                  
G26  23284615.020   122361386.035          50.000    23284616.760    91373752.746          50.000  
G27  23625947.540   124155143.496          50.000    23625948.900    92713256.645          50.000  
G29  22790603.600   119765415.824          50.000                                                  
E 3  25813228.400   135649398.117          50.000    25813233.200   101296615.129          50.000  
E 5  24001890.820   126130762.215          50.000    24001894.820    94188545.434          50.000  
E 9  24274358.540   127562596.527          50.000    24274362.400    95257773.242          50.000  
E15  25786377.800   135508295.258          50.000    25786383.000   101191246.551          50.000  
E27  27507080.600   144550641.355          50.000    27507085.840   107943643.746          50.000  
E30  26188834.300   137623200.965          50.000    26188839.820   102770552.180          50.000  
E36  25205393.300   132455196.820          50.000    25205398.240    98911334.234          50.000  
> 2020  7  8 23 27 29.0000000  0 16       0.000000000000
G10  21895973.420   115064072.109          50.000    21895973.200    85924470.230          50.000  
G13  23949235.860   125854131.070          50.000                                                  
G15  21847733.740   114810436.109          50.000                                                  
G16  23169688.000   121757537.215          50.000                                                  
G20  20199405.260   106148596.242          50.000                                                  
G21  22060205.360   115927186.234          50.000                                                  
G26  23285009.360   122363458.250          50.000    23285011.100    91375300.180          50.000  
G27  23625334.560   124151922.328          50.000    23625335.920    92710851.227          50.000  
G29  22791217.340   119768641.129          50.000                                                  
E 3  25812687.680   135646556.613          50.000    25812692.480   101294493.227          50.000  
E 5  24001761.440   126130082.309          50.000    24001765.440    94188037.711          50.000  
E 9  24274720.400   127564498.086          50.000    24274724.240    95259193.238          50.000  
E15  25785993.320   135506274.758          50.000    25785998.500   101189737.734          50.000  
E27  27507218.440   144551365.715          50.000    27507223.680   107944184.660          50.000  
E30  26189286.100   137625575.172          50.000    26189291.620   102772325.125          50.000  
E36  25205676.080   132456682.867          50.000    25205681.020    98912443.941          50.000  
> 2020  7  8 23 27 30.0000000  0 16       0.000000000000
G10  21895568.240   115061942.906          50.000    21895568.020    85922880.242          50.000  
G13  23949599.640   125856042.734          50.000                                                  
G15  21847934.700   114811492.156          50.000                                                  
G16  23169743.940   121757831.199          50.000                                                  
G20  20199319.900   106148147.652          50.000                                                  
G21  22059934.860   115925764.840          50.000                                                  
G26  23285403.760   122365530.816          50.000    23285405.480    91376847.875          50.000  
G27  23624721.640   124148701.387          50.000    23624723.000    92708445.977          50.000  
G29  22791831.160   119771866.730          50.000                                                  
E 3  25812147.000   135643715.313          50.000    25812151.800   101292371.477          50.000  
E 5  24001632.140   126129402.875          50.000    24001636.160    94187530.340          50.000  
E 9  24275082.320   127566399.980          50.000    24275086.160    95260613.480          50.000  
E15  25785608.820   135504254.258          50.000    25785614.020   101188228.922          50.000  
E27  27507356.360   144552090.496          50.000    27507361.600   107944725.895          50.000  
E30  26189737.920   137627949.504          50.000    26189743.440   102774098.164          50.000  
E36  25205958.900   132458169.090          50.000    25205963.840    98913553.785          50.000  
> 2020  7  8 23 27 31.0000000  0 16       0.000000000000
G10  21895163.140   115059814.086          50.000    21895162.920    85921290.539          50.000  
G13  23949963.540   125857954.949          50.000                                                  
G15  21848135.800   114812548.883          50.000                                                  
G16  23169800.020   121758125.832          50.000                                                  
G20  20199234.620   106147699.496          50.000                                                  
G21  22059664.400   115924343.520          50.000                                                  
G26  23285798.220   122367603.723          50.000    23285799.960    91378395.820          50.000  
G27  23624108.760   124145480.664          50.000    23624110.120    92706040.895          50.000  
G29  22792445.040   119775092.648          50.000                                                  
E 3  25811606.340   135640874.168          50.000    25811611.140   101290249.844          50.000  
E 5  24001502.940   126128723.883          50.000    24001506.940    94187023.301          50.000  
E 9  24275444.300   127568302.211          50.000    24275448.160    95262033.977          50.000  
E15  25785224.340   135502233.742          50.000    25785229.520   101186720.094          50.000  
E27  27507494.360   144552815.695          50.000    27507499.600   107945267.438          50.000  
E30  26190189.760   137630323.949          50.000    26190195.300   102775871.289          50.000  
E36  25206241.760   132459655.473          50.000    25206246.700    98914663.746          50.000  
> 2020  7  8 23 27 32.0000000  0 16       0.000000000000
G10  21894758.120   115057685.617          50.000    21894757.880    85919701.098          50.000  
G13  23950327.520   125859867.723          50.000                                                  
G15  21848337.000   114813606.281          50.000                                                  
G16  23169856.200   121758421.082          50.000                                                  
G20  20199149.420   106147251.762          50.000                                                  
G21  22059393.960   115922922.301          50.000                                                  
G26  23286192.740   122369676.965          50.000    23286194.480    91379944.020          50.000  
G27  23623495.920   124142260.176          50.000    23623497.280    92703635.984          50.000  
G29  22793058.960   119778318.875          50.000                                                  
E 3  25811065.720   135638033.211          50.000    25811070.520   101288128.352          50.000  
E 5  24001373.820   126128045.359          50.000    24001377.820    94186516.613          50.000  
E 9  24275806.340   127570204.781          50.000    24275810.200    95263454.730          50.000  
E15  25784839.840   135500213.238          50.000    25784845.040   101185211.277          50.000  
E27  27507632.440   144553541.313          50.000    27507637.680   107945809.293          50.000  
E30  26190641.620   137632698.520          50.000    26190647.160   102777644.504          50.000  
E36  25206524.640   132461142.023          50.000    25206529.580    98915773.832          50.000  
> 2020  7  8 23 27 33.0000000  0 16       0.000000000000
G10  21894353.140   115055557.523          50.000    21894352.920    85918111.938          50.000  
G13  23950691.620   125861781.043          50.000                                                  
G15  21848538.360   114814664.367          50.000                                                  
G16  23169912.500   121758716.941          50.000                                                  
G20  20199064.300   106146804.461          50.000                                                  
G21  22059123.520   115921501.160          50.000                                                  
G26  23286587.340   122371750.551          50.000    23286589.060    91381492.477          50.000  
G27  23622883.120   124139039.898          50.000    23622884.480    92701231.230          50.000  
G29  22793672.960   119781545.410          50.000                                                  
E 3  25810525.140   135635192.426          50.000    25810529.940   101286006.984          50.000  
E 5  24001244.780   126127367.281          50.000    24001248.780    94186010.254          50.000  
E 9  24276168.460   127572107.684          50.000    24276172.300    95264875.723          50.000  
E15  25784455.360   135498192.734          50.000    25784460.540   101183702.457          50.000  
E27  27507770.600   144554267.355          50.000    27507775.840   107946351.469          50.000  
E30  26191093.520   137635073.211          50.000    26191099.040   102779417.813          50.000  
E36  25206807.540   132462628.734          50.000    25206812.500    98916884.035          50.000  
> 2020  7  8 23 27 34.0000000  0 16       0.000000000000
G10  21893948.260   115053429.801          50.000    21893948.040    85916523.055          50.000  
G13  23951055.820   125863694.918          50.000                                                  
G15  21848739.820   114815723.117          50.000                                                  
G16  23169968.920   121759013.434          50.000                                                  
G20  20198979.260   106146357.594          50.000                                                  
G21  22058853.100   115920080.113          50.000                                                  
G26  23286982.000   122373824.480          50.000    23286983.720    91383041.188          50.000  
G27  23622270.360   124135819.848          50.000    23622271.720    92698826.648          50.000  
G29  22794287.000   119784772.258          50.000                                                  
E 3  25809984.600   135632351.828          50.000    25809989.400   101283885.762          50.000  
E 5  24001115.840   126126689.656          50.000    24001119.840    94185504.238          50.000  
E 9  24276530.640   127574010.922          50.000    24276534.480    95266296.973          50.000  
E15  25784070.860   135496172.219          50.000    25784076.060   101182193.633          50.000  
E27  27507908.840   144554993.813          50.000    27507914.080   107946893.949          50.000  
E30  26191545.420   137637448.012          50.000    26191550.960   102781191.199          50.000  
E36  25207090.500   132464115.605          50.000    25207095.440    98917994.363          50.000  
> 2020  7  8 23 27 35.0000000  0 16       0.000000000000
G10  21893543.440   115051302.445          50.000    21893543.200    85914934.445          50.000  
G13  23951420.120   125865609.348          50.000                                                  
G15  21848941.440   114816782.555          50.000                                                  
G16  23170025.460   121759310.559          50.000                                                  
G20  20198894.300   106145911.156          50.000                                                  
G21  22058582.700   115918659.152          50.000                                                  
G26  23287376.720   122375898.746          50.000    23287378.440    91384590.148          50.000  
G27  23621657.660   124132600.027          50.000    23621659.020    92696422.238          50.000  
G29  22794901.120   119787999.422          50.000                                                  
E 3  25809444.080   135629511.402          50.000    25809448.880   101281764.664          50.000  
E 5  24000986.980   126126012.500          50.000    24000990.980    94184998.566          50.000  
E 9  24276892.860   127575914.492          50.000    24276896.720    95267718.469          50.000  
E15  25783686.380   135494151.703          50.000    25783691.560   101180684.805          50.000  
E27  27508047.160   144555720.691          50.000    27508052.400   107947436.750          50.000  
E30  26191997.360   137639822.945          50.000    26192002.900   102782964.688          50.000  
E36  25207373.460   132465602.652          50.000    25207378.420    98919104.816          50.000  
> 2020  7  8 23 27 36.0000000  0 16       0.000000000000
G10  21893138.680   115049175.461          50.000    21893138.460    85913346.113          50.000  
G13  23951784.520   125867524.332          50.000                                                  
G15  21849143.160   114817842.664          50.000                                                  
G16  23170082.120   121759608.297          50.000                                                  
G20  20198809.440   106145465.152          50.000                                                  
G21  22058312.320   115917238.277          50.000                                                  
G26  23287771.500   122377973.352          50.000    23287773.240    91386139.367          50.000  
G27  23621044.980   124129380.434          50.000    23621046.340    92694018.000          50.000  
G29  22795515.280   119791226.887          50.000                                                  
E 3  25808903.600   135626671.164          50.000    25808908.400   101279643.707          50.000  
E 5  24000858.200   126125335.789          50.000    24000862.220    94184493.230          50.000  
E 9  24277255.180   127577818.402          50.000    24277259.020    95269140.223          50.000  
E15  25783301.880   135492131.195          50.000    25783307.080   101179175.984          50.000  
E27  27508185.560   144556447.984          50.000    27508190.800   107947979.859          50.000  
E30  26192449.320   137642197.992          50.000    26192454.860   102784738.258          50.000  
E36  25207656.480   132467089.875          50.000    25207661.420    98920215.406          50.000  
> 2020  7  8 23 27 37.0000000  0 16       0.000000000000
G10  21892734.000   115047048.832          50.000    21892733.780    85911758.047          50.000  
G13  23952149.040   125869439.867          50.000                                                  
G15  21849345.020   114818903.453          50.000                                                  
G16  23170138.900   121759906.664          50.000                                                  
G20  20198724.640   106145019.566          50.000                                                  
G21  22058041.960   115915817.492          50.000                                                  
G26  23288166.360   122380048.305          50.000    23288168.080    91387688.844          50.000  
G27  23620432.360   124126161.047          50.000    23620433.720    92691613.910          50.000  
G29  22796129.500   119794454.660          50.000                                                  
E 3  25808363.160   135623831.109          50.000    25808367.960   101277522.887          50.000  
E 5  24000729.520   126124659.543          50.000    24000733.520    94183988.242          50.000  
E 9  24277617.540   127579722.652          50.000    24277621.400    95270562.227          50.000  
E15  25782917.400   135490110.680          50.000    25782922.580   101177667.160          50.000  
E27  27508324.040   144557175.691          50.000    27508329.280   107948523.273          50.000  
E30  26192901.300   137644573.152          50.000    26192906.840   102786511.918          50.000  
E36  25207939.520   132468577.250          50.000    25207944.460    98921326.105          50.000  
> 2020  7  8 23 27 38.0000000  0 16       0.000000000000
G10  21892329.380   115044922.582          50.000    21892329.160    85910170.262          50.000  
G13  23952513.660   125871355.961          50.000                                                  
G15  21849547.020   114819964.922          50.000                                                  
G16  23170195.800   121760205.660          50.000                                                  
G20  20198639.940   106144574.418          50.000                                                  
G21  22057771.600   115914396.797          50.000                                                  
G26  23288561.260   122382123.586          50.000    23288563.000    91389238.566          50.000  
G27  23619819.780   124122941.887          50.000    23619821.120    92689209.992          50.000  
G29  22796743.800   119797682.750          50.000                                                  
E 3  25807822.740   135620991.211          50.000    25807827.540   101275402.184          50.000  
E 5  24000600.920   126123983.746          50.000    24000604.920    94183483.590          50.000  
E 9  24277979.960   127581627.227          50.000    24277983.820    95271984.473          50.000  
E15  25782532.900   135488090.168          50.000    25782538.080   101176158.336          50.000  
E27  27508462.600   144557903.832          50.000    27508467.840   107949067.012          50.000  
E30  26193353.300   137646948.430          50.000    26193358.840   102788285.660          50.000  
E36  25208222.580   132470064.785          50.000    25208227.540    98922436.930          50.000  
> 2020  7  8 23 27 39.0000000  0 16       0.000000000000
G10  21891924.840   115042796.707          50.000    21891924.620    85908582.758          50.000  
G13  23952878.400   125873272.609          50.000                                                  
G15  21849749.140   114821027.063          50.000                                                  
G16  23170252.820   121760505.273          50.000                                                  
G20  20198555.300   106144129.707          50.000                                                  
G21  22057501.260   115912976.191          50.000                                                  
G26  23288956.240   122384199.234          50.000    23288957.980    91390788.563          50.000  
G27  23619207.220   124119722.953          50.000    23619208.580    92686806.246          50.000  
G29  22797358.140   119800911.152          50.000                                                  
E 3  25807282.360   135618151.508          50.000    25807287.160   101273281.629          50.000  
E 5  24000472.400   126123308.414          50.000    24000476.420    94182979.281          50.000  
E 9  24278342.460   127583532.145          50.000    24278346.320    95273406.973          50.000  
E15  25782148.420   135486069.641          50.000    25782153.600   101174649.500          50.000  
E27  27508601.240   144558632.379          50.000    27508606.480   107949611.059          50.000  
E30  26193805.320   137649323.832          50.000    26193810.860   102790059.500          50.000  
E36  25208505.680   132471552.500          50.000    25208510.640    98923547.883          50.000  
> 2020  7  8 23 27 40.0000000  0 16       0.000000000000
G10  21891520.380   115040671.195          50.000    21891520.140    85906995.523          50.000  
G13  23953243.220   125875189.809          50.000                                                  
G15  21849951.380   114822089.883          50.000                                                  
G16  23170309.940   121760805.516          50.000                                                  
G20  20198470.760   106143685.418          50.000                                                  
G21  22057230.960   115911555.668          50.000                                                  
G26  23289351.300   122386275.207          50.000    23289353.020    91392338.801          50.000  
G27  23618594.720   124116504.242          50.000    23618596.080    92684402.664          50.000  
G29  22797972.540   119804139.867          50.000                                                  
E 3  25806742.020   135615311.977          50.000    25806746.820   101271161.199          50.000  
E 5  24000343.980   126122633.543          50.000    24000348.000    94182475.320          50.000  
E 9  24278705.020   127585437.402          50.000    24278708.880    95274829.730          50.000  
E15  25781763.920   135484049.125          50.000    25781769.100   101173140.672          50.000  
E27  27508739.960   144559361.352          50.000    27508745.200   107950155.418          50.000  
E30  26194257.360   137651699.355          50.000    26194262.900   102791833.430          50.000  
E36  25208788.820   132473040.383          50.000    25208793.780    98924658.961          50.000  
> 2020  7  8 23 27 41.0000000  0 16       0.000000000000
G10  21891115.980   115038546.055          50.000    21891115.740    85905408.570          50.000  
G13  23953608.160   125877107.559          50.000                                                  
G15  21850153.760   114823153.398          50.000                                                  
G16  23170367.200   121761106.375          50.000                                                  
G20  20198386.300   106143241.566          50.000                                                  
G21  22056960.660   115910135.238          50.000                                                  
G26  23289746.400   122388351.508          50.000    23289748.140    91393889.281          50.000  
G27  23617982.260   124113285.766          50.000    23617983.620    92681999.254          50.000  
G29  22798587.000   119807368.879          50.000                                                  
E 3  25806201.700   135612472.625          50.000    25806206.500   101269040.902          50.000  
E 5  24000215.640   126121959.121          50.000    24000219.660    94181971.695          50.000  
E 9  24279067.640   127587342.988          50.000    24279071.500    95276252.730          50.000  
E15  25781379.420   135482028.598          50.000    25781384.600   101171631.836          50.000  
E27  27508878.760   144560090.734          50.000    27508884.000   107950700.086          50.000  
E30  26194709.440   137654074.988          50.000    26194714.980   102793607.438          50.000  
E36  25209072.000   132474528.430          50.000    25209076.940    98925770.168          50.000  
> 2020  7  8 23 27 42.0000000  0 16       0.000000000000
G10  21890711.640   115036421.285          50.000    21890711.420    85903821.891          50.000  
G13  23953973.200   125879025.867          50.000                                                  
G15  21850356.280   114824217.574          50.000                                                  
G16  23170424.560   121761407.852          50.000                                                  
G20  20198301.920   106142798.141          50.000                                                  
G21  22056690.380   115908714.895          50.000                                                  
G26  23290141.580   122390428.168          50.000    23290143.320    91395440.035          50.000  
G27  23617369.860   124110067.500          50.000    23617371.200    92679596.004          50.000  
G29  22799201.520   119810598.203          50.000                                                  
E 3  25805661.440   135609633.465          50.000    25805666.240   101266920.750          50.000  
E 5  24000087.380   126121285.156          50.000    24000091.400    94181468.410          50.000  
E 9  24279430.320   127589248.910          50.000    24279434.180    95277675.984          50.000  
E15  25780994.940   135480008.074          50.000    25781000.120   101170123.004          50.000  
E27  27509017.640   144560820.531          50.000    27509022.880   107951245.066          50.000  
E30  26195161.520   137656450.738          50.000    26195167.060   102795381.535          50.000  
E36  25209355.180   132476016.633          50.000    25209360.140    98926881.484          50.000  
> 2020  7  8 23 27 43.0000000  0 16       0.000000000000
G10  21890307.380   115034296.867          50.000    21890307.160    85902235.477          50.000  
G13  23954338.360   125880944.727          50.000                                                  
G15  21850558.900   114825282.422          50.000                                                  
G16  23170482.060   121761709.957          50.000                                                  
G20  20198217.620   106142355.137          50.000                                                  
G21  22056420.100   115907294.645          50.000                                                  
G26  23290536.820   122392505.172          50.000    23290538.560    91396991.043          50.000  
G27  23616757.480   124106849.465          50.000    23616758.840    92677192.930          50.000  
G29  22799816.100   119813827.840          50.000                                                  
E 3  25805121.200   135606794.477          50.000    25805125.980   101264800.727          50.000  
E 5  23999959.220   126120611.645          50.000    23999963.240    94180965.461          50.000  
E 9  24279793.080   127591155.176          50.000    24279796.940    95279099.492          50.000  
E15  25780610.440   135477987.551          50.000    25780615.620   101168614.172          50.000  
E27  27509156.600   144561550.758          50.000    27509161.840   107951790.359          50.000  
E30  26195613.640   137658826.609          50.000    26195619.180   102797155.723          50.000  
E36  25209638.420   132477505.020          50.000    25209643.360    98927992.941          50.000  
> 2020  7  8 23 27 44.0000000  0 16       0.000000000000
G10  21889903.200   115032172.824          50.000    21889902.960    85900649.328          50.000  
G13  23954703.580   125882864.301          50.000                                                  
G15  21850761.680   114826347.883          50.000                                                  
G16  23170539.680   121762012.621          50.000                                                  
G20  20198133.420   106141912.504          50.000                                                  
G21  22056149.860   115905874.492          50.000                                                  
G26  23290932.120   122394582.527          50.000    23290933.860    91398542.313          50.000  
G27  23616145.140   124103631.758          50.000    23616146.480    92674790.148          50.000  
G29  22800430.740   119817057.891          50.000                                                  
E 3  25804581.020   135603955.488          50.000    25804585.840   101262680.594          50.000  
E 5  23999831.160   126119938.551          50.000    23999835.180    94180462.793          50.000  
E 9  24280155.900   127593061.785          50.000    24280159.740    95280523.258          50.000  
E15  25780225.940   135475967.082          50.000    25780231.120   101167105.410          50.000  
E27  27509295.640   144562281.438          50.000    27509300.880   107952336.004          50.000  
E30  26196065.740   137661202.824          50.000    26196071.260   102798930.285          50.000  
E36  25209921.680   132478993.543          50.000    25209926.640    98929104.477          50.000  
> 2020  7  8 23 27 45.0000000  0 16       0.000000000000
G10  21889499.080   115030049.160          50.000    21889498.840    85899063.477          50.000  
G13  23955068.940   125884784.273          50.000                                                  
G15  21850964.580   114827414.090          50.000                                                  
G16  23170597.420   121762315.984          50.000                                                  
G20  20198049.280   106141470.371          50.000                                                  
G21  22055879.620   115904454.422          50.000                                                  
G26  23291327.500   122396660.211          50.000    23291329.240    91400093.828          50.000  
G27  23615532.840   124100414.176          50.000    23615534.180    92672387.406          50.000  
G29  22801045.420   119820288.148          50.000                                                  
E 3  25804040.840   135601116.867          50.000    25804045.680   101260560.844          50.000  
E 5  23999703.160   126119265.961          50.000    23999707.180    94179960.535          50.000  
E 9  24280518.760   127594968.719          50.000    24280522.620    95281947.270          50.000  
E15  25779841.440   135473946.555          50.000    25779846.620   101165596.574          50.000  
E27  27509434.760   144563012.500          50.000    27509439.980   107952881.930          50.000  
E30  26196517.900   137663578.934          50.000    26196523.420   102800704.652          50.000  
E36  25210204.980   132480482.258          50.000    25210209.940    98930216.184          50.000  
> 2020  7  8 23 27 46.0000000  0 16       0.000000000000
G10  21889095.020   115027925.871          50.000    21889094.800    85897477.902          50.000  
G13  23955434.400   125886704.801          50.000                                                  
G15  21851167.600   114828480.977          50.000                                                  
G16  23170655.260   121762619.957          50.000                                                  
G20  20197965.220   106141028.668          50.000                                                  
G21  22055609.420   115903034.445          50.000                                                  
G26  23291722.920   122398738.242          50.000    23291724.660    91401645.602          50.000  
G27  23614920.600   124097196.820          50.000    23614921.940    92669984.840          50.000  
G29  22801660.180   119823518.715          50.000                                                  
E 3  25803500.700   135598278.426          50.000    25803505.540   101258441.230          50.000  
E 5  23999575.260   126118593.828          50.000    23999579.280    94179458.617          50.000  
E 9  24280881.720   127596876.000          50.000    24280885.560    95283371.535          50.000  
E15  25779456.940   135471926.031          50.000    25779462.120   101164087.742          50.000  
E27  27509573.940   144563743.984          50.000    27509579.180   107953428.168          50.000  
E30  26196970.080   137665955.176          50.000    26196975.600   102802479.117          50.000  
E36  25210488.300   132481971.145          50.000    25210493.260    98931328.012          50.000  
> 2020  7  8 23 27 47.0000000  0 16       0.000000000000
G10  21888691.040   115025802.949          50.000    21888690.820    85895892.605          50.000  
G13  23955799.960   125888625.875          50.000                                                  
G15  21851370.740   114829548.539          50.000                                                  
G16  23170713.220   121762924.566          50.000                                                  
G20  20197881.260   106140587.391          50.000                                                  
G21  22055339.220   115901614.551          50.000                                                  
G26  23292118.420   122400816.609          50.000    23292120.160    91403197.633          50.000  
G27  23614308.400   124093979.688          50.000    23614309.740    92667582.434          50.000  
G29  22802275.000   119826749.605          50.000                                                  
E 3  25802960.600   135595440.168          50.000    25802965.420   101256321.754          50.000  
E 5  23999447.440   126117922.156          50.000    23999451.460    94178957.047          50.000  
E 9  24281244.720   127598783.605          50.000    24281248.580    95284796.047          50.000  
E15  25779072.460   135469905.504          50.000    25779077.620   101162578.906          50.000  
E27  27509713.220   144564475.898          50.000    27509718.460   107953974.723          50.000  
E30  26197422.280   137668331.531          50.000    26197427.800   102804253.668          50.000  
E36  25210771.660   132483460.184          50.000    25210776.600    98932439.957          50.000  
> 2020  7  8 23 27 48.0000000  0 16       0.000000000000
G10  21888287.120   115023680.391          50.000    21888286.900    85894307.578          50.000  
G13  23956165.640   125890547.516          50.000                                                  
G15  21851574.020   114830616.777          50.000                                                  
G16  23170771.300   121763229.785          50.000                                                  
G20  20197797.360   106140146.551          50.000                                                  
G21  22055069.040   115900194.754          50.000                                                  
G26  23292514.000   122402895.320          50.000    23292515.720    91404749.914          50.000  
G27  23613696.240   124090762.777          50.000    23613697.580    92665180.199          50.000  
G29  22802889.880   119829980.793          50.000                                                  
E 3  25802420.540   135592602.086          50.000    25802425.360   101254202.410          50.000  
E 5  23999319.720   126117250.945          50.000    23999323.740    94178455.816          50.000  
E 9  24281607.780   127600691.551          50.000    24281611.640    95286220.809          50.000  
E15  25778687.960   135467884.977          50.000    25778693.140   101161070.070          50.000  
E27  27509852.580   144565208.227          50.000    27509857.820   107954521.590          50.000  
E30  26197874.520   137670708.000          50.000    26197880.020   102806028.305          50.000  
E36  25211055.040   132484949.418          50.000    25211060.000    98933552.047          50.000  
> 2020  7  8 23 27 49.0000000  0 16       0.000000000000
G10  21887883.280   115021558.203          50.000    21887883.060    85892722.828          50.000  
G13  23956531.420   125892469.703          50.000                                                  
G15  21851777.420   114831685.691          50.000                                                  
G16  23170829.500   121763535.617          50.000                                                  
G20  20197713.560   106139706.141          50.000                                                  
G21  22054798.860   115898775.031          50.000                                                  
G26  23292909.620   122404974.359          50.000    23292911.360    91406302.441          50.000  
G27  23613084.120   124087546.094          50.000    23613085.460    92662778.133          50.000  
G29  22803504.800   119833212.285          50.000                                                  
E 3  25801880.500   135589764.180          50.000    25801885.320   101252083.191          50.000  
E 5  23999192.080   126116580.184          50.000    23999196.080    94177954.926          50.000  
E 9  24281970.920   127602599.836          50.000    24281974.780    95287645.828          50.000  
E15  25778303.460   135465864.461          50.000    25778308.640   101159561.246          50.000  
E27  27509992.020   144565940.969          50.000    27509997.240   107955068.770          50.000  
E30  26198326.760   137673084.594          50.000    26198332.280   102807803.027          50.000  
E36  25211338.460   132486438.801          50.000    25211343.420    98934664.246          50.000  
> 2020  7  8 23 27 50.0000000  0 16       0.000000000000
G10  21887479.520   115019436.387          50.000    21887479.280    85891138.355          50.000  
G13  23956897.300   125894392.438          50.000                                                  
G15  21851980.960   114832755.281          50.000                                                  
G16  23170887.800   121763842.090          50.000                                                  
G20  20197629.820   106139266.156          50.000                                                  
G21  22054528.720   115897355.402          50.000                                                  
G26  23293305.300   122407053.742          50.000    23293307.040    91407855.227          50.000  
G27  23612472.040   124084329.637          50.000    23612473.380    92660376.234          50.000  
G29  22804119.800   119836444.094          50.000                                                  
E 3  25801340.480   135586926.445          50.000    25801345.300   101249964.105          50.000  
E 5  23999064.520   126115909.879          50.000    23999068.540    94177454.371          50.000  
E 9  24282334.100   127604508.441          50.000    24282337.960    95289071.086          50.000  
E15  25777918.960   135463843.922          50.000    25777924.140   101158052.402          50.000  
E27  27510131.520   144566674.129          50.000    27510136.760   107955616.258          50.000  
E30  26198779.040   137675461.285          50.000    26198784.540   102809577.832          50.000  
E36  25211621.920   132487928.355          50.000    25211626.860    98935776.574          50.000  
> 2020  7  8 23 27 51.0000000  0 16       0.000000000000
G10  21887075.820   115017314.938          50.000    21887075.580    85889554.156          50.000  
G13  23957263.300   125896315.734          50.000                                                  
G15  21852184.620   114833825.547          50.000                                                  
G16  23170946.240   121764149.172          50.000                                                  
G20  20197546.180   106138826.609          50.000                                                  
G21  22054258.580   115895935.863          50.000                                                  
G26  23293701.060   122409133.477          50.000    23293702.800    91409408.273          50.000  
G27  23611860.020   124081113.398          50.000    23611861.360    92657974.500          50.000  
G29  22804734.840   119839676.215          50.000                                                  
E 3  25800800.520   135584088.914          50.000    25800805.340   101247845.172          50.000  
E 5  23998937.040   126115240.031          50.000    23998941.060    94176954.160          50.000  
E 9  24282697.360   127606417.398          50.000    24282701.220    95290496.605          50.000  
E15  25777534.460   135461823.391          50.000    25777539.640   101156543.566          50.000  
E27  27510271.120   144567407.707          50.000    27510276.360   107956164.063          50.000  
E30  26199231.320   137677838.117          50.000    26199236.840   102811352.734          50.000  
E36  25211905.400   132489418.063          50.000    25211910.340    98936889.020          50.000  
> 2020  7  8 23 27 52.0000000  0 16       0.000000000000
G10  21886672.180   115015193.855          50.000    21886671.960    85887970.234          50.000  
G13  23957629.380   125898239.578          50.000                                                  
G15  21852388.420   114834896.496          50.000                                                  
G16  23171004.800   121764456.891          50.000                                                  
G20  20197462.620   106138387.496          50.000                                                  
G21  22053988.480   115894516.418          50.000                                                  
G26  23294096.880   122411213.539          50.000    23294098.620    91410961.566          50.000  
G27  23611248.020   124077897.387          50.000    23611249.360    92655572.934          50.000  
G29  22805349.960   119842908.648          50.000                                                  
E 3  25800260.580   135581251.539          50.000    25800265.400   101245726.355          50.000  
E 5  23998809.660   126114570.641          50.000    23998813.680    94176454.293          50.000  
E 9  24283060.700   127608326.684          50.000    24283064.540    95291922.367          50.000  
E15  25777149.980   135459802.855          50.000    25777155.140   101155034.727          50.000  
E27  27510410.800   144568141.707          50.000    27510416.040   107956712.176          50.000  
E30  26199683.640   137680215.059          50.000    26199689.160   102813127.727          50.000  
E36  25212188.920   132490907.957          50.000    25212193.860    98938001.602          50.000  
> 2020  7  8 23 27 53.0000000  0 16       0.000000000000
G10  21886268.620   115013073.152          50.000    21886268.400    85886386.590          50.000  
G13  23957995.580   125900163.973          50.000                                                  
G15  21852592.340   114835968.125          50.000                                                  
G16  23171063.460   121764765.219          50.000                                                  
G20  20197379.140   106137948.813          50.000                                                  
G21  22053718.380   115893097.059          50.000                                                  
G26  23294492.780   122413293.945          50.000    23294494.520    91412515.113          50.000  
G27  23610636.080   124074681.617          50.000    23610637.420    92653171.547          50.000  
G29  22805965.120   119846141.391          50.000                                                  
E 3  25799720.680   135578414.352          50.000    25799725.500   101243607.676          50.000  
E 5  23998682.360   126113901.715          50.000    23998686.380    94175954.770          50.000  
E 9  24283424.080   127610236.301          50.000    24283427.940    95293348.383          50.000  
E15  25776765.480   135457782.324          50.000    25776770.640   101153525.887          50.000  
E27  27510550.540   144568876.121          50.000    27510555.780   107957260.602          50.000  
E30  26200135.980   137682592.113          50.000    26200141.500   102814902.797          50.000  
E36  25212472.460   132492398.016          50.000    25212477.420    98939114.305          50.000  
> 2020  7  8 23 27 54.0000000  0 16       0.000000000000
G10  21885865.140   115010952.809          50.000    21885864.900    85884803.219          50.000  
G13  23958361.880   125902088.922          50.000                                                  
G15  21852796.380   114837040.426          50.000                                                  
G16  23171122.260   121765074.180          50.000                                                  
G20  20197295.740   106137510.559          50.000                                                  
G21  22053448.300   115891677.797          50.000                                                  
G26  23294888.720   122415374.695          50.000    23294890.460    91414068.922          50.000  
G27  23610024.180   124071466.059          50.000    23610025.520    92650770.320          50.000  
G29  22806580.360   119849374.430          50.000                                                  
E 3  25799180.820   135575577.359          50.000    25799185.640   101241489.141          50.000  
E 5  23998555.160   126113233.238          50.000    23998559.180    94175455.582          50.000  
E 9  24283787.540   127612146.266          50.000    24283791.380    95294774.656          50.000  
E15  25776380.980   135455761.789          50.000    25776386.160   101152017.047          50.000  
E27  27510690.380   144569610.965          50.000    27510695.620   107957809.348          50.000  
E30  26200588.340   137684969.297          50.000    26200593.860   102816677.965          50.000  
E36  25212756.040   132493888.234          50.000    25212761.000    98940227.133          50.000  
> 2020  7  8 23 27 55.0000000  0 16       0.000000000000
G10  21885461.720   115008832.836          50.000    21885461.480    85883220.125          50.000  
G13  23958728.300   125904014.426          50.000                                                  
G15  21853000.560   114838113.402          50.000                                                  
G16  23171181.180   121765383.762          50.000                                                  
G20  20197212.420   106137072.734          50.000                                                  
G21  22053178.240   115890258.621          50.000                                                  
G26  23295284.740   122417455.777          50.000    23295286.480    91415622.977          50.000  
G27  23609412.320   124068250.723          50.000    23609413.660    92648369.258          50.000  
G29  22807195.640   119852607.793          50.000                                                  
E 3  25798640.980   135572740.527          50.000    25798645.800   101239370.730          50.000  
E 5  23998428.040   126112565.215          50.000    23998432.060    94174956.734          50.000  
E 9  24284151.040   127614056.551          50.000    24284154.900    95296201.168          50.000  
E15  25775996.480   135453741.254          50.000    25776001.660   101150508.207          50.000  
E27  27510830.300   144570346.211          50.000    27510835.520   107958358.395          50.000  
E30  26201040.720   137687346.578          50.000    26201046.240   102818453.207          50.000  
E36  25213039.640   132495378.613          50.000    25213044.600    98941340.078          50.000  
> 2020  7  8 23 27 56.0000000  0 16       0.000000000000
G10  21885058.360   115006713.250          50.000    21885058.140    85881637.316          50.000  
G13  23959094.820   125905940.477          50.000                                                  
G15  21853204.880   114839187.051          50.000                                                  
G16  23171240.200   121765693.941          50.000                                                  
G20  20197129.180   106136635.336          50.000                                                  
G21  22052908.180   115888839.527          50.000                                                  
G26  23295680.820   122419537.199          50.000    23295682.560    91417177.281          50.000  
G27  23608800.500   124065035.605          50.000    23608801.840    92645968.359          50.000  
G29  22807810.980   119855841.461          50.000                                                  
E 3  25798101.180   135569903.879          50.000    25798106.000   101237252.453          50.000  
E 5  23998301.000   126111897.652          50.000    23998305.020    94174458.230          50.000  
E 9  24284514.620   127615967.184          50.000    24284518.480    95297627.934          50.000  
E15  25775611.980   135451720.715          50.000    25775617.160   101148999.363          50.000  
E27  27510970.280   144571081.891          50.000    27510975.520   107958907.766          50.000  
E30  26201493.120   137689723.992          50.000    26201498.640   102820228.551          50.000  
E36  25213323.280   132496869.172          50.000    25213328.240    98942453.156          50.000  
> 2020  7  8 23 27 57.0000000  0 16       0.000000000000
G10  21884655.080   115004594.020          50.000    21884654.860    85880054.777          50.000  
G13  23959461.440   125907867.082          50.000                                                  
G15  21853409.320   114840261.375          50.000                                                  
G16  23171299.340   121766004.770          50.000                                                  
G20  20197046.020   106136198.371          50.000                                                  
G21  22052638.160   115887420.527          50.000                                                  
G26  23296076.960   122421618.961          50.000    23296078.700    91418731.844          50.000  
G27  23608188.720   124061820.723          50.000    23608190.060    92643567.633          50.000  
G29  22808426.380   119859075.430          50.000                                                  
E 3  25797561.420   135567067.422          50.000    25797566.240   101235134.324          50.000  
E 5  23998174.060   126111230.543          50.000    23998178.060    94173960.063          50.000  
E 9  24284878.260   127617878.145          50.000    24284882.120    95299054.953          50.000  
E15  25775227.480   135449700.180          50.000    25775232.660   101147490.523          50.000  
E27  27511110.360   144571817.980          50.000    27511115.600   107959457.441          50.000  
E30  26201945.560   137692101.523          50.000    26201951.060   102822003.977          50.000  
E36  25213606.960   132498359.883          50.000    25213611.920    98943566.352          50.000  
> 2020  7  8 23 27 58.0000000  0 16       0.000000000000
G10  21884251.880   115002475.141          50.000    21884251.640    85878472.500          50.000  
G13  23959828.160   125909794.238          50.000                                                  
G15  21853613.880   114841336.379          50.000                                                  
G16  23171358.600   121766316.215          50.000                                                  
G20  20196962.960   106135761.844          50.000                                                  
G21  22052368.140   115886001.625          50.000                                                  
G26  23296473.180   122423701.059          50.000    23296474.920    91420286.656          50.000  
G27  23607577.000   124058606.059          50.000    23607578.320    92641167.074          50.000  
G29  22809041.860   119862309.723          50.000                                                  
E 3  25797021.700   135564231.141          50.000    25797026.520   101233016.320          50.000  
E 5  23998047.180   126110563.895          50.000    23998051.200    94173462.242          50.000  
E 9  24285241.980   127619789.441          50.000    24285245.820    95300482.219          50.000  
E15  25774842.980   135447679.637          50.000    25774848.160   101145981.676          50.000  
E27  27511250.500   144572554.484          50.000    27511255.740   107960007.430          50.000  
E30  26202398.000   137694479.164          50.000    26202403.520   102823779.488          50.000  
E36  25213890.660   132499850.770          50.000    25213895.620    98944679.672          50.000  
> 2020  7  8 23 27 59.0000000  0 16       0.000000000000
G10  21883848.740   115000356.660          50.000    21883848.520    85876890.516          50.000  
G13  23960194.980   125911721.949          50.000                                                  
G15  21853818.580   114842412.070          50.000                                                  
G16  23171417.980   121766628.289          50.000                                                  
G20  20196879.960   106135325.742          50.000                                                  
G21  22052098.160   115884582.797          50.000                                                  
G26  23296869.460   122425783.508          50.000    23296871.200    91421841.730          50.000  
G27  23606965.300   124055391.629          50.000    23606966.640    92638766.691          50.000  
G29  22809657.380   119865544.320          50.000                                                  
E 3  25796482.000   135561395.039          50.000    25796486.820   101230898.453          50.000  
E 5  23997920.420   126109897.699          50.000    23997924.440    94172964.758          50.000  
E 9  24285605.740   127621701.070          50.000    24285609.600    95301909.734          50.000  
E15  25774458.480   135445659.102          50.000    25774463.660   101144472.836          50.000  
E27  27511390.740   144573291.406          50.000    27511395.980   107960557.730          50.000  
E30  26202850.480   137696856.930          50.000    26202855.980   102825555.090          50.000  
E36  25214174.400   132501341.820          50.000    25214179.360    98945793.121          50.000  
> 2020  7  8 23 28  0.0000000  0 16       0.000000000000
G10  21883445.680   114998238.543          50.000    21883445.440    85875308.809          50.000  
G13  23960561.920   125913650.215          50.000                                                  
G15  21854023.400   114843488.430          50.000                                                  
G16  23171477.480   121766940.977          50.000                                                  
G20  20196797.060   106134890.063          50.000                                                  
G21  22051828.180   115883164.059          50.000                                                  
G26  23297265.800   122427866.285          50.000    23297267.540    91423397.051          50.000  
G27  23606353.660   124052177.418          50.000    23606355.000    92636366.469          50.000  
G29  22810272.960   119868779.223          50.000                                                  
E 3  25795942.340   135558559.117          50.000    25795947.160   101228780.723          50.000  
E 5  23997793.720   126109231.973          50.000    23997797.740    94172467.625          50.000  
E 9  24285969.580   127623613.035          50.000    24285973.440    95303337.500          50.000  
E15  25774073.980   135443638.559          50.000    25774079.160   101142963.988          50.000  
E27  27511531.040   144574028.750          50.000    27511536.280   107961108.344          50.000  
E30  26203302.960   137699234.797          50.000    26203308.480   102827330.770          50.000  
E36  25214458.160   132502833.043          50.000    25214463.120    98946906.695          50.000  
> 2020  7  8 23 28  1.0000000  0 16       0.000000000000
G10  21883042.680   114996120.777          50.000    21883042.440    85873727.359          50.000  
G13  23960928.960   125915579.035          50.000                                                  
G15  21854228.340   114844565.465          50.000                                                  
G16  23171537.100   121767254.285          50.000                                                  
G20  20196714.240   106134454.824          50.000                                                  
G21  22051558.220   115881745.414          50.000                                                  
G26  23297662.200   122429949.395          50.000    23297663.940    91424952.617          50.000  
G27  23605742.060   124048963.434          50.000    23605743.400    92633966.418          50.000  
G29  22810888.600   119872014.438          50.000                                                  
E 3  25795402.720   135555723.371          50.000    25795407.540   101226663.117          50.000  
E 5  23997667.120   126108566.688          50.000    23997671.140    94171970.820          50.000  
E 9  24286333.480   127625525.336          50.000    24286337.320    95304765.516          50.000  
E15  25773689.480   135441618.008          50.000    25773694.660   101141455.137          50.000  
E27  27511671.440   144574766.508          50.000    27511676.680   107961659.262          50.000  
E30  26203755.480   137701612.797          50.000    26203761.000   102829106.547          50.000  
E36  25214741.960   132504324.434          50.000    25214746.920    98948020.395          50.000  
> 2020  7  8 23 28  2.0000000  0 16       0.000000000000
G10  21882639.740   114994003.391          50.000    21882639.520    85872146.191          50.000  
G13  23961296.100   125917508.406          50.000                                                  
G15  21854433.420   114845643.176          50.000                                                  
G16  23171596.840   121767568.223          50.000                                                  
G20  20196631.500   106134020.012          50.000                                                  
G21  22051288.260   115880326.863          50.000                                                  
G26  23298058.660   122432032.852          50.000    23298060.400    91426508.445          50.000  
G27  23605130.500   124045749.680          50.000    23605131.820    92631566.539          50.000  
G29  22811504.300   119875249.961          50.000                                                  
E 3  25794863.120   135552887.813          50.000    25794867.940   101224545.656          50.000  
E 5  23997540.620   126107901.871          50.000    23997544.640    94171474.367          50.000  
E 9  24286697.440   127627437.961          50.000    24286701.280    95306193.773          50.000  
E15  25773304.980   135439597.461          50.000    25773310.160   101139946.289          50.000  
E27  27511811.900   144575504.691          50.000    27511817.140   107962210.504          50.000  
E30  26204208.020   137703990.902          50.000    26204213.540   102830882.406          50.000  
E36  25215025.800   132505815.992          50.000    25215030.760    98949134.223          50.000  
> 2020  7  8 23 28  3.0000000  0 16       0.000000000000
G10  21882236.880   114991886.367          50.000    21882236.660    85870565.301          50.000  
G13  23961663.360   125919438.340          50.000                                                  
G15  21854638.640   114846721.574          50.000                                                  
G16  23171656.700   121767882.785          50.000                                                  
G20  20196548.840   106133585.648          50.000                                                  
G21  22051018.340   115878908.398          50.000                                                  
G26  23298455.200   122434116.656          50.000    23298456.940    91428064.531          50.000  
G27  23604518.980   124042536.160          50.000    23604520.320    92629166.832          50.000  
G29  22812120.040   119878485.785          50.000                                                  
E 3  25794323.560   135550052.434          50.000    25794328.380   101222428.328          50.000  
E 5  23997414.180   126107237.512          50.000    23997418.200    94170978.254          50.000  
E 9  24287061.460   127629350.938          50.000    24287065.320    95307622.293          50.000  
E15  25772920.480   135437576.914          50.000    25772925.660   101138437.441          50.000  
E27  27511952.460   144576243.281          50.000    27511957.700   107962762.047          50.000  
E30  26204660.580   137706369.125          50.000    26204666.100   102832658.352          50.000  
E36  25215309.660   132507307.707          50.000    25215314.620    98950248.164          50.000  
> 2020  7  8 23 28  4.0000000  0 16       0.000000000000
G10  21881834.100   114989769.723          50.000    21881833.880    85868984.688          50.000  
G13  23962030.720   125921368.813          50.000                                                  
G15  21854843.980   114847800.637          50.000                                                  
G16  23171716.680   121768197.949          50.000                                                  
G20  20196466.240   106133151.676          50.000                                                  
G21  22050748.420   115877490.012          50.000                                                  
G26  23298851.780   122436200.789          50.000    23298853.540    91429620.863          50.000  
G27  23603907.500   124039322.848          50.000    23603908.840    92626767.281          50.000  
G29  22812735.860   119881721.910          50.000                                                  
E 3  25793784.040   135547217.227          50.000    25793788.860   101220311.129          50.000  
E 5  23997287.840   126106573.598          50.000    23997291.860    94170482.477          50.000  
E 9  24287425.540   127631264.234          50.000    24287429.400    95309051.055          50.000  
E15  25772535.980   135435556.363          50.000    25772541.160   101136928.586          50.000  
E27  27512093.080   144576982.293          50.000    27512098.320   107963313.906          50.000  
E30  26205113.160   137708747.457          50.000    26205118.680   102834434.379          50.000  
E36  25215593.560   132508799.586          50.000    25215598.500    98951362.227          50.000  
> 2020  7  8 23 28  5.0000000  0 16       0.000000000000
G10  21881431.380   114987653.441          50.000    21881431.160    85867404.352          50.000  
G13  23962398.180   125923299.840          50.000                                                  
G15  21855049.440   114848880.375          50.000                                                  
G16  23171776.780   121768513.754          50.000                                                  
G20  20196383.740   106132718.152          50.000                                                  
G21  22050478.540   115876071.730          50.000                                                  
G26  23299248.440   122438285.262          50.000    23299250.200    91431177.449          50.000  
G27  23603296.080   124036109.770          50.000    23603297.400    92624367.906          50.000  
G29  22813351.740   119884958.359          50.000                                                  
E 3  25793244.540   135544382.207          50.000    25793249.360   101218194.070          50.000  
E 5  23997161.600   126105910.148          50.000    23997165.620    94169987.043          50.000  
E 9  24287789.700   127633177.875          50.000    24287793.560    95310480.070          50.000  
E15  25772151.480   135433535.816          50.000    25772156.660   101135419.738          50.000  
E27  27512233.780   144577721.727          50.000    27512239.020   107963866.082          50.000  
E30  26205565.760   137711125.918          50.000    26205571.280   102836210.496          50.000  
E36  25215877.480   132510291.637          50.000    25215882.440    98952476.422          50.000  
> 2020  7  8 23 28  6.0000000  0 16       0.000000000000
G10  21881028.740   114985537.531          50.000    21881028.500    85865824.289          50.000  
G13  23962765.740   125925231.406          50.000                                                  
G15  21855255.040   114849960.793          50.000                                                  
G16  23171836.980   121768830.168          50.000                                                  
G20  20196301.340   106132285.063          50.000                                                  
G21  22050208.660   115874653.535          50.000                                                  
G26  23299645.180   122440370.078          50.000    23299646.920    91432734.293          50.000  
G27  23602684.680   124032896.914          50.000    23602686.020    92621968.699          50.000  
G29  22813967.660   119888195.109          50.000                                                  
E 3  25792705.100   135541547.375          50.000    25792709.920   101216077.152          50.000  
E 5  23997035.420   126105247.152          50.000    23997039.440    94169491.949          50.000  
E 9  24288153.900   127635091.844          50.000    24288157.760    95311909.336          50.000  
E15  25771766.980   135431515.262          50.000    25771772.160   101133910.883          50.000  
E27  27512374.580   144578461.570          50.000    27512379.820   107964418.563          50.000  
E30  26206018.400   137713504.496          50.000    26206023.900   102837986.707          50.000  
E36  25216161.440   132511783.855          50.000    25216166.400    98953590.742          50.000  
> 2020  7  8 23 28  7.0000000  0 16       0.000000000000
G10  21880626.160   114983421.992          50.000    21880625.940    85864244.500          50.000  
G13  23963133.400   125927163.527          50.000                                                  
G15  21855460.760   114851041.875          50.000                                                  
G16  23171897.300   121769147.207          50.000                                                  
G20  20196219.000   106131852.410          50.000                                                  
G21  22049938.820   115873235.480          50.000                                                  
G26  23300041.960   122442455.219          50.000    23300043.700    91434291.379          50.000  
G27  23602073.340   124029684.277          50.000    23602074.660    92619569.652          50.000  
G29  22814583.660   119891432.164          50.000                                                  
E 3  25792165.680   135538712.719          50.000    25792170.500   101213960.363          50.000  
E 5  23996909.360   126104584.625          50.000    23996913.380    94168997.203          50.000  
E 9  24288518.180   127637006.152          50.000    24288522.040    95313338.852          50.000  
E15  25771382.480   135429494.711          50.000    25771387.660   101132402.027          50.000  
E27  27512515.440   144579201.840          50.000    27512520.680   107964971.359          50.000  
E30  26206471.040   137715883.195          50.000    26206476.560   102839763.008          50.000  
E36  25216445.420   132513276.250          50.000    25216450.380    98954705.191          50.000  
> 2020  7  8 23 28  8.0000000  0 16       0.000000000000
G10  21880223.660   114981306.816          50.000    21880223.420    85862664.988          50.000  
G13  23963501.180   125929096.207          50.000                                                  
G15  21855666.600   114852123.652          50.000                                                  
G16  23171957.760   121769464.871          50.000                                                  
G20  20196136.740   106131420.176          50.000                                                  
G21  22049668.980   115871817.477          50.000                                                  
G26  23300438.820   122444540.711          50.000    23300440.560    91435848.727          50.000  
G27  23601462.040   124026471.879          50.000    23601463.360    92617170.785          50.000  
G29  22815199.700   119894669.527          50.000                                                  
E 3  25791626.280   135535878.234          50.000    25791631.100   101211843.707          50.000  
E 5  23996783.360   126103922.539          50.000    23996787.380    94168502.789          50.000  
E 9  24288882.520   127638920.789          50.000    24288886.380    95314768.613          50.000  
E15  25770997.980   135427474.160          50.000    25771003.160   101130893.176          50.000  
E27  27512656.380   144579942.523          50.000    27512661.620   107965524.469          50.000  
E30  26206923.720   137718261.996          50.000    26206929.220   102841539.383          50.000  
E36  25216729.460   132514768.801          50.000    25216734.400    98955819.758          50.000  
> 2020  7  8 23 28  9.0000000  0 16       0.000000000000
G10  21879821.220   114979192.016          50.000    21879820.980    85861085.754          50.000  
G13  23963869.060   125931029.438          50.000                                                  
G15  21855872.580   114853206.094          50.000                                                  
G16  23172018.320   121769783.164          50.000                                                  
G20  20196054.580   106130988.375          50.000                                                  
G21  22049399.140   115870399.551          50.000                                                  
G26  23300835.740   122446626.539          50.000    23300837.480    91437406.320          50.000  
G27  23600850.780   124023259.711          50.000    23600852.100    92614772.090          50.000  
G29  22815815.820   119897907.211          50.000                                                  
E 3  25791086.940   135533043.949          50.000    25791091.760   101209727.195          50.000  
E 5  23996657.460   126103260.926          50.000    23996661.480    94168008.727          50.000  
E 9  24289246.940   127640835.770          50.000    24289250.800    95316198.629          50.000  
E15  25770613.480   135425453.602          50.000    25770618.660   101129384.320          50.000  
E27  27512797.420   144580683.629          50.000    27512802.660   107966077.891          50.000  
E30  26207376.400   137720640.922          50.000    26207381.920   102843315.852          50.000  
E36  25217013.500   132516261.535          50.000    25217018.460    98956934.461          50.000  
> 2020  7  8 23 28 10.0000000  0 16       0.000000000000
G10  21879418.860   114977077.582          50.000    21879418.620    85859506.797          50.000  
G13  23964237.040   125932963.219          50.000                                                  
G15  21856078.700   114854289.211          50.000                                                  
G16  23172079.000   121770102.074          50.000                                                  
G20  20195972.480   106130557.004          50.000                                                  
G21  22049129.340   115868981.715          50.000                                                  
G26  23301232.720   122448712.703          50.000    23301234.460    91438964.172          50.000  
G27  23600239.560   124020047.762          50.000    23600240.900    92612373.559          50.000  
G29  22816431.980   119901145.199          50.000                                                  
E 3  25790547.620   135530209.832          50.000    25790552.440   101207610.809          50.000  
E 5  23996531.640   126102599.762          50.000    23996535.660    94167515.004          50.000  
E 9  24289611.400   127642751.078          50.000    24289615.260    95317628.895          50.000  
E15  25770228.980   135423433.047          50.000    25770234.160   101127875.465          50.000  
E27  27512938.520   144581425.152          50.000    27512943.760   107966631.625          50.000  
E30  26207829.120   137723019.961          50.000    26207834.640   102845092.406          50.000  
E36  25217297.600   132517754.426          50.000    25217302.540    98958049.281          50.000  
> 2020  7  8 23 28 11.0000000  0 16       0.000000000000
G10  21879016.560   114974963.512          50.000    21879016.320    85857928.105          50.000  
G13  23964605.140   125934897.539          50.000                                                  
G15  21856284.940   114855372.996          50.000                                                  
G16  23172139.820   121770421.598          50.000                                                  
G20  20195890.480   106130126.063          50.000                                                  
G21  22048859.560   115867563.996          50.000                                                  
G26  23301629.760   122450799.199          50.000    23301631.500    91440522.270          50.000  
G27  23599628.380   124016836.043          50.000    23599629.720    92609975.199          50.000  
G29  22817048.200   119904383.480          50.000                                                  
E 3  25790008.340   135527375.887          50.000    25790013.160   101205494.551          50.000  
E 5  23996405.900   126101939.051          50.000    23996409.920    94167021.617          50.000  
E 9  24289975.940   127644666.727          50.000    24289979.800    95319059.406          50.000  
E15  25769844.480   135421412.492          50.000    25769849.660   101126366.609          50.000  
E27  27513079.700   144582167.086          50.000    27513084.940   107967185.668          50.000  
E30  26208281.860   137725399.109          50.000    26208287.380   102846869.043          50.000  
E36  25217581.720   132519247.484          50.000    25217586.660    98959164.227          50.000  
> 2020  7  8 23 28 12.0000000  0 16       0.000000000000
G10  21878614.340   114972849.828          50.000    21878614.100    85856349.707          50.000  
G13  23964973.340   125936832.414          50.000                                                  
G15  21856491.300   114856457.461          50.000                                                  
G16  23172200.740   121770741.762          50.000                                                  
G20  20195808.560   106129695.559          50.000                                                  
G21  22048589.780   115866146.352          50.000                                                  
G26  23302026.880   122452886.039          50.000    23302028.620    91442080.621          50.000  
G27  23599017.260   124013624.555          50.000    23599018.600    92607577.008          50.000  
G29  22817664.480   119907622.074          50.000                                                  
E 3  25789469.100   135524542.152          50.000    25789473.920   101203378.453          50.000  
E 5  23996280.260   126101278.801          50.000    23996284.280    94166528.570          50.000  
E 9  24290340.540   127646582.703          50.000    24290344.400    95320490.168          50.000  
E15  25769459.980   135419391.938          50.000    25769465.160   101124857.754          50.000  
E27  27513220.960   144582909.445          50.000    27513226.200   107967740.023          50.000  
E30  26208734.620   137727778.375          50.000    26208740.120   102848645.766          50.000  
E36  25217865.860   132520740.699          50.000    25217870.820    98960279.293          50.000  
> 2020  7  8 23 28 13.0000000  0 16       0.000000000000
G10  21878212.180   114970736.500          50.000    21878211.940    85854771.574          50.000  
G13  23965341.620   125938767.844          50.000                                                  
G15  21856697.800   114857542.605          50.000                                                  
G16  23172261.780   121771062.539          50.000                                                  
G20  20195726.720   106129265.473          50.000                                                  
G21  22048320.020   115864728.789          50.000                                                  
G26  23302424.040   122454973.207          50.000    23302425.800    91443639.219          50.000  
G27  23598406.180   124010413.289          50.000    23598407.500    92605178.984          50.000  
G29  22818280.840   119910860.988          50.000                                                  
E 3  25788929.880   135521708.578          50.000    25788934.700   101201262.473          50.000  
E 5  23996154.720   126100619.020          50.000    23996158.720    94166035.875          50.000  
E 9  24290705.200   127648499.016          50.000    24290709.060    95321921.184          50.000  
E15  25769075.480   135417371.379          50.000    25769080.640   101123348.898          50.000  
E27  27513362.300   144583652.219          50.000    27513367.540   107968294.691          50.000  
E30  26209187.400   137730157.777          50.000    26209192.920   102850422.594          50.000  
E36  25218150.040   132522234.105          50.000    25218155.000    98961394.496          50.000  
> 2020  7  8 23 28 14.0000000  0 16       0.000000000000
G10  21877810.100   114968623.543          50.000    21877809.860    85853193.715          50.000  
G13  23965710.040   125940703.828          50.000                                                  
G15  21856904.420   114858628.430          50.000                                                  
G16  23172322.940   121771383.945          50.000                                                  
G20  20195644.940   106128835.824          50.000                                                  
G21  22048050.300   115863311.313          50.000                                                  
G26  23302821.280   122457060.727          50.000    23302823.040    91445198.078          50.000  
G27  23597795.120   124007202.250          50.000    23597796.460    92602781.133          50.000  
G29  22818897.240   119914100.199          50.000                                                  
E 3  25788390.700   135518875.180          50.000    25788395.520   101199146.621          50.000  
E 5  23996029.240   126099959.676          50.000    23996033.260    94165543.512          50.000  
E 9  24291069.920   127650415.664          50.000    24291073.780    95323352.445          50.000  
E15  25768690.980   135415350.820          50.000    25768696.140   101121840.039          50.000  
E27  27513503.740   144584395.410          50.000    27513508.980   107968849.672          50.000  
E30  26209640.200   137732537.266          50.000    26209645.720   102852199.480          50.000  
E36  25218434.260   132523727.660          50.000    25218439.220    98962509.813          50.000  
> 2020  7  8 23 28 15.0000000  0 16       0.000000000000
G10  21877408.080   114966510.957          50.000    21877407.840    85851616.137          50.000  
G13  23966078.540   125942640.367          50.000                                                  
G15  21857111.160   114859714.926          50.000                                                  
G16  23172384.220   121771705.965          50.000                                                  
G20  20195563.260   106128406.602          50.000                                                  
G21  22047780.560   115861893.922          50.000                                                  
G26  23303218.600   122459148.578          50.000    23303220.340    91446757.188          50.000  
G27  23597184.120   124003991.438          50.000    23597185.460    92600383.453          50.000  
G29  22819513.700   119917339.727          50.000                                                  
E 3  25787851.560   135516041.984          50.000    25787856.380   101197030.926          50.000  
E 5  23995903.860   126099300.801          50.000    23995907.880    94165051.496          50.000  
E 9  24291434.700   127652332.645          50.000    24291438.560    95324783.953          50.000  
E15  25768306.480   135413330.266          50.000    25768311.640   101120331.180          50.000  
E27  27513645.240   144585139.012          50.000    27513650.480   107969404.961          50.000  
E30  26210093.020   137734916.895          50.000    26210098.540   102853976.477          50.000  
E36  25218718.500   132525221.379          50.000    25218723.460    98963625.254          50.000  
> 2020  7  8 23 28 16.0000000  0 16       0.000000000000
G10  21877006.140   114964398.746          50.000    21877005.900    85850038.836          50.000  
G13  23966447.160   125944577.457          50.000                                                  
G15  21857318.040   114860802.090          50.000                                                  
G16  23172445.600   121772028.598          50.000                                                  
G20  20195481.660   106127977.809          50.000                                                  
G21  22047510.860   115860476.625          50.000                                                  
G26  23303615.960   122461236.762          50.000    23303617.700    91448316.547          50.000  
G27  23596573.180   124000780.867          50.000    23596574.500    92597985.949          50.000  
G29  22820130.220   119920579.566          50.000                                                  
E 3  25787312.440   135513208.957          50.000    25787317.260   101194915.355          50.000  
E 5  23995778.560   126098642.383          50.000    23995782.580    94164559.816          50.000  
E 9  24291799.560   127654249.953          50.000    24291803.420    95326215.711          50.000  
E15  25767921.980   135411309.703          50.000    25767927.140   101118822.320          50.000  
E27  27513786.820   144585883.047          50.000    27513792.060   107969960.570          50.000  
E30  26210545.860   137737296.617          50.000    26210551.380   102855753.543          50.000  
E36  25219002.780   132526715.273          50.000    25219007.740    98964740.820          50.000  
> 2020  7  8 23 28 17.0000000  0 16       0.000000000000
G10  21876604.260   114962286.898          50.000    21876604.040    85848461.805          50.000  
G13  23966815.880   125946515.094          50.000                                                  
G15  21857525.060   114861889.938          50.000                                                  
G16  23172507.120   121772351.855          50.000                                                  
G20  20195400.160   106127549.449          50.000                                                  
G21  22047241.180   115859059.422          50.000                                                  
G26  23304013.400   122463325.301          50.000    23304015.140    91449876.168          50.000  
G27  23595962.260   123997570.516          50.000    23595963.600    92595588.609          50.000  
G29  22820746.780   119923819.703          50.000                                                  
E 3  25786773.380   135510376.113          50.000    25786778.200   101192799.922          50.000  
E 5  23995653.360   126097984.414          50.000    23995657.380    94164068.480          50.000  
E 9  24292164.480   127656167.605          50.000    24292168.340    95327647.723          50.000  
E15  25767537.460   135409289.145          50.000    25767542.640   101117313.465          50.000  
E27  27513928.480   144586627.488          50.000    27513933.720   107970516.484          50.000  
E30  26210998.740   137739676.465          50.000    26211004.260   102857530.699          50.000  
E36  25219287.080   132528209.324          50.000    25219292.040    98965856.508          50.000  
> 2020  7  8 23 28 18.0000000  0 16       0.000000000000
G10  21876202.460   114960175.422          50.000    21876202.220    85846885.055          50.000  
G13  23967184.700   125948453.281          50.000                                                  
G15  21857732.180   114862978.453          50.000                                                  
G16  23172568.740   121772675.738          50.000                                                  
G20  20195318.720   106127121.520          50.000                                                  
G21  22046971.500   115857642.297          50.000                                                  
G26  23304410.880   122465414.156          50.000    23304412.640    91451436.027          50.000  
G27  23595351.400   123994360.395          50.000    23595352.720    92593191.441          50.000  
G29  22821363.420   119927060.148          50.000                                                  
E 3  25786234.340   135507543.461          50.000    25786239.160   101190684.629          50.000  
E 5  23995528.240   126097326.914          50.000    23995532.260    94163577.488          50.000  
E 9  24292529.460   127658085.586          50.000    24292533.300    95329079.980          50.000  
E15  25767152.960   135407268.578          50.000    25767158.140   101115804.602          50.000  
E27  27514070.220   144587372.348          50.000    27514075.460   107971072.707          50.000  
E30  26211451.620   137742056.434          50.000    26211457.140   102859307.949          50.000  
E36  25219571.420   132529703.559          50.000    25219576.380    98966972.336          50.000  
> 2020  7  8 23 28 19.0000000  0 16       0.000000000000
G10  21875800.720   114958064.313          50.000    21875800.500    85845308.578          50.000  
G13  23967553.620   125950392.027          50.000                                                  
G15  21857939.460   114864067.656          50.000                                                  
G16  23172630.500   121773000.238          50.000                                                  
G20  20195237.360   106126694.023          50.000                                                  
G21  22046701.860   115856225.273          50.000                                                  
G26  23304808.440   122467503.359          50.000    23304810.200    91452996.145          50.000  
G27  23594740.560   123991150.492          50.000    23594741.900    92590794.438          50.000  
G29  22821980.120   119930300.906          50.000                                                  
E 3  25785695.320   135504710.977          50.000    25785700.140   101188569.461          50.000  
E 5  23995403.200   126096669.863          50.000    23995407.220    94163086.832          50.000  
E 9  24292894.500   127660003.902          50.000    24292898.360    95330512.492          50.000  
E15  25766768.460   135405248.020          50.000    25766773.640   101114295.742          50.000  
E27  27514212.040   144588117.621          50.000    27514217.280   107971629.246          50.000  
E30  26211904.540   137744436.520          50.000    26211910.060   102861085.285          50.000  
E36  25219855.800   132531197.945          50.000    25219860.760    98968088.270          50.000  
