     3.03           OBSERVATION DATA    M: Mixed            RINEX VERSION / TYPE
sbp2rinex v2.2 (RTKL                    20210504 171524 UTC PGM / RUN BY / DATE 
log: 2020-05-21-US-MTV-2.sbp                                COMMENT             
format: Swift Navigation SBP, option: CONVBASE,EPHALL,OBSALLCOMMENT             
                                                            MARKER NAME         
                                                            MARKER NUMBER       
                                                            MARKER TYPE         
                                                            OBSERVER / AGENCY   
                                                            REC # / TYPE / VERS 
                                                            ANT # / TYPE        
 -2744310.3504 -4319958.3065  3793483.4008                  APPROX POSITION XYZ 
        0.0000        0.0000        0.0000                  ANTENNA: DELTA H/E/N
G    6 C1C L1C S1C C5I L5I S5I                              SYS / # / OBS TYPES 
E    6 C1B L1B S1B C5I L5I S5I                              SYS / # / OBS TYPES 
  2020     5    21    21    21   45.0000000     GPS         TIME OF FIRST OBS   
  2020     5    21    21    57   13.0000000     GPS         TIME OF LAST OBS    
G                                                           SYS / PHASE SHIFT   
E                                                           SYS / PHASE SHIFT   
  0                                                         GLONASS SLOT / FRQ #
 C1C    0.000 C1P    0.000 C2C    0.000 C2P    0.000        GLONASS COD/PHS/BIS 
                                                            END OF HEADER       
> 2020  5 21 21 21 45.0000000  0 12       0.000000000000
G 2  20832761.360   109476929.609          50.000                                                  
G 5  23749461.320   124804226.086          50.000                                                  
G 6  21799751.040   114558412.086          50.000    21799753.980    85546865.535          50.000  
G12  20328666.840   106827863.871          50.000                                                  
G19  23510114.880   123546491.797          50.000                                                  
G24  22448223.660   117966147.082          50.000    22448226.920    88091598.195          50.000  
G25  21891866.460   115042471.516          50.000    21891869.200    85908337.262          50.000  
G29  23905731.440   125625434.152          50.000                                                  
E13  23804897.120   125095560.570          50.000    23804901.280    93415504.863          50.000  
E15  23534611.400   123675183.391          50.000    23534616.620    92354831.957          50.000  
E21  25079230.160   131792219.762          50.000    25079234.880    98416256.387          50.000  
E27  23241048.420   122132507.996          50.000    23241052.660    91202834.773          50.000  
> 2020  5 21 21 21 46.0000000  0 12       0.000000000000
G 2  20832887.380   109477591.902          50.000                                                  
G 5  23748848.520   124801005.742          50.000                                                  
G 6  21800210.200   114560824.926          50.000    21800213.140    85548667.328          50.000  
G12  20328449.760   106826723.074          50.000                                                  
G19  23510643.800   123549271.246          50.000                                                  
G24  22448731.400   117968815.309          50.000    22448734.660    88093590.703          50.000  
G25  21891362.880   115039825.156          50.000    21891365.620    85906361.082          50.000  
G29  23905262.200   125622968.281          50.000                                                  
E13  23804661.260   125094321.164          50.000    23804665.420    93414579.332          50.000  
E15  23534864.000   123676510.824          50.000    23534869.220    92355823.223          50.000  
E21  25078844.360   131790192.309          50.000    25078849.080    98414742.379          50.000  
E27  23241154.100   122133063.367          50.000    23241158.340    91203249.496          50.000  
> 2020  5 21 21 21 47.0000000  0 12       0.000000000000
G 2  20833013.500   109478254.676          50.000                                                  
G 5  23748235.720   124797785.477          50.000                                                  
G 6  21800669.420   114563238.168          50.000    21800672.360    85550469.426          50.000  
G12  20328232.740   106825582.711          50.000                                                  
G19  23511172.720   123552050.738          50.000                                                  
G24  22449239.220   117971483.863          50.000    22449242.480    88095583.453          50.000  
G25  21890859.340   115037179.059          50.000    21890862.080    85904385.102          50.000  
G29  23904792.980   125620502.535          50.000                                                  
E13  23804425.480   125093082.090          50.000    23804429.640    93413654.051          50.000  
E15  23535116.640   123677838.512          50.000    23535121.880    92356814.676          50.000  
E21  25078458.580   131788165.078          50.000    25078463.300    98413228.539          50.000  
E27  23241259.860   122133619.141          50.000    23241264.100    91203664.523          50.000  
> 2020  5 21 21 21 48.0000000  0 12       0.000000000000
G 2  20833139.720   109478917.938          50.000                                                  
G 5  23747622.940   124794565.289          50.000                                                  
G 6  21801128.720   114565651.805          50.000    21801131.660    85552271.816          50.000  
G12  20328015.820   106824442.773          50.000                                                  
G19  23511701.640   123554830.266          50.000                                                  
G24  22449747.080   117974152.750          50.000    22449750.340    88097576.453          50.000  
G25  21890355.840   115034533.215          50.000    21890358.600    85902409.313          50.000  
G29  23904323.800   125618036.914          50.000                                                  
E13  23804189.740   125091843.344          50.000    23804193.920    93412729.012          50.000  
E15  23535369.340   123679166.465          50.000    23535374.580    92357806.332          50.000  
E21  25078072.860   131786138.086          50.000    25078077.580    98411714.875          50.000  
E27  23241365.700   122134175.316          50.000    23241369.940    91204079.848          50.000  
> 2020  5 21 21 21 49.0000000  0 12       0.000000000000
G 2  20833266.040   109479581.688          50.000                                                  
G 5  23747010.160   124791345.191          50.000                                                  
G 6  21801588.100   114568065.855          50.000    21801591.040    85554074.516          50.000  
G12  20327798.980   106823303.281          50.000                                                  
G19  23512230.580   123557609.840          50.000                                                  
G24  22450255.020   117976821.945          50.000    22450258.280    88099569.684          50.000  
G25  21889852.420   115031887.641          50.000    21889855.160    85900433.719          50.000  
G29  23903854.620   125615571.422          50.000                                                  
E13  23803954.080   125090604.930          50.000    23803958.260    93411804.223          50.000  
E15  23535622.100   123680494.668          50.000    23535627.320    92358798.168          50.000  
E21  25077687.180   131784111.324          50.000    25077691.900    98410201.383          50.000  
E27  23241471.620   122134731.883          50.000    23241475.840    91204495.465          50.000  
> 2020  5 21 21 21 50.0000000  0 12       0.000000000000
G 2  20833392.440   109480245.934          50.000                                                  
G 5  23746397.420   124788125.156          50.000                                                  
G 6  21802047.560   114570480.301          50.000    21802050.500    85555877.512          50.000  
G12  20327582.240   106822164.227          50.000                                                  
G19  23512759.520   123560389.434          50.000                                                  
G24  22450763.020   117979491.461          50.000    22450766.260    88101563.148          50.000  
G25  21889349.020   115029242.324          50.000    21889351.760    85898458.324          50.000  
G29  23903385.480   125613106.047          50.000                                                  
E13  23803718.480   125089366.844          50.000    23803722.660    93410879.680          50.000  
E15  23535874.900   123681823.137          50.000    23535880.120    92359790.211          50.000  
E21  25077301.540   131782084.801          50.000    25077306.260    98408688.074          50.000  
E27  23241577.600   122135288.855          50.000    23241581.840    91204911.387          50.000  
> 2020  5 21 21 21 51.0000000  0 12       0.000000000000
G 2  20833518.920   109480910.660          50.000                                                  
G 5  23745784.680   124784905.207          50.000                                                  
G 6  21802507.080   114572895.156          50.000    21802510.020    85557680.809          50.000  
G12  20327365.560   106821025.602          50.000                                                  
G19  23513288.460   123563169.090          50.000                                                  
G24  22451271.060   117982161.289          50.000    22451274.320    88103556.852          50.000  
G25  21888845.680   115026597.250          50.000    21888848.420    85896483.109          50.000  
G29  23902916.360   125610640.793          50.000                                                  
E13  23803482.940   125088129.090          50.000    23803487.120    93409955.383          50.000  
E15  23536127.740   123683151.867          50.000    23536132.980    92360782.441          50.000  
E21  25076915.960   131780058.496          50.000    25076920.680    98407174.922          50.000  
E27  23241683.660   122135846.234          50.000    23241687.900    91205327.609          50.000  
> 2020  5 21 21 21 52.0000000  0 12       0.000000000000
G 2  20833645.520   109481575.875          50.000                                                  
G 5  23745171.960   124781685.344          50.000                                                  
G 6  21802966.700   114575310.410          50.000    21802969.640    85559484.410          50.000  
G12  20327148.980   106819887.418          50.000                                                  
G19  23513817.420   123565948.777          50.000                                                  
G24  22451779.180   117984831.441          50.000    22451782.440    88105550.797          50.000  
G25  21888342.400   115023952.445          50.000    21888345.140    85894508.090          50.000  
G29  23902447.260   125608175.664          50.000                                                  
E13  23803247.480   125086891.664          50.000    23803251.640    93409031.332          50.000  
E15  23536380.640   123684480.844          50.000    23536385.860    92361774.859          50.000  
E21  25076530.400   131778032.422          50.000    25076535.120    98405661.945          50.000  
E27  23241789.800   122136404.008          50.000    23241794.040    91205744.129          50.000  
> 2020  5 21 21 21 53.0000000  0 12       0.000000000000
G 2  20833772.180   109482241.559          50.000                                                  
G 5  23744559.260   124778465.559          50.000                                                  
G 6  21803426.380   114577726.051          50.000    21803429.320    85561288.297          50.000  
G12  20326932.460   106818749.645          50.000                                                  
G19  23514346.400   123568728.496          50.000                                                  
G24  22452287.360   117987501.938          50.000    22452290.620    88107544.996          50.000  
G25  21887839.140   115021307.883          50.000    21887841.880    85892533.258          50.000  
G29  23901978.180   125605710.668          50.000                                                  
E13  23803012.060   125085654.570          50.000    23803016.220    93408107.527          50.000  
E15  23536633.580   123685810.070          50.000    23536638.820    92362767.465          50.000  
E21  25076144.900   131776006.578          50.000    25076149.620    98404149.145          50.000  
E27  23241896.020   122136962.180          50.000    23241900.260    91206160.945          50.000  
> 2020  5 21 21 21 54.0000000  0 12       0.000000000000
G 2  20833898.960   109482907.746          50.000                                                  
G 5  23743946.560   124775245.855          50.000                                                  
G 6  21803886.140   114580142.102          50.000    21803889.080    85563092.488          50.000  
G12  20326716.040   106817612.328          50.000                                                  
G19  23514875.360   123571508.258          50.000                                                  
G24  22452795.600   117990172.754          50.000    22452798.860    88109539.438          50.000  
G25  21887335.960   115018663.574          50.000    21887338.700    85890558.613          50.000  
G29  23901509.120   125603245.801          50.000                                                  
E13  23802776.720   125084417.785          50.000    23802780.880    93407183.953          50.000  
E15  23536886.580   123687139.563          50.000    23536891.800    92363760.266          50.000  
E21  25075759.440   131773980.969          50.000    25075764.160    98402636.512          50.000  
E27  23242002.320   122137520.750          50.000    23242006.560    91206578.063          50.000  
> 2020  5 21 21 21 55.0000000  0 12       0.000000000000
G 2  20834025.820   109483574.414          50.000                                                  
G 5  23743333.880   124772026.223          50.000                                                  
G 6  21804345.960   114582558.563          50.000    21804348.900    85564896.988          50.000  
G12  20326499.700   106816475.445          50.000                                                  
G19  23515404.340   123574288.066          50.000                                                  
G24  22453303.900   117992843.902          50.000    22453307.160    88111534.125          50.000  
G25  21886832.800   115016019.539          50.000    21886835.540    85888584.172          50.000  
G29  23901040.100   125600781.047          50.000                                                  
E13  23802541.420   125083181.359          50.000    23802545.580    93406260.648          50.000  
E15  23537139.620   123688469.320          50.000    23537144.840    92364753.266          50.000  
E21  25075374.020   131771955.598          50.000    25075378.740    98401124.059          50.000  
E27  23242108.680   122138079.734          50.000    23242112.920    91206995.484          50.000  
> 2020  5 21 21 21 56.0000000  0 12       0.000000000000
G 2  20834152.780   109484241.578          50.000                                                  
G 5  23742721.220   124768806.676          50.000                                                  
G 6  21804805.880   114584975.414          50.000    21804808.820    85566701.781          50.000  
G12  20326283.440   106815338.988          50.000                                                  
G19  23515933.320   123577067.902          50.000                                                  
G24  22453812.260   117995515.367          50.000    22453815.520    88113529.047          50.000  
G25  21886329.720   115013375.758          50.000    21886332.460    85886609.922          50.000  
G29  23900571.100   125598316.422          50.000                                                  
E13  23802306.200   125081945.246          50.000    23802310.360    93405337.578          50.000  
E15  23537392.720   123689799.328          50.000    23537397.940    92365746.453          50.000  
E21  25074988.640   131769930.445          50.000    25074993.360    98399611.773          50.000  
E27  23242215.140   122138639.109          50.000    23242219.360    91207413.199          50.000  
> 2020  5 21 21 21 57.0000000  0 12       0.000000000000
G 2  20834279.820   109484909.219          50.000                                                  
G 5  23742108.580   124765587.215          50.000                                                  
G 6  21805265.880   114587392.672          50.000    21805268.820    85568506.875          50.000  
G12  20326067.260   106814202.980          50.000                                                  
G19  23516462.320   123579847.789          50.000                                                  
G24  22454320.680   117998187.164          50.000    22454323.940    88115524.223          50.000  
G25  21885826.660   115010732.234          50.000    21885829.400    85884635.859          50.000  
G29  23900102.120   125595851.918          50.000                                                  
E13  23802071.040   125080709.477          50.000    23802075.200    93404414.766          50.000  
E15  23537645.860   123691129.590          50.000    23537651.080    92366739.832          50.000  
E21  25074603.320   131767905.527          50.000    25074608.040    98398099.656          50.000  
E27  23242321.660   122139198.883          50.000    23242325.900    91207831.211          50.000  
> 2020  5 21 21 21 58.0000000  0 12       0.000000000000
G 2  20834406.960   109485577.344          50.000                                                  
G 5  23741495.940   124762367.820          50.000                                                  
G 6  21805725.940   114589810.336          50.000    21805728.880    85570312.273          50.000  
G12  20325851.160   106813067.398          50.000                                                  
G19  23516991.320   123582627.711          50.000                                                  
G24  22454829.180   118000859.273          50.000    22454832.440    88117519.625          50.000  
G25  21885323.680   115008088.977          50.000    21885326.420    85882662.000          50.000  
G29  23899633.160   125593387.547          50.000                                                  
E13  23801835.940   125079474.023          50.000    23801840.100    93403492.188          50.000  
E15  23537899.040   123692460.109          50.000    23537904.280    92367733.402          50.000  
E21  25074218.040   131765880.828          50.000    25074222.740    98396587.711          50.000  
E27  23242428.260   122139759.066          50.000    23242432.480    91208249.527          50.000  
> 2020  5 21 21 21 59.0000000  0 12       0.000000000000
G 2  20834534.200   109486245.957          50.000                                                  
G 5  23740883.340   124759148.508          50.000                                                  
G 6  21806186.080   114592228.395          50.000    21806189.020    85572117.965          50.000  
G12  20325635.160   106811932.254          50.000                                                  
G19  23517520.340   123585407.660          50.000                                                  
G24  22455337.720   118003531.715          50.000    22455340.980    88119515.281          50.000  
G25  21884820.720   115005445.965          50.000    21884823.460    85880688.324          50.000  
G29  23899164.220   125590923.293          50.000                                                  
E13  23801600.900   125078238.902          50.000    23801605.060    93402569.855          50.000  
E15  23538152.280   123693790.891          50.000    23538157.520    92368727.164          50.000  
E21  25073832.800   131763856.375          50.000    25073837.500    98395075.941          50.000  
E27  23242534.920   122140319.637          50.000    23242539.160    91208668.137          50.000  
> 2020  5 21 21 22  0.0000000  0 12       0.000000000000
G 2  20834661.520   109486915.055          50.000                                                  
G 5  23740270.740   124755929.281          50.000                                                  
G 6  21806646.300   114594646.852          50.000    21806649.240    85573923.957          50.000  
G12  20325419.220   106810797.543          50.000                                                  
G19  23518049.360   123588187.656          50.000                                                  
G24  22455846.340   118006204.484          50.000    22455849.600    88121511.180          50.000  
G25  21884317.820   115002803.215          50.000    21884320.560    85878714.844          50.000  
G29  23898695.320   125588459.164          50.000                                                  
E13  23801365.940   125077004.113          50.000    23801370.100    93401647.773          50.000  
E15  23538405.580   123695121.926          50.000    23538410.800    92369721.121          50.000  
E21  25073447.600   131761832.148          50.000    25073452.300    98393564.348          50.000  
E27  23242641.680   122140880.617          50.000    23242645.920    91209087.051          50.000  
> 2020  5 21 21 22  1.0000000  0 12       0.000000000000
G 2  20834788.940   109487584.633          50.000                                                  
G 5  23739658.140   124752710.133          50.000                                                  
G 6  21807106.600   114597065.715          50.000    21807109.540    85575730.250          50.000  
G12  20325203.380   106809663.270          50.000                                                  
G19  23518578.380   123590967.699          50.000                                                  
G24  22456355.020   118008877.594          50.000    22456358.280    88123507.328          50.000  
G25  21883814.980   115000160.715          50.000    21883817.720    85876741.551          50.000  
G29  23898226.440   125585995.164          50.000                                                  
E13  23801131.020   125075769.652          50.000    23801135.180    93400725.938          50.000  
E15  23538658.900   123696453.215          50.000    23538664.140    92370715.266          50.000  
E21  25073062.440   131759808.152          50.000    25073067.160    98392052.922          50.000  
E27  23242748.500   122141441.996          50.000    23242752.740    91209506.262          50.000  
> 2020  5 21 21 22  2.0000000  0 12       0.000000000000
G 2  20834916.460   109488254.711          50.000                                                  
G 5  23739045.580   124749491.066          50.000                                                  
G 6  21807566.960   114599484.980          50.000    21807569.900    85577536.840          50.000  
G12  20324987.620   106808529.430          50.000                                                  
G19  23519107.400   123593747.770          50.000                                                  
G24  22456863.760   118011551.043          50.000    22456867.020    88125503.738          50.000  
G25  21883312.160   114997518.480          50.000    21883314.900    85874768.453          50.000  
G29  23897757.580   125583531.289          50.000                                                  
E13  23800896.180   125074535.527          50.000    23800900.340    93399804.352          50.000  
E15  23538912.300   123697784.766          50.000    23538917.520    92371709.605          50.000  
E21  25072677.320   131757784.387          50.000    25072682.040    98390541.668          50.000  
E27  23242855.420   122142003.777          50.000    23242859.640    91209925.773          50.000  
> 2020  5 21 21 22  3.0000000  0 12       0.000000000000
G 2  20835044.060   109488925.266          50.000                                                  
G 5  23738433.020   124746272.086          50.000                                                  
G 6  21808027.400   114601904.641          50.000    21808030.360    85579343.734          50.000  
G12  20324771.940   106807396.012          50.000                                                  
G19  23519636.440   123596527.883          50.000                                                  
G24  22457372.560   118014224.816          50.000    22457375.820    88127500.383          50.000  
G25  21882809.420   114994876.508          50.000    21882812.160    85872795.551          50.000  
G29  23897288.740   125581067.543          50.000                                                  
E13  23800661.400   125073301.730          50.000    23800665.560    93398883.008          50.000  
E15  23539165.720   123699116.574          50.000    23539170.960    92372704.137          50.000  
E21  25072292.260   131755760.852          50.000    25072296.980    98389030.586          50.000  
E27  23242962.400   122142565.957          50.000    23242966.620    91210345.582          50.000  
> 2020  5 21 21 22  4.0000000  0 12       0.000000000000
G 2  20835171.760   109489596.316          50.000                                                  
G 5  23737820.480   124743053.184          50.000                                                  
G 6  21808487.940   114604324.711          50.000    21808490.880    85581150.926          50.000  
G12  20324556.340   106806263.043          50.000                                                  
G19  23520165.500   123599308.039          50.000                                                  
G24  22457881.420   118016898.922          50.000    22457884.680    88129497.281          50.000  
G25  21882306.720   114992234.785          50.000    21882309.460    85870822.836          50.000  
G29  23896819.920   125578603.910          50.000                                                  
E13  23800426.680   125072068.266          50.000    23800430.840    93397961.914          50.000  
E15  23539419.220   123700448.633          50.000    23539424.440    92373698.855          50.000  
E21  25071907.240   131753737.551          50.000    25071911.960    98387519.684          50.000  
E27  23243069.440   122143128.535          50.000    23243073.680    91210765.691          50.000  
> 2020  5 21 21 22  5.0000000  0 12       0.000000000000
G 2  20835299.540   109490267.832          50.000                                                  
G 5  23737207.960   124739834.363          50.000                                                  
G 6  21808948.540   114606745.164          50.000    21808951.480    85582958.406          50.000  
G12  20324340.820   106805130.496          50.000                                                  
G19  23520694.540   123602088.227          50.000                                                  
G24  22458390.340   118019573.336          50.000    22458393.600    88131494.406          50.000  
G25  21881804.060   114989593.316          50.000    21881806.800    85868850.316          50.000  
G29  23896351.140   125576140.410          50.000                                                  
E13  23800192.020   125070835.121          50.000    23800196.180    93397041.063          50.000  
E15  23539672.740   123701780.949          50.000    23539677.980    92374693.766          50.000  
E21  25071522.260   131751714.480          50.000    25071526.980    98386008.945          50.000  
E27  23243176.580   122143691.516          50.000    23243180.820    91211186.098          50.000  
> 2020  5 21 21 22  6.0000000  0 12       0.000000000000
G 2  20835427.420   109490939.848          50.000                                                  
G 5  23736595.460   124736615.633          50.000                                                  
G 6  21809409.200   114609166.023          50.000    21809412.140    85584766.191          50.000  
G12  20324125.380   106803998.391          50.000                                                  
G19  23521223.600   123604868.453          50.000                                                  
G24  22458899.340   118022248.074          50.000    22458902.600    88133491.773          50.000  
G25  21881301.460   114986952.102          50.000    21881304.180    85866877.977          50.000  
G29  23895882.360   125573677.027          50.000                                                  
E13  23799957.420   125069602.301          50.000    23799961.580    93396120.449          50.000  
E15  23539926.320   123703113.523          50.000    23539931.560    92375688.871          50.000  
E21  25071137.320   131749691.637          50.000    25071142.040    98384498.383          50.000  
E27  23243283.780   122144254.895          50.000    23243288.020    91211606.805          50.000  
> 2020  5 21 21 22  7.0000000  0 12       0.000000000000
G 2  20835555.400   109491612.355          50.000                                                  
G 5  23735982.960   124733396.973          50.000                                                  
G 6  21809869.960   114611587.281          50.000    21809872.900    85586574.273          50.000  
G12  20323910.040   106802866.715          50.000                                                  
G19  23521752.680   123607648.723          50.000                                                  
G24  22459408.380   118024923.102          50.000    22459411.640    88135489.359          50.000  
G25  21880798.900   114984311.148          50.000    21880801.640    85864905.840          50.000  
G29  23895413.620   125571213.770          50.000                                                  
E13  23799722.880   125068369.813          50.000    23799727.040    93395200.086          50.000  
E15  23540179.960   123704446.348          50.000    23540185.180    92376684.164          50.000  
E21  25070752.440   131747669.023          50.000    25070757.160    98382987.992          50.000  
E27  23243391.060   122144818.676          50.000    23243395.300    91212027.809          50.000  
> 2020  5 21 21 22  8.0000000  0 12       0.000000000000
G 2  20835683.460   109492285.336          50.000                                                  
G 5  23735370.500   124730178.410          50.000                                                  
G 6  21810330.780   114614008.949          50.000    21810333.720    85588382.660          50.000  
G12  20323694.760   106801735.465          50.000                                                  
G19  23522281.740   123610429.023          50.000                                                  
G24  22459917.480   118027598.465          50.000    22459920.740    88137487.195          50.000  
G25  21880296.380   114981670.469          50.000    21880299.120    85862933.902          50.000  
G29  23894944.900   125568750.641          50.000                                                  
E13  23799488.400   125067137.660          50.000    23799492.580    93394279.969          50.000  
E15  23540433.620   123705779.434          50.000    23540438.860    92377679.648          50.000  
E21  25070367.600   131745646.645          50.000    25070372.300    98381477.773          50.000  
E27  23243498.420   122145382.855          50.000    23243502.660    91212449.113          50.000  
> 2020  5 21 21 22  9.0000000  0 12       0.000000000000
G 2  20835811.620   109492958.805          50.000                                                  
G 5  23734758.040   124726959.926          50.000                                                  
G 6  21810791.680   114616431.012          50.000    21810794.620    85590191.344          50.000  
G12  20323479.580   106800604.672          50.000                                                  
G19  23522810.840   123613209.367          50.000                                                  
G24  22460426.640   118030274.164          50.000    22460429.920    88139485.281          50.000  
G25  21879793.940   114979030.043          50.000    21879796.660    85860962.160          50.000  
G29  23894476.200   125566287.637          50.000                                                  
E13  23799254.000   125065905.844          50.000    23799258.160    93393360.109          50.000  
E15  23540687.360   123707112.785          50.000    23540692.580    92378675.332          50.000  
E21  25069982.780   131743624.500          50.000    25069987.500    98379967.730          50.000  
E27  23243605.860   122145947.453          50.000    23243610.100    91212870.727          50.000  
> 2020  5 21 21 22 10.0000000  0 12       0.000000000000
G 2  20835939.860   109493632.766          50.000                                                  
G 5  23734145.600   124723741.512          50.000                                                  
G 6  21811252.660   114618853.473          50.000    21811255.600    85592000.324          50.000  
G12  20323264.480   106799474.313          50.000                                                  
G19  23523339.920   123615989.754          50.000                                                  
G24  22460935.880   118032950.168          50.000    22460939.140    88141483.594          50.000  
G25  21879291.520   114976389.867          50.000    21879294.260    85858990.602          50.000  
G29  23894007.540   125563824.754          50.000                                                  
E13  23799019.660   125064674.355          50.000    23799023.820    93392440.492          50.000  
E15  23540941.140   123708446.383          50.000    23540946.360    92379671.199          50.000  
E21  25069598.020   131741602.578          50.000    25069602.740    98378457.855          50.000  
E27  23243713.380   122146512.434          50.000    23243717.620    91213292.629          50.000  
> 2020  5 21 21 22 11.0000000  0 12       0.000000000000
G 2  20836068.200   109494307.211          50.000                                                  
G 5  23733533.160   124720523.188          50.000                                                  
G 6  21811713.720   114621276.328          50.000    21811716.660    85593809.598          50.000  
G12  20323049.460   106798344.379          50.000                                                  
G19  23523869.020   123618770.176          50.000                                                  
G24  22461445.160   118035626.500          50.000    22461448.420    88143482.156          50.000  
G25  21878789.160   114973749.953          50.000    21878791.900    85857019.238          50.000  
G29  23893538.900   125561362.000          50.000                                                  
E13  23798785.380   125063443.195          50.000    23798789.540    93391521.117          50.000  
E15  23541194.960   123709780.234          50.000    23541200.180    92380667.258          50.000  
E21  25069213.320   131739580.898          50.000    25069218.040    98376948.160          50.000  
E27  23243820.960   122147077.820          50.000    23243825.200    91213714.832          50.000  
> 2020  5 21 21 22 12.0000000  0 12       0.000000000000
G 2  20836196.640   109494982.141          50.000                                                  
G 5  23732920.740   124717304.941          50.000                                                  
G 6  21812174.860   114623699.605          50.000    21812177.800    85595619.188          50.000  
G12  20322834.520   106797214.879          50.000                                                  
G19  23524398.120   123621550.637          50.000                                                  
G24  22461954.520   118038303.168          50.000    22461957.780    88145480.961          50.000  
G25  21878286.860   114971110.305          50.000    21878289.600    85855048.070          50.000  
G29  23893070.260   125558899.371          50.000                                                  
E13  23798551.160   125062212.355          50.000    23798555.320    93390601.984          50.000  
E15  23541448.840   123711114.352          50.000    23541454.060    92381663.512          50.000  
E21  25068828.640   131737559.449          50.000    25068833.360    98375438.637          50.000  
E27  23243928.640   122147643.602          50.000    23243932.860    91214137.332          50.000  
> 2020  5 21 21 22 13.0000000  0 12       0.000000000000
G 2  20836325.160   109495657.555          50.000                                                  
G 5  23732308.360   124714086.785          50.000                                                  
G 6  21812636.060   114626123.266          50.000    21812639.000    85597429.063          50.000  
G12  20322619.680   106796085.820          50.000                                                  
G19  23524927.240   123624331.137          50.000                                                  
G24  22462463.940   118040980.164          50.000    22462467.200    88147480.016          50.000  
G25  21877784.600   114968470.910          50.000    21877787.320    85853077.094          50.000  
G29  23892601.660   125556436.863          50.000                                                  
E13  23798317.000   125060981.844          50.000    23798321.160    93389683.098          50.000  
E15  23541702.760   123712448.719          50.000    23541707.980    92382659.957          50.000  
E21  25068444.020   131735538.215          50.000    25068448.740    98373929.273          50.000  
E27  23244036.380   122148209.789          50.000    23244040.620    91214560.133          50.000  
> 2020  5 21 21 22 14.0000000  0 12       0.000000000000
G 2  20836453.780   109496333.465          50.000                                                  
G 5  23731695.980   124710868.707          50.000                                                  
G 6  21813097.340   114628547.324          50.000    21813100.280    85599239.234          50.000  
G12  20322404.900   106794957.191          50.000                                                  
G19  23525456.360   123627111.676          50.000                                                  
G24  22462973.420   118043657.492          50.000    22462976.680    88149479.320          50.000  
G25  21877282.380   114965831.773          50.000    21877285.120    85851106.313          50.000  
G29  23892133.080   125553974.484          50.000                                                  
E13  23798082.900   125059751.668          50.000    23798087.060    93388764.461          50.000  
E15  23541956.720   123713783.340          50.000    23541961.960    92383656.590          50.000  
E21  25068059.440   131733517.230          50.000    25068064.160    98372420.098          50.000  
E27  23244144.200   122148776.379          50.000    23244148.420    91214983.234          50.000  
> 2020  5 21 21 22 15.0000000  0 12       0.000000000000
G 2  20836582.500   109497009.848          50.000                                                  
G 5  23731083.600   124707650.715          50.000                                                  
G 6  21813558.700   114630971.785          50.000    21813561.640    85601049.711          50.000  
G12  20322190.220   106793829.012          50.000                                                  
G19  23525985.480   123629892.254          50.000                                                  
G24  22463482.960   118046335.156          50.000    22463486.220    88151478.875          50.000  
G25  21876780.220   114963192.898          50.000    21876782.960    85849135.727          50.000  
G29  23891664.540   125551512.223          50.000                                                  
E13  23797848.880   125058521.828          50.000    23797853.040    93387846.070          50.000  
E15  23542210.740   123715118.219          50.000    23542215.960    92384653.414          50.000  
E21  25067674.900   131731496.469          50.000    25067679.620    98370911.086          50.000  
E27  23244252.080   122149343.355          50.000    23244256.320    91215406.629          50.000  
> 2020  5 21 21 22 16.0000000  0 12       0.000000000000
G 2  20836711.300   109497686.727          50.000                                                  
G 5  23730471.260   124704432.801          50.000                                                  
G 6  21814020.140   114633396.641          50.000    21814023.080    85602860.477          50.000  
G12  20321975.620   106792701.262          50.000                                                  
G19  23526514.620   123632672.875          50.000                                                  
G24  22463992.560   118049013.117          50.000    22463995.820    88153478.648          50.000  
G25  21876278.100   114960554.285          50.000    21876280.840    85847165.332          50.000  
G29  23891196.000   125549050.090          50.000                                                  
E13  23797614.900   125057292.320          50.000    23797619.060    93386927.934          50.000  
E15  23542464.800   123716453.352          50.000    23542470.040    92385650.430          50.000  
E21  25067290.400   131729475.945          50.000    25067295.120    98369402.258          50.000  
E27  23244360.060   122149910.754          50.000    23244364.300    91215830.332          50.000  
> 2020  5 21 21 22 17.0000000  0 12       0.000000000000
G 2  20836840.200   109498364.078          50.000                                                  
G 5  23729858.920   124701214.973          50.000                                                  
G 6  21814481.660   114635821.898          50.000    21814484.600    85604671.547          50.000  
G12  20321761.100   106791573.945          50.000                                                  
G19  23527043.760   123635453.520          50.000                                                  
G24  22464502.220   118051691.387          50.000    22464505.480    88155478.652          50.000  
G25  21875776.040   114957915.922          50.000    21875778.780    85845195.125          50.000  
G29  23890727.500   125546588.074          50.000                                                  
E13  23797381.000   125056063.109          50.000    23797385.160    93386010.016          50.000  
E15  23542718.920   123717788.738          50.000    23542724.160    92386647.637          50.000  
E21  25066905.960   131727455.645          50.000    25066910.660    98367893.590          50.000  
E27  23244468.100   122150478.527          50.000    23244472.340    91216254.320          50.000  
> 2020  5 21 21 22 18.0000000  0 12       0.000000000000
G 2  20836969.200   109499041.926          50.000                                                  
G 5  23729246.600   124697997.230          50.000                                                  
G 6  21814943.240   114638247.563          50.000    21814946.180    85606482.918          50.000  
G12  20321546.660   106790447.070          50.000                                                  
G19  23527572.900   123638234.207          50.000                                                  
G24  22465011.940   118054369.984          50.000    22465015.200    88157478.902          50.000  
G25  21875274.020   114955277.820          50.000    21875276.760    85843225.117          50.000  
G29  23890259.020   125544126.188          50.000                                                  
E13  23797147.140   125054834.258          50.000    23797151.300    93385092.367          50.000  
E15  23542973.100   123719124.391          50.000    23542978.320    92387645.035          50.000  
E21  25066521.560   131725435.582          50.000    25066526.260    98366385.102          50.000  
E27  23244576.220   122151046.719          50.000    23244580.460    91216678.621          50.000  
> 2020  5 21 21 22 19.0000000  0 12       0.000000000000
G 2  20837098.280   109499720.250          50.000                                                  
G 5  23728634.300   124694779.566          50.000                                                  
G 6  21815404.900   114640673.613          50.000    21815407.840    85608294.582          50.000  
G12  20321332.300   106789320.625          50.000                                                  
G19  23528102.060   123641014.922          50.000                                                  
G24  22465521.720   118057048.902          50.000    22465524.980    88159479.395          50.000  
G25  21874772.060   114952639.965          50.000    21874774.800    85841255.293          50.000  
G29  23889790.560   125541664.430          50.000                                                  
E13  23796913.360   125053605.738          50.000    23796917.520    93384174.969          50.000  
E15  23543227.300   123720460.289          50.000    23543232.540    92388642.621          50.000  
E21  25066137.180   131723415.750          50.000    25066141.900    98364876.789          50.000  
E27  23244684.420   122151615.313          50.000    23244688.660    91217103.215          50.000  
> 2020  5 21 21 22 20.0000000  0 12       0.000000000000
G 2  20837227.440   109500399.066          50.000                                                  
G 5  23728022.020   124691561.980          50.000                                                  
G 6  21815866.640   114643100.070          50.000    21815869.580    85610106.543          50.000  
G12  20321118.020   106788194.613          50.000                                                  
G19  23528631.220   123643795.676          50.000                                                  
G24  22466031.560   118059728.160          50.000    22466034.840    88161480.137          50.000  
G25  21874270.140   114950002.387          50.000    21874272.880    85839285.672          50.000  
G29  23889322.120   125539202.797          50.000                                                  
E13  23796679.640   125052377.535          50.000    23796683.800    93383257.801          50.000  
E15  23543481.560   123721796.445          50.000    23543486.800    92389640.402          50.000  
E21  25065752.880   131721396.148          50.000    25065757.580    98363368.645          50.000  
E27  23244792.700   122152184.293          50.000    23244796.940    91217528.105          50.000  
> 2020  5 21 21 22 21.0000000  0 12       0.000000000000
G 2  20837356.720   109501078.363          50.000                                                  
G 5  23727409.740   124688344.484          50.000                                                  
G 6  21816328.460   114645526.926          50.000    21816331.400    85611918.805          50.000  
G12  20320903.840   106787069.043          50.000                                                  
G19  23529160.380   123646576.473          50.000                                                  
G24  22466541.480   118062407.727          50.000    22466544.740    88163481.109          50.000  
G25  21873768.280   114947365.066          50.000    21873771.020    85837316.246          50.000  
G29  23888853.720   125536741.285          50.000                                                  
E13  23796446.000   125051149.672          50.000    23796450.160    93382340.891          50.000  
E15  23543735.880   123723132.852          50.000    23543741.100    92390638.367          50.000  
E21  25065368.600   131719376.785          50.000    25065373.320    98361860.680          50.000  
E27  23244901.060   122152753.688          50.000    23244905.280    91217953.301          50.000  
> 2020  5 21 21 22 22.0000000  0 12       0.000000000000
G 2  20837486.080   109501758.152          50.000                                                  
G 5  23726797.480   124685127.066          50.000                                                  
G 6  21816790.360   114647954.172          50.000    21816793.300    85613731.359          50.000  
G12  20320689.740   106785943.914          50.000                                                  
G19  23529689.560   123649357.316          50.000                                                  
G24  22467051.440   118065087.637          50.000    22467054.700    88165482.344          50.000  
G25  21873266.460   114944728.008          50.000    21873269.200    85835347.016          50.000  
G29  23888385.320   125534279.898          50.000                                                  
E13  23796212.400   125049922.113          50.000    23796216.560    93381424.211          50.000  
E15  23543990.240   123724469.531          50.000    23543995.460    92391636.535          50.000  
E21  25064984.360   131717357.645          50.000    25064989.080    98360352.879          50.000  
E27  23245009.480   122153323.469          50.000    23245013.720    91218378.789          50.000  
> 2020  5 21 21 22 23.0000000  0 12       0.000000000000
G 2  20837615.520   109502438.426          50.000                                                  
G 5  23726185.260   124681909.734          50.000                                                  
G 6  21817252.320   114650381.832          50.000    21817255.260    85615544.223          50.000  
G12  20320475.720   106784819.219          50.000                                                  
G19  23530218.740   123652138.191          50.000                                                  
G24  22467561.480   118067767.867          50.000    22467564.740    88167483.813          50.000  
G25  21872764.700   114942091.199          50.000    21872767.420    85833377.969          50.000  
G29  23887916.960   125531818.641          50.000                                                  
E13  23795978.880   125048694.918          50.000    23795983.040    93380507.797          50.000  
E15  23544244.640   123725806.453          50.000    23544249.880    92392634.887          50.000  
E21  25064600.180   131715338.742          50.000    25064604.900    98358845.258          50.000  
E27  23245117.980   122153893.664          50.000    23245122.220    91218804.586          50.000  
> 2020  5 21 21 22 24.0000000  0 12       0.000000000000
G 2  20837745.060   109503119.184          50.000                                                  
G 5  23725573.020   124678692.496          50.000                                                  
G 6  21817714.360   114652809.883          50.000    21817717.300    85617357.375          50.000  
G12  20320261.780   106783694.957          50.000                                                  
G19  23530747.940   123654919.105          50.000                                                  
G24  22468071.560   118070448.414          50.000    22468074.840    88169485.520          50.000  
G25  21872262.980   114939454.648          50.000    21872265.700    85831409.117          50.000  
G29  23887448.620   125529357.504          50.000                                                  
E13  23795745.400   125047468.035          50.000    23795749.560    93379591.617          50.000  
E15  23544499.100   123727143.633          50.000    23544504.340    92393633.430          50.000  
E21  25064216.040   131713320.070          50.000    25064220.760    98357337.809          50.000  
E27  23245226.560   122154464.258          50.000    23245230.800    91219230.676          50.000  
> 2020  5 21 21 22 25.0000000  0 12       0.000000000000
G 2  20837874.700   109503800.426          50.000                                                  
G 5  23724960.820   124675475.328          50.000                                                  
G 6  21818176.480   114655238.328          50.000    21818179.420    85619170.824          50.000  
G12  20320047.920   106782571.141          50.000                                                  
G19  23531277.140   123657700.059          50.000                                                  
G24  22468581.720   118073129.277          50.000    22468584.980    88171487.461          50.000  
G25  21871761.300   114936818.355          50.000    21871764.040    85829440.457          50.000  
G29  23886980.300   125526896.484          50.000                                                  
E13  23795512.000   125046241.484          50.000    23795516.160    93378675.688          50.000  
E15  23544753.600   123728481.066          50.000    23544758.840    92394632.164          50.000  
E21  25063831.940   131711301.633          50.000    25063836.660    98355830.535          50.000  
E27  23245335.220   122155035.250          50.000    23245339.460    91219657.066          50.000  
> 2020  5 21 21 22 26.0000000  0 12       0.000000000000
G 2  20838004.440   109504482.145          50.000                                                  
G 5  23724348.640   124672258.250          50.000                                                  
G 6  21818638.680   114657667.172          50.000    21818641.620    85620984.570          50.000  
G12  20319834.140   106781447.750          50.000                                                  
G19  23531806.340   123660481.047          50.000                                                  
G24  22469091.940   118075810.465          50.000    22469095.200    88173489.645          50.000  
G25  21871259.680   114934182.320          50.000    21871262.420    85827471.992          50.000  
G29  23886512.020   125524435.598          50.000                                                  
E13  23795278.660   125045015.254          50.000    23795282.820    93377759.996          50.000  
E15  23545008.160   123729818.758          50.000    23545013.400    92395631.086          50.000  
E21  25063447.900   131709283.418          50.000    25063452.600    98354323.426          50.000  
E27  23245443.960   122155606.637          50.000    23245448.180    91220083.750          50.000  
> 2020  5 21 21 22 27.0000000  0 12       0.000000000000
G 2  20838134.240   109505164.348          50.000                                                  
G 5  23723736.460   124669041.262          50.000                                                  
G 6  21819100.940   114660096.414          50.000    21819103.880    85622798.617          50.000  
G12  20319620.460   106780324.805          50.000                                                  
G19  23532335.560   123663262.074          50.000                                                  
G24  22469602.200   118078491.965          50.000    22469605.480    88175492.063          50.000  
G25  21870758.120   114931546.559          50.000    21870760.840    85825503.730          50.000  
G29  23886043.740   125521974.836          50.000                                                  
E13  23795045.380   125043789.363          50.000    23795049.540    93376844.559          50.000  
E15  23545262.760   123731156.703          50.000    23545268.000    92396630.203          50.000  
E21  25063063.880   131707265.445          50.000    25063068.600    98352816.500          50.000  
E27  23245552.760   122156178.434          50.000    23245557.000    91220510.742          50.000  
> 2020  5 21 21 22 28.0000000  0 12       0.000000000000
G 2  20838264.160   109505847.039          50.000                                                  
G 5  23723124.300   124665824.344          50.000                                                  
G 6  21819563.280   114662526.055          50.000    21819566.240    85624612.957          50.000  
G12  20319406.840   106779202.301          50.000                                                  
G19  23532864.780   123666043.141          50.000                                                  
G24  22470112.540   118081173.789          50.000    22470115.800    88177494.723          50.000  
G25  21870256.600   114928911.043          50.000    21870259.320    85823535.652          50.000  
G29  23885575.500   125519514.203          50.000                                                  
E13  23794812.160   125042563.805          50.000    23794816.320    93375929.367          50.000  
E15  23545517.420   123732494.902          50.000    23545522.640    92397629.508          50.000  
E21  25062679.920   131705247.703          50.000    25062684.640    98351309.746          50.000  
E27  23245661.640   122156750.629          50.000    23245665.880    91220938.031          50.000  
> 2020  5 21 21 22 29.0000000  0 12       0.000000000000
G 2  20838394.160   109506530.211          50.000                                                  
G 5  23722512.160   124662607.523          50.000                                                  
G 6  21820025.720   114664956.098          50.000    21820028.660    85626427.598          50.000  
G12  20319193.320   106778080.227          50.000                                                  
G19  23533394.000   123668824.250          50.000                                                  
G24  22470622.940   118083855.918          50.000    22470626.200    88179497.609          50.000  
G25  21869755.120   114926275.805          50.000    21869757.860    85821567.777          50.000  
G29  23885107.280   125517053.684          50.000                                                  
E13  23794579.000   125041338.570          50.000    23794583.160    93375014.422          50.000  
E15  23545772.120   123733833.352          50.000    23545777.340    92398629.000          50.000  
E21  25062296.000   131703230.191          50.000    25062300.720    98349803.164          50.000  
E27  23245770.600   122157323.227          50.000    23245774.840    91221365.617          50.000  
> 2020  5 21 21 22 30.0000000  0 12       0.000000000000
G 2  20838524.260   109507213.863          50.000                                                  
G 5  23721900.020   124659390.793          50.000                                                  
G 6  21820488.200   114667386.535          50.000    21820491.160    85628242.535          50.000  
G12  20318979.880   106776958.590          50.000                                                  
G19  23533923.240   123671605.391          50.000                                                  
G24  22471133.380   118086538.391          50.000    22471136.660    88181500.754          50.000  
G25  21869253.700   114923640.820          50.000    21869256.440    85819600.098          50.000  
G29  23884639.080   125514593.301          50.000                                                  
E13  23794345.920   125040113.672          50.000    23794350.080    93374099.727          50.000  
E15  23546026.860   123735172.070          50.000    23546032.100    92399628.691          50.000  
E21  25061912.120   131701212.918          50.000    25061916.840    98348296.758          50.000  
E27  23245879.640   122157896.227          50.000    23245883.880    91221793.508          50.000  
> 2020  5 21 21 22 31.0000000  0 12       0.000000000000
G 2  20838654.440   109507898.004          50.000                                                  
G 5  23721287.920   124656174.137          50.000                                                  
G 6  21820950.780   114669817.375          50.000    21820953.720    85630057.770          50.000  
G12  20318766.520   106775837.395          50.000                                                  
G19  23534452.480   123674386.574          50.000                                                  
G24  22471643.900   118089221.176          50.000    22471647.180    88183504.129          50.000  
G25  21868752.320   114921006.098          50.000    21868755.060    85817632.609          50.000  
G29  23884170.920   125512133.039          50.000                                                  
E13  23794112.880   125038889.086          50.000    23794117.040    93373185.262          50.000  
E15  23546281.660   123736511.031          50.000    23546286.880    92400628.566          50.000  
E21  25061528.300   131699195.871          50.000    25061533.000    98346790.523          50.000  
E27  23245988.760   122158469.625          50.000    23245993.000    91222221.695          50.000  
> 2020  5 21 21 22 32.0000000  0 12       0.000000000000
G 2  20838784.720   109508582.637          50.000                                                  
G 5  23720675.820   124652957.574          50.000                                                  
G 6  21821413.440   114672248.613          50.000    21821416.380    85631873.305          50.000  
G12  20318553.260   106774716.633          50.000                                                  
G19  23534981.740   123677167.793          50.000                                                  
G24  22472154.480   118091904.285          50.000    22472157.760    88185507.750          50.000  
G25  21868251.000   114918371.633          50.000    21868253.740    85815665.316          50.000  
G29  23883702.760   125509672.902          50.000                                                  
E13  23793879.920   125037664.840          50.000    23793884.080    93372271.055          50.000  
E15  23546536.500   123737850.254          50.000    23546541.740    92401628.633          50.000  
E21  25061144.500   131697179.059          50.000    25061149.220    98345284.461          50.000  
E27  23246097.940   122159043.418          50.000    23246102.180    91222650.176          50.000  
> 2020  5 21 21 22 33.0000000  0 12       0.000000000000
G 2  20838915.100   109509267.758          50.000                                                  
G 5  23720063.740   124649741.086          50.000                                                  
G 6  21821876.160   114674680.246          50.000    21821879.100    85633689.137          50.000  
G12  20318340.060   106773596.305          50.000                                                  
G19  23535510.980   123679949.055          50.000                                                  
G24  22472665.120   118094587.715          50.000    22472668.400    88187511.609          50.000  
G25  21867749.740   114915737.434          50.000    21867752.460    85813698.219          50.000  
G29  23883234.640   125507212.895          50.000                                                  
E13  23793647.020   125036440.930          50.000    23793651.180    93371357.094          50.000  
E15  23546791.400   123739189.727          50.000    23546796.620    92402628.891          50.000  
E21  25060760.760   131695162.473          50.000    25060765.480    98343778.570          50.000  
E27  23246207.220   122159617.617          50.000    23246211.460    91223078.961          50.000  
> 2020  5 21 21 22 34.0000000  0 12       0.000000000000
G 2  20839045.560   109509953.352          50.000                                                  
G 5  23719451.680   124646524.684          50.000                                                  
G 6  21822338.960   114677112.281          50.000    21822341.900    85635505.266          50.000  
G12  20318126.960   106772476.418          50.000                                                  
G19  23536040.260   123682730.344          50.000                                                  
G24  22473175.840   118097271.500          50.000    22473179.100    88189515.734          50.000  
G25  21867248.520   114913103.484          50.000    21867251.240    85811731.313          50.000  
G29  23882766.540   125504753.016          50.000                                                  
E13  23793414.180   125035217.344          50.000    23793418.320    93370443.379          50.000  
E15  23547046.340   123740529.461          50.000    23547051.580    92403629.340          50.000  
E21  25060377.060   131693146.133          50.000    25060381.780    98342272.859          50.000  
E27  23246316.560   122160192.219          50.000    23246320.800    91223508.051          50.000  
> 2020  5 21 21 22 35.0000000  0 12       0.000000000000
G 2  20839176.120   109510639.441          50.000                                                  
G 5  23718839.640   124643308.367          50.000                                                  
G 6  21822801.840   114679544.699          50.000    21822804.780    85637321.680          50.000  
G12  20317913.920   106771356.969          50.000                                                  
G19  23536569.520   123685511.672          50.000                                                  
G24  22473686.600   118099955.613          50.000    22473689.880    88191520.105          50.000  
G25  21866747.340   114910469.801          50.000    21866750.060    85809764.602          50.000  
G29  23882298.460   125502293.258          50.000                                                  
E13  23793181.400   125033994.078          50.000    23793185.540    93369529.898          50.000  
E15  23547301.340   123741869.449          50.000    23547306.560    92404629.980          50.000  
E21  25059993.420   131691130.020          50.000    25059998.120    98340767.324          50.000  
E27  23246425.980   122160767.223          50.000    23246430.220    91223937.438          50.000  
> 2020  5 21 21 22 36.0000000  0 12       0.000000000000
G 2  20839306.780   109511326.012          50.000                                                  
G 5  23718227.600   124640092.137          50.000                                                  
G 6  21823264.780   114681977.539          50.000    21823267.740    85639138.410          50.000  
G12  20317700.980   106770237.953          50.000                                                  
G19  23537098.800   123688293.043          50.000                                                  
G24  22474197.440   118102640.043          50.000    22474200.700    88193524.711          50.000  
G25  21866246.220   114907836.371          50.000    21866248.940    85807798.078          50.000  
G29  23881830.400   125499833.621          50.000                                                  
E13  23792948.680   125032771.168          50.000    23792952.840    93368616.688          50.000  
E15  23547556.380   123743209.691          50.000    23547561.600    92405630.813          50.000  
E21  25059609.800   131689114.137          50.000    25059614.520    98339261.957          50.000  
E27  23246535.480   122161342.637          50.000    23246539.720    91224367.129          50.000  
> 2020  5 21 21 22 37.0000000  0 12       0.000000000000
G 2  20839437.520   109512013.055          50.000                                                  
G 5  23717615.600   124636875.988          50.000                                                  
G 6  21823727.820   114684410.762          50.000    21823730.760    85640955.426          50.000  
G12  20317488.120   106769119.379          50.000                                                  
G19  23537628.080   123691074.441          50.000                                                  
G24  22474708.320   118105324.793          50.000    22474711.600    88195529.555          50.000  
G25  21865745.140   114905203.211          50.000    21865747.860    85805831.758          50.000  
G29  23881362.380   125497374.113          50.000                                                  
E13  23792716.020   125031548.563          50.000    23792720.180    93367703.707          50.000  
E15  23547811.460   123744550.184          50.000    23547816.700    92406631.828          50.000  
E21  25059226.240   131687098.484          50.000    25059230.940    98337756.766          50.000  
E27  23246645.040   122161918.438          50.000    23246649.280    91224797.109          50.000  
> 2020  5 21 21 22 42.0000000  0  9       0.000000000000
G 2  20840093.160   109515458.434          50.000                                                  
G 5  23714554.700   124620791.035          50.000                                                  
G 6  21826046.380   114696594.934          50.000    21826049.320    85650053.996          50.000  
G12  20316425.580   106763535.648          50.000                                                  
G19  23540277.380   123704996.586          50.000                                                  
G24  22477261.060   118118739.449          50.000    22477264.340    88205546.973          50.000  
G25  21863240.780   114892042.723          50.000    21863243.500    85796004.125          50.000  
G29  23879020.640   125485068.238          50.000                                                  
E15  23549089.120   123751264.379          50.000    23549094.360    92411645.672          50.000  
> 2020  5 21 21 22 43.0000000  0  9       0.000000000000
G 2  20840224.440   109516148.402          50.000                                                  
G 5  23713942.780   124617575.438          50.000                                                  
G 6  21826509.860   114699030.539          50.000    21826512.800    85651872.793          50.000  
G12  20316213.220   106762419.699          50.000                                                  
G19  23540806.720   123707778.219          50.000                                                  
G24  22477772.320   118121426.090          50.000    22477775.580    88207553.230          50.000  
G25  21862740.000   114889411.129          50.000    21862742.720    85794038.973          50.000  
G29  23878552.740   125482609.473          50.000                                                  
E15  23549344.500   123752606.402          50.000    23549349.740    92412647.832          50.000  
> 2020  5 21 21 22 44.0000000  0  9       0.000000000000
G 2  20840355.840   109516838.852          50.000                                                  
G 5  23713330.900   124614359.930          50.000                                                  
G 6  21826973.420   114701466.535          50.000    21826976.360    85653691.883          50.000  
G12  20316000.940   106761304.188          50.000                                                  
G19  23541336.040   123710559.879          50.000                                                  
G24  22478283.620   118124113.043          50.000    22478286.900    88209559.723          50.000  
G25  21862239.280   114886779.793          50.000    21862242.000    85792074.020          50.000  
G29  23878084.880   125480150.832          50.000                                                  
E15  23549599.940   123753948.688          50.000    23549605.160    92413650.191          50.000  
> 2020  5 21 21 22 45.0000000  0  9       0.000000000000
G 2  20840487.320   109517529.789          50.000                                                  
G 5  23712719.020   124611144.500          50.000                                                  
G 6  21827437.060   114703902.941          50.000    21827440.000    85655511.273          50.000  
G12  20315788.760   106760189.102          50.000                                                  
G19  23541865.380   123713341.590          50.000                                                  
G24  22478795.000   118126800.316          50.000    22478798.280    88211566.449          50.000  
G25  21861738.600   114884148.715          50.000    21861741.320    85790109.254          50.000  
G29  23877617.040   125477692.320          50.000                                                  
E15  23549855.420   123755291.215          50.000    23549860.640    92414652.727          50.000  
> 2020  5 21 21 22 46.0000000  0  9       0.000000000000
G 2  20840618.880   109518221.207          50.000                                                  
G 5  23712107.160   124607929.152          50.000                                                  
G 6  21827900.760   114706339.738          50.000    21827903.700    85657330.961          50.000  
G12  20315576.640   106759074.461          50.000                                                  
G19  23542394.740   123716123.340          50.000                                                  
G24  22479306.420   118129487.895          50.000    22479309.700    88213573.406          50.000  
G25  21861237.960   114881517.895          50.000    21861240.700    85788144.680          50.000  
G29  23877149.220   125475233.934          50.000                                                  
E15  23550110.940   123756634.008          50.000    23550116.160    92415655.461          50.000  
> 2020  5 21 21 22 47.0000000  0  9       0.000000000000
G 2  20840750.560   109518913.109          50.000                                                  
G 5  23711495.300   124604713.891          50.000                                                  
G 6  21828364.540   114708776.926          50.000    21828367.480    85659150.938          50.000  
G12  20315364.620   106757960.254          50.000                                                  
G19  23542924.100   123718905.121          50.000                                                  
G24  22479817.920   118132175.801          50.000    22479821.200    88215580.609          50.000  
G25  21860737.380   114878887.348          50.000    21860740.120    85786180.309          50.000  
G29  23876681.440   125472775.668          50.000                                                  
E15  23550366.500   123757977.051          50.000    23550371.740    92416658.383          50.000  
> 2020  5 21 21 22 48.0000000  0  9       0.000000000000
G 2  20840882.300   109519605.488          50.000                                                  
G 5  23710883.480   124601498.715          50.000                                                  
G 6  21828828.400   114711214.516          50.000    21828831.340    85660971.215          50.000  
G12  20315152.680   106756846.492          50.000                                                  
G19  23543453.460   123721686.941          50.000                                                  
G24  22480329.480   118134864.020          50.000    22480332.740    88217588.043          50.000  
G25  21860236.860   114876257.051          50.000    21860239.580    85784216.129          50.000  
G29  23876213.660   125470317.527          50.000                                                  
E15  23550622.140   123759320.348          50.000    23550627.360    92417661.492          50.000  
> 2020  5 21 21 22 49.0000000  0  9       0.000000000000
G 2  20841014.160   109520298.355          50.000                                                  
G 5  23710271.660   124598283.629          50.000                                                  
G 6  21829292.340   114713652.508          50.000    21829295.280    85662791.793          50.000  
G12  20314940.820   106755733.168          50.000                                                  
G19  23543982.820   123724468.801          50.000                                                  
G24  22480841.080   118137552.574          50.000    22480844.360    88219595.730          50.000  
G25  21859736.380   114873627.035          50.000    21859739.100    85782252.156          50.000  
G29  23875745.920   125467859.516          50.000                                                  
E15  23550877.800   123760663.898          50.000    23550883.020    92418664.793          50.000  
> 2020  5 21 21 22 50.0000000  0  9       0.000000000000
G 2  20841146.100   109520991.703          50.000                                                  
G 5  23709659.860   124595068.617          50.000                                                  
G 6  21829756.340   114716090.883          50.000    21829759.280    85664612.656          50.000  
G12  20314729.040   106754620.273          50.000                                                  
G19  23544512.200   123727250.691          50.000                                                  
G24  22481352.760   118140241.469          50.000    22481356.040    88221603.668          50.000  
G25  21859235.960   114870997.266          50.000    21859238.680    85780288.367          50.000  
G29  23875278.200   125465401.621          50.000                                                  
E15  23551133.520   123762007.703          50.000    23551138.740    92419668.285          50.000  
> 2020  5 21 21 22 51.0000000  0  9       0.000000000000
G 2  20841278.120   109521685.543          50.000                                                  
G 5  23709048.080   124591853.695          50.000                                                  
G 6  21830220.420   114718529.664          50.000    21830223.380    85666433.824          50.000  
G12  20314517.340   106753507.832          50.000                                                  
G19  23545041.580   123730032.621          50.000                                                  
G24  22481864.500   118142930.691          50.000    22481867.780    88223611.855          50.000  
G25  21858735.580   114868367.766          50.000    21858738.300    85778324.781          50.000  
G29  23874810.500   125462943.855          50.000                                                  
E15  23551389.280   123763351.770          50.000    23551394.520    92420671.969          50.000  
> 2020  5 21 21 22 52.0000000  0  9       0.000000000000
G 2  20841410.260   109522379.855          50.000                                                  
G 5  23708436.320   124588638.863          50.000                                                  
G 6  21830684.580   114720968.832          50.000    21830687.540    85668255.281          50.000  
G12  20314305.740   106752395.813          50.000                                                  
G19  23545570.980   123732814.594          50.000                                                  
G24  22482376.300   118145620.211          50.000    22482379.580    88225620.262          50.000  
G25  21858235.240   114865738.512          50.000    21858237.980    85776361.379          50.000  
G29  23874342.820   125460486.215          50.000                                                  
E15  23551645.100   123764696.074          50.000    23551650.320    92421675.832          50.000  
> 2020  5 21 21 22 53.0000000  0  9       0.000000000000
G 2  20841542.480   109523074.664          50.000                                                  
G 5  23707824.580   124585424.109          50.000                                                  
G 6  21831148.820   114723408.398          50.000    21831151.760    85670077.035          50.000  
G12  20314094.220   106751284.238          50.000                                                  
G19  23546100.380   123735596.602          50.000                                                  
G24  22482888.180   118148310.086          50.000    22482891.460    88227628.934          50.000  
G25  21857734.960   114863109.547          50.000    21857737.700    85774398.191          50.000  
G29  23873875.180   125458028.699          50.000                                                  
E15  23551900.960   123766040.645          50.000    23551906.200    92422679.895          50.000  
> 2020  5 21 21 22 54.0000000  0  9       0.000000000000
G 2  20841674.780   109523769.941          50.000                                                  
G 5  23707212.840   124582209.449          50.000                                                  
G 6  21831613.140   114725848.363          50.000    21831616.080    85671899.086          50.000  
G12  20313882.760   106750173.094          50.000                                                  
G19  23546629.780   123738378.645          50.000                                                  
G24  22483400.100   118151000.270          50.000    22483403.380    88229637.832          50.000  
G25  21857234.740   114860480.809          50.000    21857237.460    85772435.176          50.000  
G29  23873407.540   125455571.301          50.000                                                  
E15  23552156.880   123767385.461          50.000    23552162.100    92423684.141          50.000  
> 2020  5 21 21 22 55.0000000  0  9       0.000000000000
G 2  20841807.180   109524465.715          50.000                                                  
G 5  23706601.140   124578994.879          50.000                                                  
G 6  21832077.520   114728288.723          50.000    21832080.460    85673721.434          50.000  
G12  20313671.400   106749062.398          50.000                                                  
G19  23547159.200   123741160.730          50.000                                                  
G24  22483912.080   118153690.762          50.000    22483915.360    88231646.965          50.000  
G25  21856734.560   114857852.352          50.000    21856737.280    85770472.367          50.000  
G29  23872939.940   125453114.031          50.000                                                  
E15  23552412.840   123768730.543          50.000    23552418.060    92424688.586          50.000  
> 2020  5 21 21 22 56.0000000  0  9       0.000000000000
G 2  20841939.660   109525161.961          50.000                                                  
G 5  23705989.440   124575780.391          50.000                                                  
G 6  21832541.980   114730729.480          50.000    21832544.920    85675544.074          50.000  
G12  20313460.140   106747952.141          50.000                                                  
G19  23547688.620   123743942.848          50.000                                                  
G24  22484424.140   118156381.574          50.000    22484427.400    88233656.340          50.000  
G25  21856234.420   114855224.160          50.000    21856237.160    85768509.758          50.000  
G29  23872472.360   125450656.879          50.000                                                  
E15  23552668.840   123770075.863          50.000    23552674.060    92425693.207          50.000  
> 2020  5 21 21 22 57.0000000  0  9       0.000000000000
G 2  20842072.260   109525858.691          50.000                                                  
G 5  23705377.760   124572565.992          50.000                                                  
G 6  21833006.520   114733170.637          50.000    21833009.460    85677367.016          50.000  
G12  20313248.940   106746842.324          50.000                                                  
G19  23548218.040   123746725.012          50.000                                                  
G24  22484936.240   118159072.695          50.000    22484939.520    88235665.941          50.000  
G25  21855734.340   114852596.219          50.000    21855737.080    85766547.336          50.000  
G29  23872004.800   125448199.855          50.000                                                  
E15  23552924.900   123771421.449          50.000    23552930.120    92426698.027          50.000  
> 2020  5 21 21 22 58.0000000  0  9       0.000000000000
G 2  20842204.920   109526555.910          50.000                                                  
G 5  23704766.080   124569351.676          50.000                                                  
G 6  21833471.120   114735612.184          50.000    21833474.080    85679190.250          50.000  
G12  20313037.840   106745732.961          50.000                                                  
G19  23548747.480   123749507.211          50.000                                                  
G24  22485448.400   118161764.117          50.000    22485451.680    88237675.770          50.000  
G25  21855234.320   114849968.543          50.000    21855237.040    85764585.109          50.000  
G29  23871537.260   125445742.953          50.000                                                  
E15  23553181.000   123772767.285          50.000    23553186.220    92427703.035          50.000  
> 2020  5 21 21 22 59.0000000  0  9       0.000000000000
G 2  20842337.700   109527253.602          50.000                                                  
G 5  23704154.440   124566137.461          50.000                                                  
G 6  21833935.820   114738054.125          50.000    21833938.760    85681013.773          50.000  
G12  20312826.820   106744624.027          50.000                                                  
G19  23549276.920   123752289.453          50.000                                                  
G24  22485960.620   118164455.848          50.000    22485963.900    88239685.828          50.000  
G25  21854734.340   114847341.133          50.000    21854737.060    85762623.086          50.000  
G29  23871069.760   125443286.184          50.000                                                  
E15  23553437.160   123774113.379          50.000    23553442.380    92428708.234          50.000  
> 2020  5 21 21 23  0.0000000  0  9       0.000000000000
G 2  20842470.560   109527951.777          50.000                                                  
G 5  23703542.820   124562923.324          50.000                                                  
G 6  21834400.580   114740496.465          50.000    21834403.520    85682837.602          50.000  
G12  20312615.880   106743515.531          50.000                                                  
G19  23549806.380   123755071.723          50.000                                                  
G24  22486472.900   118167147.910          50.000    22486476.180    88241696.129          50.000  
G25  21854234.400   114844713.984          50.000    21854237.140    85760661.254          50.000  
G29  23870602.280   125440829.535          50.000                                                  
E15  23553693.360   123775459.719          50.000    23553698.580    92429713.617          50.000  
> 2020  5 21 21 23  1.0000000  0  9       0.000000000000
G 2  20842603.500   109528650.438          50.000                                                  
G 5  23702931.200   124559709.266          50.000                                                  
G 6  21834865.400   114742939.191          50.000    21834868.360    85684661.711          50.000  
G12  20312405.020   106742407.473          50.000                                                  
G19  23550335.840   123757854.035          50.000                                                  
G24  22486985.240   118169840.289          50.000    22486988.520    88243706.676          50.000  
G25  21853734.520   114842087.113          50.000    21853737.260    85758699.629          50.000  
G29  23870134.820   125438373.016          50.000                                                  
E15  23553949.600   123776806.316          50.000    23553954.840    92430719.195          50.000  
> 2020  5 21 21 23  2.0000000  0  9       0.000000000000
G 2  20842736.540   109529349.582          50.000                                                  
G 5  23702319.600   124556495.305          50.000                                                  
G 6  21835330.320   114745382.320          50.000    21835333.280    85686486.125          50.000  
G12  20312194.240   106741299.855          50.000                                                  
G19  23550865.300   123760636.383          50.000                                                  
G24  22487497.640   118172532.980          50.000    22487500.920    88245717.449          50.000  
G25  21853234.700   114839460.488          50.000    21853237.420    85756738.191          50.000  
G29  23869667.380   125435916.617          50.000                                                  
E15  23554205.900   123778153.164          50.000    23554211.120    92431724.957          50.000  
> 2020  5 21 21 23  3.0000000  0  9       0.000000000000
G 2  20842869.680   109530049.207          50.000                                                  
G 5  23701708.020   124553281.434          50.000                                                  
G 6  21835795.300   114747825.836          50.000    21835798.260    85688310.828          50.000  
G12  20311983.560   106740192.672          50.000                                                  
G19  23551394.760   123763418.766          50.000                                                  
G24  22488010.100   118175225.977          50.000    22488013.380    88247728.453          50.000  
G25  21852734.920   114836834.137          50.000    21852737.640    85754776.957          50.000  
G29  23869199.960   125433460.340          50.000                                                  
E15  23554462.240   123779500.270          50.000    23554467.480    92432730.914          50.000  
> 2020  5 21 21 23  4.0000000  0  9       0.000000000000
G 2  20843002.900   109530749.324          50.000                                                  
G 5  23701096.460   124550067.652          50.000                                                  
G 6  21836260.380   114750269.758          50.000    21836263.320    85690135.836          50.000  
G12  20311772.940   106739085.934          50.000                                                  
G19  23551924.240   123766201.191          50.000                                                  
G24  22488522.620   118177919.309          50.000    22488525.900    88249739.703          50.000  
G25  21852235.180   114834208.039          50.000    21852237.920    85752815.910          50.000  
G29  23868732.560   125431004.191          50.000                                                  
E15  23554718.640   123780847.629          50.000    23554723.860    92433737.055          50.000  
> 2020  5 21 21 23  5.0000000  0  9       0.000000000000
G 2  20843136.220   109531449.910          50.000                                                  
G 5  23700484.900   124546853.953          50.000                                                  
G 6  21836725.500   114752714.070          50.000    21836728.460    85691961.133          50.000  
G12  20311562.420   106737979.633          50.000                                                  
G19  23552453.740   123768983.648          50.000                                                  
G24  22489035.220   118180612.973          50.000    22489038.500    88251751.207          50.000  
G25  21851735.500   114831582.195          50.000    21851738.220    85750855.055          50.000  
G29  23868265.200   125428548.164          50.000                                                  
E15  23554975.080   123782195.234          50.000    23554980.300    92434743.387          50.000  
> 2020  5 21 21 23  6.0000000  0  9       0.000000000000
G 2  20843269.640   109532150.988          50.000                                                  
G 5  23699873.380   124543640.348          50.000                                                  
G 6  21837190.720   114755158.773          50.000    21837193.660    85693786.723          50.000  
G12  20311351.980   106736873.777          50.000                                                  
G19  23552983.220   123771766.145          50.000                                                  
G24  22489547.860   118183306.941          50.000    22489551.140    88253762.938          50.000  
G25  21851235.880   114828956.637          50.000    21851238.600    85748894.410          50.000  
G29  23867797.860   125426092.262          50.000                                                  
E15  23555231.560   123783543.102          50.000    23555236.800    92435749.910          50.000  
> 2020  5 21 21 23  7.0000000  0  9       0.000000000000
G 2  20843403.140   109532852.547          50.000                                                  
G 5  23699261.860   124540426.824          50.000                                                  
G 6  21837656.000   114757603.879          50.000    21837658.960    85695612.613          50.000  
G12  20311141.640   106735768.359          50.000                                                  
G19  23553512.720   123774548.672          50.000                                                  
G24  22490060.580   118186001.234          50.000    22490063.860    88255774.906          50.000  
G25  21850736.300   114826331.324          50.000    21850739.020    85746933.949          50.000  
G29  23867330.540   125423636.488          50.000                                                  
E15  23555488.100   123784891.219          50.000    23555493.340    92436756.621          50.000  
> 2020  5 21 21 23  8.0000000  0  9       0.000000000000
G 2  20843536.740   109533554.582          50.000                                                  
G 5  23698650.360   124537213.391          50.000                                                  
G 6  21838121.380   114760049.375          50.000    21838124.320    85697438.793          50.000  
G12  20310931.360   106734663.387          50.000                                                  
G19  23554042.240   123777331.246          50.000                                                  
G24  22490573.340   118188695.844          50.000    22490576.620    88257787.113          50.000  
G25  21850236.760   114823706.285          50.000    21850239.500    85744973.691          50.000  
G29  23866863.240   125421180.840          50.000                                                  
E15  23555744.700   123786239.586          50.000    23555749.920    92437763.516          50.000  
> 2020  5 21 21 23  9.0000000  0  9       0.000000000000
G 2  20843670.420   109534257.113          50.000                                                  
G 5  23698038.880   124534000.051          50.000                                                  
G 6  21838586.800   114762495.262          50.000    21838589.760    85699265.270          50.000  
G12  20310721.180   106733558.844          50.000                                                  
G19  23554571.740   123780113.848          50.000                                                  
G24  22491086.160   118191390.766          50.000    22491089.440    88259799.555          50.000  
G25  21849737.280   114821081.500          50.000    21849740.020    85743013.629          50.000  
G29  23866395.980   125418725.309          50.000                                                  
E15  23556001.320   123787588.211          50.000    23556006.560    92438770.605          50.000  
> 2020  5 21 21 23 10.0000000  0  9       0.000000000000
G 2  20843804.200   109534960.125          50.000                                                  
G 5  23697427.420   124530786.801          50.000                                                  
G 6  21839052.320   114764941.543          50.000    21839055.280    85701092.035          50.000  
G12  20310511.080   106732454.754          50.000                                                  
G19  23555101.260   123782896.488          50.000                                                  
G24  22491599.060   118194086.027          50.000    22491602.340    88261812.250          50.000  
G25  21849237.860   114818457.000          50.000    21849240.580    85741053.773          50.000  
G29  23865928.720   125416269.906          50.000                                                  
E15  23556258.020   123788937.082          50.000    23556263.240    92439777.883          50.000  
> 2020  5 21 21 23 11.0000000  0  9       0.000000000000
G 2  20843938.060   109535663.613          50.000                                                  
G 5  23696815.980   124527573.629          50.000                                                  
G 6  21839517.900   114767388.223          50.000    21839520.860    85702919.102          50.000  
G12  20310301.060   106731351.090          50.000                                                  
G19  23555630.800   123785679.172          50.000                                                  
G24  22492112.020   118196781.609          50.000    22492115.300    88263825.180          50.000  
G25  21848738.480   114815832.742          50.000    21848741.200    85739094.102          50.000  
G29  23865461.500   125413814.621          50.000                                                  
E15  23556514.740   123790286.223          50.000    23556519.980    92440785.355          50.000  
> 2020  5 21 21 23 12.0000000  0  9       0.000000000000
G 2  20844072.020   109536367.586          50.000                                                  
G 5  23696204.540   124524360.555          50.000                                                  
G 6  21839983.580   114769835.305          50.000    21839986.520    85704746.465          50.000  
G12  20310091.120   106730247.859          50.000                                                  
G19  23556160.320   123788461.891          50.000                                                  
G24  22492625.020   118199477.504          50.000    22492628.300    88265838.348          50.000  
G25  21848239.140   114813208.742          50.000    21848241.880    85737134.625          50.000  
G29  23864994.300   125411359.457          50.000                                                  
E15  23556771.520   123791635.594          50.000    23556776.760    92441793.004          50.000  
> 2020  5 21 21 23 13.0000000  0  9       0.000000000000
G 2  20844206.080   109537072.035          50.000                                                  
G 5  23695593.140   124521147.570          50.000                                                  
G 6  21840449.320   114772282.770          50.000    21840452.260    85706574.117          50.000  
G12  20309881.260   106729145.078          50.000                                                  
G19  23556689.860   123791244.645          50.000                                                  
G24  22493138.100   118202173.738          50.000    22493141.380    88267851.770          50.000  
G25  21847739.880   114810585.020          50.000    21847742.600    85735175.352          50.000  
G29  23864527.120   125408904.426          50.000                                                  
E15  23557028.340   123792985.234          50.000    23557033.580    92442800.852          50.000  
> 2020  5 21 21 23 14.0000000  0  9       0.000000000000
G 2  20844340.220   109537776.969          50.000                                                  
G 5  23694981.740   124517934.676          50.000                                                  
G 6  21840915.120   114774730.629          50.000    21840918.080    85708402.066          50.000  
G12  20309671.500   106728042.738          50.000                                                  
G19  23557219.420   123794027.434          50.000                                                  
G24  22493651.240   118204870.289          50.000    22493654.520    88269865.426          50.000  
G25  21847240.640   114807961.563          50.000    21847243.360    85733216.277          50.000  
G29  23864059.960   125406449.516          50.000                                                  
E15  23557285.220   123794335.113          50.000    23557290.460    92443808.879          50.000  
> 2020  5 21 21 23 15.0000000  0  9       0.000000000000
G 2  20844474.460   109538482.375          50.000                                                  
G 5  23694370.360   124514721.871          50.000                                                  
G 6  21841381.020   114777178.887          50.000    21841383.960    85710230.313          50.000  
G12  20309461.800   106726940.820          50.000                                                  
G19  23557748.960   123796810.258          50.000                                                  
G24  22494164.420   118207567.105          50.000    22494167.700    88271879.281          50.000  
G25  21846741.460   114805338.359          50.000    21846744.180    85731257.395          50.000  
G29  23863592.820   125403994.730          50.000                                                  
E15  23557542.140   123795685.262          50.000    23557547.380    92444817.105          50.000  
> 2020  5 21 21 23 16.0000000  0  9       0.000000000000
G 2  20844608.780   109539188.277          50.000                                                  
G 5  23693759.000   124511509.160          50.000                                                  
G 6  21841846.980   114779627.547          50.000    21841849.920    85712058.855          50.000  
G12  20309252.200   106725839.363          50.000                                                  
G19  23558278.540   123799593.133          50.000                                                  
G24  22494677.680   118210264.270          50.000    22494680.960    88273893.395          50.000  
G25  21846242.340   114802715.430          50.000    21846245.060    85729298.711          50.000  
G29  23863125.720   125401540.070          50.000                                                  
E15  23557799.120   123797035.664          50.000    23557804.360    92445825.520          50.000  
> 2020  5 21 21 23 17.0000000  0  9       0.000000000000
G 2  20844743.200   109539894.652          50.000                                                  
G 5  23693147.660   124508296.535          50.000                                                  
G 6  21842313.020   114782076.586          50.000    21842315.960    85713887.684          50.000  
G12  20309042.680   106724738.328          50.000                                                  
G19  23558808.100   123802376.039          50.000                                                  
G24  22495191.000   118212961.754          50.000    22495194.280    88275907.750          50.000  
G25  21845743.260   114800092.758          50.000    21845745.980    85727340.227          50.000  
G29  23862658.640   125399085.543          50.000                                                  
E15  23558056.140   123798386.309          50.000    23558061.380    92446834.121          50.000  
> 2020  5 21 21 23 18.0000000  0  9       0.000000000000
G 2  20844877.720   109540601.508          50.000                                                  
G 5  23692536.320   124505083.992          50.000                                                  
G 6  21842779.120   114784526.012          50.000    21842782.080    85715716.797          50.000  
G12  20308833.260   106723637.746          50.000                                                  
G19  23559337.680   123805158.980          50.000                                                  
G24  22495704.360   118215659.531          50.000    22495707.640    88277922.320          50.000  
G25  21845244.240   114797470.355          50.000    21845246.960    85725381.938          50.000  
G29  23862191.580   125396631.129          50.000                                                  
E15  23558313.200   123799737.207          50.000    23558318.440    92447842.906          50.000  
> 2020  5 21 21 23 19.0000000  0  9       0.000000000000
G 2  20845012.320   109541308.852          50.000                                                  
G 5  23691925.020   124501871.539          50.000                                                  
G 6  21843245.320   114786975.840          50.000    21843248.260    85717546.215          50.000  
G12  20308623.900   106722537.598          50.000                                                  
G19  23559867.260   123807941.961          50.000                                                  
G24  22496217.800   118218357.613          50.000    22496221.080    88279937.121          50.000  
G25  21844745.260   114794848.211          50.000    21844747.980    85723423.844          50.000  
G29  23861724.540   125394176.859          50.000                                                  
E15  23558570.320   123801088.355          50.000    23558575.560    92448851.883          50.000  
> 2020  5 21 21 23 20.0000000  0  9       0.000000000000
G 2  20845147.020   109542016.672          50.000                                                  
G 5  23691313.720   124498659.188          50.000                                                  
G 6  21843711.580   114789426.055          50.000    21843714.520    85719375.922          50.000  
G12  20308414.640   106721437.898          50.000                                                  
G19  23560396.860   123810724.984          50.000                                                  
G24  22496731.280   118221056.027          50.000    22496734.560    88281952.172          50.000  
G25  21844246.320   114792226.332          50.000    21844249.040    85721465.945          50.000  
G29  23861257.540   125391722.707          50.000                                                  
E15  23558827.480   123802439.766          50.000    23558832.720    92449861.051          50.000  
> 2020  5 21 21 23 21.0000000  0  9       0.000000000000
G 2  20845281.800   109542724.984          50.000                                                  
G 5  23690702.460   124495446.922          50.000                                                  
G 6  21844177.900   114791876.676          50.000    21844180.860    85721205.926          50.000  
G12  20308205.460   106720338.629          50.000                                                  
G19  23560926.460   123813508.059          50.000                                                  
G24  22497244.840   118223754.773          50.000    22497248.120    88283967.465          50.000  
G25  21843747.440   114789604.715          50.000    21843750.160    85719508.250          50.000  
G29  23860790.540   125389268.676          50.000                                                  
E15  23559084.700   123803791.426          50.000    23559089.940    92450870.410          50.000  
> 2020  5 21 21 23 22.0000000  0  9       0.000000000000
G 2  20845416.680   109543433.777          50.000                                                  
G 5  23690091.200   124492234.750          50.000                                                  
G 6  21844644.320   114794327.680          50.000    21844647.280    85723036.223          50.000  
G12  20307996.360   106719239.816          50.000                                                  
G19  23561456.060   123816291.156          50.000                                                  
G24  22497758.460   118226453.832          50.000    22497761.740    88285982.996          50.000  
G25  21843248.620   114786983.367          50.000    21843251.340    85717550.750          50.000  
G29  23860323.580   125386814.773          50.000                                                  
E15  23559341.960   123805143.340          50.000    23559347.200    92451879.953          50.000  
> 2020  5 21 21 23 23.0000000  0  9       0.000000000000
G 2  20845551.660   109544143.047          50.000                                                  
G 5  23689479.960   124489022.668          50.000                                                  
G 6  21845110.800   114796779.078          50.000    21845113.760    85724866.813          50.000  
G12  20307787.340   106718141.438          50.000                                                  
G19  23561985.680   123819074.293          50.000                                                  
G24  22498272.120   118229153.203          50.000    22498275.420    88287998.762          50.000  
G25  21842749.840   114784362.281          50.000    21842752.560    85715593.445          50.000  
G29  23859856.640   125384361.000          50.000                                                  
E15  23559599.260   123806495.500          50.000    23559604.500    92452889.684          50.000  
> 2020  5 21 21 23 24.0000000  0  9       0.000000000000
G 2  20845686.720   109544852.809          50.000                                                  
G 5  23688868.720   124485810.668          50.000                                                  
G 6  21845577.360   114799230.871          50.000    21845580.320    85726697.695          50.000  
G12  20307578.400   106717043.492          50.000                                                  
G19  23562515.300   123821857.469          50.000                                                  
G24  22498785.860   118231852.898          50.000    22498789.140    88290014.766          50.000  
G25  21842251.120   114781741.461          50.000    21842253.840    85713636.340          50.000  
G29  23859389.720   125381907.340          50.000                                                  
E15  23559856.620   123807847.918          50.000    23559861.860    92453899.605          50.000  
> 2020  5 21 21 23 25.0000000  0  9       0.000000000000
G 2  20845821.860   109545563.039          50.000                                                  
G 5  23688257.520   124482598.754          50.000                                                  
G 6  21846044.000   114801683.055          50.000    21846046.960    85728528.871          50.000  
G12  20307369.560   106715945.988          50.000                                                  
G19  23563044.920   123824640.672          50.000                                                  
G24  22499299.660   118234552.895          50.000    22499302.940    88292030.996          50.000  
G25  21841752.440   114779120.902          50.000    21841755.160    85711679.430          50.000  
G29  23858922.840   125379453.813          50.000                                                  
E15  23560114.020   123809200.586          50.000    23560119.260    92454909.715          50.000  
> 2020  5 21 21 23 26.0000000  0  9       0.000000000000
G 2  20845957.120   109546273.762          50.000                                                  
G 5  23687646.340   124479386.945          50.000                                                  
G 6  21846510.720   114804135.641          50.000    21846513.660    85730360.348          50.000  
G12  20307160.800   106714848.914          50.000                                                  
G19  23563574.560   123827423.918          50.000                                                  
G24  22499813.520   118237253.219          50.000    22499816.800    88294047.469          50.000  
G25  21841253.820   114776500.609          50.000    21841256.540    85709722.719          50.000  
G29  23858455.960   125377000.398          50.000                                                  
E15  23560371.480   123810553.504          50.000    23560376.720    92455920.012          50.000  
> 2020  5 21 21 23 27.0000000  0  9       0.000000000000
G 2  20846092.440   109546984.957          50.000                                                  
G 5  23687035.160   124476175.223          50.000                                                  
G 6  21846977.500   114806588.613          50.000    21846980.460    85732192.113          50.000  
G12  20306952.120   106713752.293          50.000                                                  
G19  23564104.200   123830207.199          50.000                                                  
G24  22500327.440   118239953.867          50.000    22500330.720    88296064.188          50.000  
G25  21840755.240   114773880.586          50.000    21840757.960    85707766.211          50.000  
G29  23857989.120   125374547.121          50.000                                                  
E15  23560628.980   123811906.676          50.000    23560634.220    92456930.496          50.000  
> 2020  5 21 21 23 28.0000000  0  9       0.000000000000
G 2  20846227.880   109547696.633          50.000                                                  
G 5  23686424.000   124472963.590          50.000                                                  
G 6  21847444.360   114809041.969          50.000    21847447.320    85734024.164          50.000  
G12  20306743.520   106712656.109          50.000                                                  
G19  23564633.860   123832990.508          50.000                                                  
G24  22500841.400   118242654.844          50.000    22500844.700    88298081.148          50.000  
G25  21840256.720   114771260.820          50.000    21840259.440    85705809.891          50.000  
G29  23857522.300   125372093.977          50.000                                                  
E15  23560886.520   123813260.090          50.000    23560891.760    92457941.164          50.000  
> 2020  5 21 21 23 29.0000000  0  9       0.000000000000
G 2  20846363.400   109548408.801          50.000                                                  
G 5  23685812.880   124469752.066          50.000                                                  
G 6  21847911.300   114811495.715          50.000    21847914.240    85735856.504          50.000  
G12  20306535.000   106711560.363          50.000                                                  
G19  23565163.500   123835773.863          50.000                                                  
G24  22501355.440   118245356.133          50.000    22501358.740    88300098.344          50.000  
G25  21839758.240   114768641.316          50.000    21839760.960    85703853.770          50.000  
G29  23857055.500   125369640.938          50.000                                                  
E15  23561144.120   123814613.773          50.000    23561149.360    92458952.031          50.000  
> 2020  5 21 21 23 30.0000000  0  9       0.000000000000
G 2  20846499.000   109549121.438          50.000                                                  
G 5  23685201.760   124466540.629          50.000                                                  
G 6  21848378.300   114813949.863          50.000    21848381.260    85737689.148          50.000  
G12  20306326.580   106710465.066          50.000                                                  
G19  23565693.160   123838557.250          50.000                                                  
G24  22501869.540   118248057.730          50.000    22501872.840    88302115.770          50.000  
G25  21839259.820   114766022.082          50.000    21839262.540    85701897.848          50.000  
G29  23856588.740   125367188.031          50.000                                                  
E15  23561401.760   123815967.699          50.000    23561407.000    92459963.078          50.000  
> 2020  5 21 21 23 31.0000000  0  9       0.000000000000
G 2  20846634.700   109549834.559          50.000                                                  
G 5  23684590.660   124463329.289          50.000                                                  
G 6  21848845.380   114816404.410          50.000    21848848.340    85739522.086          50.000  
G12  20306118.220   106709370.203          50.000                                                  
G19  23566222.840   123841340.672          50.000                                                  
G24  22502383.700   118250759.645          50.000    22502387.000    88304133.434          50.000  
G25  21838761.440   114763403.109          50.000    21838764.160    85699942.125          50.000  
G29  23856121.980   125364735.250          50.000                                                  
E15  23561659.460   123817321.887          50.000    23561664.700    92460974.320          50.000  
> 2020  5 21 21 23 32.0000000  0  9       0.000000000000
G 2  20846770.500   109550548.160          50.000                                                  
G 5  23683979.580   124460118.023          50.000                                                  
G 6  21849312.540   114818859.344          50.000    21849315.500    85741355.316          50.000  
G12  20305909.960   106708275.777          50.000                                                  
G19  23566752.500   123844124.113          50.000                                                  
G24  22502897.920   118253461.879          50.000    22502901.200    88306151.336          50.000  
G25  21838263.120   114760784.402          50.000    21838265.840    85697986.598          50.000  
G29  23855655.260   125362282.590          50.000                                                  
E15  23561917.200   123818676.301          50.000    23561922.440    92461985.734          50.000  
> 2020  5 21 21 23 33.0000000  0  9       0.000000000000
G 2  20846906.380   109551262.242          50.000                                                  
G 5  23683368.500   124456906.855          50.000                                                  
G 6  21849779.780   114821314.660          50.000    21849782.720    85743188.832          50.000  
G12  20305701.780   106707181.789          50.000                                                  
G19  23567282.200   123846907.609          50.000                                                  
G24  22503412.200   118256164.422          50.000    22503415.480    88308169.465          50.000  
G25  21837764.840   114758165.965          50.000    21837767.560    85696031.273          50.000  
G29  23855188.560   125359830.059          50.000                                                  
E15  23562174.980   123820030.988          50.000    23562180.220    92462997.352          50.000  
> 2020  5 21 21 23 34.0000000  0  9       0.000000000000
G 2  20847042.360   109551976.813          50.000                                                  
G 5  23682757.460   124453695.781          50.000                                                  
G 6  21850247.080   114823770.391          50.000    21850250.040    85745022.656          50.000  
G12  20305493.700   106706088.254          50.000                                                  
G19  23567811.880   123849691.137          50.000                                                  
G24  22503926.540   118258867.281          50.000    22503929.820    88310187.836          50.000  
G25  21837266.620   114755547.801          50.000    21837269.340    85694076.152          50.000  
G29  23854721.880   125357377.652          50.000                                                  
E15  23562432.820   123821385.930          50.000    23562438.060    92464009.156          50.000  
> 2020  5 21 21 23 35.0000000  0  9       0.000000000000
G 2  20847178.440   109552691.863          50.000                                                  
G 5  23682146.420   124450484.797          50.000                                                  
G 6  21850714.460   114826226.492          50.000    21850717.420    85746856.758          50.000  
G12  20305285.680   106704995.148          50.000                                                  
G19  23568341.580   123852474.711          50.000                                                  
G24  22504440.940   118261570.449          50.000    22504444.220    88312206.430          50.000  
G25  21836768.460   114752929.891          50.000    21836771.160    85692121.219          50.000  
G29  23854255.220   125354925.363          50.000                                                  
E15  23562690.700   123822741.113          50.000    23562695.940    92465021.148          50.000  
> 2020  5 21 21 23 36.0000000  0  9       0.000000000000
G 2  20847314.600   109553407.395          50.000                                                  
G 5  23681535.420   124447273.910          50.000                                                  
G 6  21851181.920   114828683.004          50.000    21851184.880    85748691.164          50.000  
G12  20305077.760   106703902.488          50.000                                                  
G19  23568871.280   123855258.320          50.000                                                  
G24  22504955.400   118264273.949          50.000    22504958.680    88314225.277          50.000  
G25  21836270.340   114750312.250          50.000    21836273.040    85690166.484          50.000  
G29  23853788.580   125352473.199          50.000                                                  
E15  23562948.640   123824096.551          50.000    23562953.880    92466033.324          50.000  
> 2020  5 21 21 23 37.0000000  0  9       0.000000000000
G 2  20847450.840   109554123.406          50.000                                                  
G 5  23680924.420   124444063.113          50.000                                                  
G 6  21851649.460   114831139.891          50.000    21851652.420    85750525.855          50.000  
G12  20304869.920   106702810.277          50.000                                                  
G19  23569401.000   123858041.961          50.000                                                  
G24  22505469.920   118266977.766          50.000    22505473.200    88316244.359          50.000  
G25  21835772.260   114747694.871          50.000    21835774.980    85688211.949          50.000  
G29  23853321.980   125350021.160          50.000                                                  
E15  23563206.620   123825452.238          50.000    23563211.840    92467045.688          50.000  
> 2020  5 21 21 23 38.0000000  0 13       0.000000000000
G 2  20847587.180   109554840.000          50.000                                                  
G 5  23680313.420   124440852.559          50.000                                                  
G 6  21852117.060   114833597.164          50.000    21852120.020    85752360.844          50.000  
G12  20304662.120   106701718.668          50.000                                                  
G19  23569930.720   123860825.547          50.000                                                  
G24  22505984.500   118269681.824          50.000    22505987.800    88318263.609          50.000  
G25  21835274.240   114745077.758          50.000    21835276.960    85686257.637          50.000  
G29  23852855.360   125347569.457          50.000                                                  
E13  23778641.180   124957584.832          50.000    23778645.340    93312471.059          50.000  
E15  23563464.640   123826808.184          50.000    23563469.880    92468058.242          50.000  
E21  25035913.300   131564588.398          50.000    25035917.980    98246272.031          50.000  
E27  23253473.000   122197799.477          50.000    23253477.240    91251591.355          50.000  
E30  25179812.120   132320767.703          50.000    25179817.820    98810946.387          50.000  
> 2020  5 21 21 23 39.0000000  0 13       0.000000000000
G 2  20847723.620   109555556.961          50.000                                                  
G 5  23679702.460   124437641.938          50.000                                                  
G 6  21852584.760   114836054.836          50.000    21852587.700    85754196.117          50.000  
G12  20304454.460   106700627.313          50.000                                                  
G19  23570460.460   123863609.254          50.000                                                  
G24  22506499.140   118272386.258          50.000    22506502.440    88320283.152          50.000  
G25  21834776.280   114742460.902          50.000    21834778.980    85684303.492          50.000  
G29  23852388.800   125345117.664          50.000                                                  
E13  23778412.420   124956382.637          50.000    23778416.580    93311573.316          50.000  
E15  23563722.720   123828164.363          50.000    23563727.960    92469070.977          50.000  
E21  25035532.500   131562587.309          50.000    25035537.200    98244777.707          50.000  
E27  23253587.320   122198400.156          50.000    23253591.560    91252039.918          50.000  
E30  25180316.860   132323420.121          50.000    25180322.560    98812927.086          50.000  
> 2020  5 21 21 23 40.0000000  0 13       0.000000000000
G 2  20847860.140   109556274.414          50.000                                                  
G 5  23679091.520   124434431.418          50.000                                                  
G 6  21853052.500   114838512.902          50.000    21853055.460    85756031.684          50.000  
G12  20304246.860   106699536.418          50.000                                                  
G19  23570990.180   123866393.004          50.000                                                  
G24  22507013.840   118275091.016          50.000    22507017.140    88322302.938          50.000  
G25  21834278.360   114739844.320          50.000    21834281.060    85682349.551          50.000  
G29  23851922.260   125342666.000          50.000                                                  
E13  23778183.720   124955180.781          50.000    23778187.880    93310675.828          50.000  
E15  23563980.840   123829520.809          50.000    23563986.080    92470083.906          50.000  
E21  25035151.760   131560586.457          50.000    25035156.440    98243283.566          50.000  
E27  23253701.700   122199001.246          50.000    23253705.940    91252488.781          50.000  
E30  25180821.640   132326072.746          50.000    25180827.340    98814907.941          50.000  
> 2020  5 21 21 23 41.0000000  0 13       0.000000000000
G 2  20847996.760   109556992.344          50.000                                                  
G 5  23678480.600   124431220.996          50.000                                                  
G 6  21853520.340   114840971.352          50.000    21853523.280    85757867.539          50.000  
G12  20304039.360   106698445.961          50.000                                                  
G19  23571519.920   123869176.781          50.000                                                  
G24  22507528.600   118277796.055          50.000    22507531.900    88324322.934          50.000  
G25  21833780.480   114737228.000          50.000    21833783.200    85680395.809          50.000  
G29  23851455.760   125340214.457          50.000                                                  
E13  23777955.080   124953979.258          50.000    23777959.240    93309778.590          50.000  
E15  23564239.020   123830877.496          50.000    23564244.260    92471097.016          50.000  
E21  25034771.060   131558585.836          50.000    25034775.740    98241789.598          50.000  
E27  23253816.160   122199602.734          50.000    23253820.400    91252937.945          50.000  
E30  25181326.460   132328725.555          50.000    25181332.160    98816888.930          50.000  
> 2020  5 21 21 23 42.0000000  0 13       0.000000000000
G 2  20848133.480   109557710.758          50.000                                                  
G 5  23677869.680   124428010.652          50.000                                                  
G 6  21853988.240   114843430.188          50.000    21853991.200    85759703.684          50.000  
G12  20303831.940   106697355.941          50.000                                                  
G19  23572049.680   123871960.609          50.000                                                  
G24  22508043.420   118280501.406          50.000    22508046.700    88326343.164          50.000  
G25  21833282.660   114734611.949          50.000    21833285.380    85678442.262          50.000  
G29  23850989.260   125337763.039          50.000                                                  
E13  23777726.500   124952778.066          50.000    23777730.660    93308881.594          50.000  
E15  23564497.240   123832234.441          50.000    23564502.480    92472110.320          50.000  
E21  25034390.400   131556585.461          50.000    25034395.080    98240295.813          50.000  
E27  23253930.700   122200204.621          50.000    23253934.940    91253387.406          50.000  
E30  25181831.320   132331378.566          50.000    25181837.020    98818870.074          50.000  
> 2020  5 21 21 23 43.0000000  0 13       0.000000000000
G 2  20848270.280   109558429.660          50.000                                                  
G 5  23677258.800   124424800.406          50.000                                                  
G 6  21854456.220   114845889.426          50.000    21854459.180    85761540.125          50.000  
G12  20303624.600   106696266.375          50.000                                                  
G19  23572579.420   123874744.461          50.000                                                  
G24  22508558.280   118283207.063          50.000    22508561.580    88328363.621          50.000  
G25  21832784.900   114731996.160          50.000    21832787.620    85676488.914          50.000  
G29  23850522.800   125335311.746          50.000                                                  
E13  23777497.980   124951577.188          50.000    23777502.140    93307984.836          50.000  
E15  23564755.500   123833591.633          50.000    23564760.740    92473123.805          50.000  
E21  25034009.780   131554585.320          50.000    25034014.480    98238802.199          50.000  
E27  23254045.320   122200806.914          50.000    23254049.560    91253837.168          50.000  
E30  25182336.220   132334031.785          50.000    25182341.920    98820851.375          50.000  
> 2020  5 21 21 23 44.0000000  0 13       0.000000000000
G 2  20848407.180   109559149.043          50.000                                                  
G 5  23676647.920   124421590.262          50.000                                                  
G 6  21854924.280   114848349.051          50.000    21854927.220    85763376.859          50.000  
G12  20303417.340   106695177.238          50.000                                                  
G19  23573109.180   123877528.344          50.000                                                  
G24  22509073.220   118285913.047          50.000    22509076.520    88330384.320          50.000  
G25  21832287.180   114729380.645          50.000    21832289.900    85674535.770          50.000  
G29  23850056.360   125332860.570          50.000                                                  
E13  23777269.520   124950376.648          50.000    23777273.680    93307088.328          50.000  
E15  23565013.820   123834949.082          50.000    23565019.060    92474137.484          50.000  
E21  25033629.220   131552585.414          50.000    25033633.900    98237308.766          50.000  
E27  23254160.000   122201409.602          50.000    23254164.240    91254287.230          50.000  
E30  25182841.140   132336685.195          50.000    25182846.840    98822832.816          50.000  
> 2020  5 21 21 23 45.0000000  0 13       0.000000000000
G 2  20848544.160   109559868.902          50.000                                                  
G 5  23676037.080   124418380.207          50.000                                                  
G 6  21855392.400   114850809.078          50.000    21855395.360    85765213.891          50.000  
G12  20303210.180   106694088.555          50.000                                                  
G19  23573638.940   123880312.273          50.000                                                  
G24  22509588.220   118288619.340          50.000    22509591.500    88332405.250          50.000  
G25  21831789.520   114726765.387          50.000    21831792.240    85672582.820          50.000  
G29  23849589.940   125330409.527          50.000                                                  
E13  23777041.140   124949176.449          50.000    23777045.300    93306192.074          50.000  
E15  23565272.180   123836306.777          50.000    23565277.420    92475151.348          50.000  
E21  25033248.700   131550585.742          50.000    25033253.380    98235815.504          50.000  
E27  23254274.760   122202012.699          50.000    23254279.020    91254737.594          50.000  
E30  25183346.120   132339338.797          50.000    25183351.820    98824814.398          50.000  
> 2020  5 21 21 23 46.0000000  0 13       0.000000000000
G 2  20848681.240   109560589.242          50.000                                                  
G 5  23675426.240   124415170.242          50.000                                                  
G 6  21855860.600   114853269.477          50.000    21855863.560    85767051.199          50.000  
G12  20303003.100   106693000.301          50.000                                                  
G19  23574168.720   123883096.234          50.000                                                  
G24  22510103.260   118291325.926          50.000    22510106.560    88334426.406          50.000  
G25  21831291.900   114724150.387          50.000    21831294.620    85670630.063          50.000  
G29  23849123.540   125327958.602          50.000                                                  
E13  23776812.820   124947976.559          50.000    23776816.960    93305296.055          50.000  
E15  23565530.600   123837664.719          50.000    23565535.820    92476165.395          50.000  
E21  25032868.220   131548586.309          50.000    25032872.900    98234322.422          50.000  
E27  23254389.620   122202616.191          50.000    23254393.860    91255188.250          50.000  
E30  25183851.120   132341992.594          50.000    25183856.820    98826796.129          50.000  
> 2020  5 21 21 23 47.0000000  0 13       0.000000000000
G 2  20848818.400   109561310.059          50.000                                                  
G 5  23674815.420   124411960.379          50.000                                                  
G 6  21856328.880   114855730.266          50.000    21856331.840    85768888.801          50.000  
G12  20302796.100   106691912.504          50.000                                                  
G19  23574698.500   123885880.238          50.000                                                  
G24  22510618.380   118294032.840          50.000    22510621.660    88336447.801          50.000  
G25  21830794.340   114721535.664          50.000    21830797.040    85668677.508          50.000  
G29  23848657.180   125325507.801          50.000                                                  
E13  23776584.540   124946777.016          50.000    23776588.700    93304400.293          50.000  
E15  23565789.060   123839022.918          50.000    23565794.280    92477179.637          50.000  
E21  25032487.780   131546587.113          50.000    25032492.480    98232829.520          50.000  
E27  23254504.540   122203220.094          50.000    23254508.780    91255639.219          50.000  
E30  25184356.160   132344646.598          50.000    25184361.860    98828778.012          50.000  
> 2020  5 21 21 23 48.0000000  0 13       0.000000000000
G 2  20848955.660   109562031.355          50.000                                                  
G 5  23674204.620   124408750.602          50.000                                                  
G 6  21856797.220   114858191.449          50.000    21856800.180    85770726.695          50.000  
G12  20302589.180   106690825.145          50.000                                                  
G19  23575228.280   123888664.273          50.000                                                  
G24  22511133.540   118296740.070          50.000    22511136.840    88338469.430          50.000  
G25  21830296.820   114718921.207          50.000    21830299.540    85666725.156          50.000  
G29  23848190.820   125323057.133          50.000                                                  
E13  23776356.340   124945577.789          50.000    23776360.500    93303504.766          50.000  
E15  23566047.560   123840381.371          50.000    23566052.800    92478194.063          50.000  
E21  25032107.400   131544588.168          50.000    25032112.080    98231336.797          50.000  
E27  23254619.520   122203824.391          50.000    23254623.780    91256090.477          50.000  
E30  25184861.240   132347300.789          50.000    25184866.940    98830760.035          50.000  
> 2020  5 21 21 23 49.0000000  0 13       0.000000000000
G 2  20849093.020   109562753.137          50.000                                                  
G 5  23673593.840   124405540.910          50.000                                                  
G 6  21857265.660   114860653.027          50.000    21857268.600    85772564.891          50.000  
G12  20302382.340   106689738.219          50.000                                                  
G19  23575758.080   123891448.348          50.000                                                  
G24  22511648.780   118299447.613          50.000    22511652.080    88340491.297          50.000  
G25  21829799.360   114716307.020          50.000    21829802.080    85664773.004          50.000  
G29  23847724.500   125320606.586          50.000                                                  
E13  23776128.200   124944378.898          50.000    23776132.360    93302609.492          50.000  
E15  23566306.120   123841740.070          50.000    23566311.340    92479208.676          50.000  
E21  25031727.060   131542589.441          50.000    25031731.740    98229844.242          50.000  
E27  23254734.600   122204429.090          50.000    23254738.840    91256542.039          50.000  
E30  25185366.360   132349955.180          50.000    25185372.060    98832742.211          50.000  
> 2020  5 21 21 23 50.0000000  0 13       0.000000000000
G 2  20849230.460   109563475.398          50.000                                                  
G 5  23672983.080   124402331.316          50.000                                                  
G 6  21857734.160   114863115.000          50.000    21857737.100    85774403.375          50.000  
G12  20302175.600   106688651.738          50.000                                                  
G19  23576287.880   123894232.445          50.000                                                  
G24  22512164.060   118302155.473          50.000    22512167.360    88342513.398          50.000  
G25  21829301.960   114713693.102          50.000    21829304.660    85662821.055          50.000  
G29  23847258.200   125318156.168          50.000                                                  
E13  23775900.120   124943180.340          50.000    23775904.280    93301714.465          50.000  
E15  23566564.720   123843099.020          50.000    23566569.940    92480223.477          50.000  
E21  25031346.760   131540590.961          50.000    25031351.440    98228351.871          50.000  
E27  23254849.760   122205034.199          50.000    23254854.000    91256993.906          50.000  
E30  25185871.500   132352609.766          50.000    25185877.200    98834724.527          50.000  
> 2020  5 21 21 23 51.0000000  0 13       0.000000000000
G 2  20849368.000   109564198.133          50.000                                                  
G 5  23672372.320   124399121.816          50.000                                                  
G 6  21858202.720   114865577.359          50.000    21858205.680    85776242.148          50.000  
G12  20301968.940   106687565.699          50.000                                                  
G19  23576817.700   123897016.594          50.000                                                  
G24  22512679.420   118304863.629          50.000    22512682.720    88344535.723          50.000  
G25  21828804.600   114711079.445          50.000    21828807.300    85660869.301          50.000  
G29  23846791.940   125315705.871          50.000                                                  
E13  23775672.100   124941982.090          50.000    23775676.260    93300819.668          50.000  
E15  23566823.360   123844458.227          50.000    23566828.600    92481238.465          50.000  
E21  25030966.500   131538592.711          50.000    25030971.200    98226859.672          50.000  
E27  23254964.980   122205639.699          50.000    23254969.220    91257446.066          50.000  
E30  25186376.700   132355264.563          50.000    25186382.400    98836707.008          50.000  
> 2020  5 21 21 23 52.0000000  0 13       0.000000000000
G 2  20849505.620   109564921.352          50.000                                                  
G 5  23671761.600   124395912.410          50.000                                                  
G 6  21858671.380   114868040.109          50.000    21858674.320    85778081.215          50.000  
G12  20301762.360   106686480.109          50.000                                                  
G19  23577347.500   123899800.777          50.000                                                  
G24  22513194.820   118307572.102          50.000    22513198.120    88346558.285          50.000  
G25  21828307.280   114708466.051          50.000    21828310.000    85658917.738          50.000  
G29  23846325.680   125313255.695          50.000                                                  
E13  23775444.160   124940784.199          50.000    23775448.320    93299925.137          50.000  
E15  23567082.060   123845817.676          50.000    23567087.300    92482253.641          50.000  
E21  25030586.300   131536594.703          50.000    25030590.980    98225367.652          50.000  
E27  23255080.280   122206245.605          50.000    23255084.520    91257898.527          50.000  
E30  25186881.940   132357919.543          50.000    25186887.640    98838689.621          50.000  
> 2020  5 21 21 23 53.0000000  0 13       0.000000000000
G 2  20849643.340   109565645.051          50.000                                                  
G 5  23671150.880   124392703.105          50.000                                                  
G 6  21859140.100   114870503.254          50.000    21859143.060    85779920.574          50.000  
G12  20301555.860   106685394.953          50.000                                                  
G19  23577877.320   123902584.992          50.000                                                  
G24  22513710.300   118310280.926          50.000    22513713.600    88348581.105          50.000  
G25  21827810.020   114705852.930          50.000    21827812.740    85656966.383          50.000  
G29  23845859.460   125310805.652          50.000                                                  
E13  23775216.260   124939586.613          50.000    23775220.420    93299030.840          50.000  
E15  23567340.800   123847177.375          50.000    23567346.040    92483269.000          50.000  
E21  25030206.140   131534596.934          50.000    25030210.820    98223875.816          50.000  
E27  23255195.660   122206851.918          50.000    23255199.900    91258351.293          50.000  
E30  25187387.200   132360574.711          50.000    25187392.900    98840672.375          50.000  
> 2020  5 21 21 23 54.0000000  0 13       0.000000000000
G 2  20849781.140   109566369.230          50.000                                                  
G 5  23670540.200   124389493.887          50.000                                                  
G 6  21859608.900   114872966.781          50.000    21859611.840    85781760.223          50.000  
G12  20301349.440   106684310.238          50.000                                                  
G19  23578407.160   123905369.246          50.000                                                  
G24  22514225.840   118312990.059          50.000    22514229.120    88350604.156          50.000  
G25  21827312.820   114703240.074          50.000    21827315.520    85655015.223          50.000  
G29  23845393.260   125308355.730          50.000                                                  
E13  23774988.440   124938389.363          50.000    23774992.600    93298136.789          50.000  
E15  23567599.600   123848537.332          50.000    23567604.840    92484284.551          50.000  
E21  25029826.020   131532599.410          50.000    25029830.720    98222384.160          50.000  
E27  23255311.120   122207458.629          50.000    23255315.360    91258804.359          50.000  
E30  25187892.500   132363230.090          50.000    25187898.200    98842655.285          50.000  
> 2020  5 21 21 23 55.0000000  0 13       0.000000000000
G 2  20849919.040   109567093.895          50.000                                                  
G 5  23669929.520   124386284.777          50.000                                                  
G 6  21860077.760   114875430.711          50.000    21860080.720    85783600.168          50.000  
G12  20301143.120   106683225.965          50.000                                                  
G19  23578937.000   123908153.527          50.000                                                  
G24  22514741.420   118315699.508          50.000    22514744.720    88352627.445          50.000  
G25  21826815.660   114700627.492          50.000    21826818.360    85653064.273          50.000  
G29  23844927.080   125305905.930          50.000                                                  
E13  23774760.680   124937192.449          50.000    23774764.840    93297242.988          50.000  
E15  23567858.440   123849897.547          50.000    23567863.680    92485300.297          50.000  
E21  25029445.940   131530602.113          50.000    25029450.640    98220892.668          50.000  
E27  23255426.640   122208065.738          50.000    23255430.880    91259257.719          50.000  
E30  25188397.840   132365885.668          50.000    25188403.540    98844638.348          50.000  
> 2020  5 21 21 23 56.0000000  0 13       0.000000000000
G 2  20850057.040   109567819.035          50.000                                                  
G 5  23669318.860   124383075.750          50.000                                                  
G 6  21860546.720   114877895.031          50.000    21860549.660    85785440.406          50.000  
G12  20300936.880   106682142.129          50.000                                                  
G19  23579466.840   123910937.848          50.000                                                  
G24  22515257.080   118318409.266          50.000    22515260.380    88354650.965          50.000  
G25  21826318.560   114698015.172          50.000    21826321.260    85651113.516          50.000  
G29  23844460.920   125303456.250          50.000                                                  
E13  23774532.980   124935995.855          50.000    23774537.120    93296349.430          50.000  
E15  23568117.340   123851258.000          50.000    23568122.560    92486316.219          50.000  
E21  25029065.920   131528605.051          50.000    25029070.620    98219401.359          50.000  
E27  23255542.260   122208673.254          50.000    23255546.500    91259711.383          50.000  
E30  25188903.220   132368541.438          50.000    25188908.920    98846621.551          50.000  
> 2020  5 21 21 23 57.0000000  0 13       0.000000000000
G 2  20850195.120   109568544.656          50.000                                                  
G 5  23668708.240   124379866.832          50.000                                                  
G 6  21861015.740   114880359.723          50.000    21861018.680    85787280.922          50.000  
G12  20300730.720   106681058.746          50.000                                                  
G19  23579996.680   123913722.207          50.000                                                  
G24  22515772.800   118321119.344          50.000    22515776.080    88356674.727          50.000  
G25  21825821.500   114695403.113          50.000    21825824.200    85649162.953          50.000  
G29  23843994.780   125301006.699          50.000                                                  
E13  23774305.340   124934799.594          50.000    23774309.480    93295456.117          50.000  
E15  23568376.260   123852618.711          50.000    23568381.500    92487332.336          50.000  
E21  25028685.940   131526608.238          50.000    25028690.640    98217910.234          50.000  
E27  23255657.940   122209281.172          50.000    23255662.180    91260165.348          50.000  
E30  25189408.640   132371197.406          50.000    25189414.340    98848604.902          50.000  
> 2020  5 21 21 23 58.0000000  0 13       0.000000000000
G 2  20850333.300   109569270.754          50.000                                                  
G 5  23668097.620   124376658.020          50.000                                                  
G 6  21861484.820   114882824.809          50.000    21861487.780    85789121.734          50.000  
G12  20300524.640   106679975.801          50.000                                                  
G19  23580526.540   123916506.598          50.000                                                  
G24  22516288.560   118323829.727          50.000    22516291.860    88358698.707          50.000  
G25  21825324.500   114692791.324          50.000    21825327.200    85647212.590          50.000  
G29  23843528.680   125298557.277          50.000                                                  
E13  23774077.760   124933603.668          50.000    23774081.920    93294563.051          50.000  
E15  23568635.240   123853979.664          50.000    23568640.480    92488348.625          50.000  
E21  25028306.000   131524611.668          50.000    25028310.700    98216419.281          50.000  
E27  23255773.700   122209889.496          50.000    23255777.940    91260619.609          50.000  
E30  25189914.100   132373853.574          50.000    25189919.800    98850588.395          50.000  
> 2020  5 21 21 23 59.0000000  0 13       0.000000000000
G 2  20850471.560   109569997.328          50.000                                                  
G 5  23667487.020   124373449.313          50.000                                                  
G 6  21861954.000   114885290.285          50.000    21861956.940    85790962.836          50.000  
G12  20300318.640   106678893.297          50.000                                                  
G19  23581056.400   123919291.023          50.000                                                  
G24  22516804.400   118326540.418          50.000    22516807.700    88360722.926          50.000  
G25  21824827.540   114690179.805          50.000    21824830.240    85645262.430          50.000  
G29  23843062.580   125296107.980          50.000                                                  
E13  23773850.240   124932408.070          50.000    23773854.400    93293670.230          50.000  
E15  23568894.280   123855340.871          50.000    23568899.520    92489365.109          50.000  
E21  25027926.120   131522615.324          50.000    25027930.800    98214928.504          50.000  
E27  23255889.540   122210498.227          50.000    23255893.780    91261074.176          50.000  
E30  25190419.580   132376509.930          50.000    25190425.280    98852572.035          50.000  
> 2020  5 21 21 24  0.0000000  0 13       0.000000000000
G 2  20850609.920   109570724.387          50.000                                                  
G 5  23666876.440   124370240.699          50.000                                                  
G 6  21862423.240   114887756.152          50.000    21862426.180    85792804.230          50.000  
G12  20300112.740   106677811.234          50.000                                                  
G19  23581586.260   123922075.492          50.000                                                  
G24  22517320.280   118329251.398          50.000    22517323.580    88362747.359          50.000  
G25  21824330.640   114687568.551          50.000    21824333.340    85643312.469          50.000  
G29  23842596.520   125293658.801          50.000                                                  
E13  23773622.800   124931212.805          50.000    23773626.940    93292777.660          50.000  
E15  23569153.360   123856702.340          50.000    23569158.600    92490381.785          50.000  
E21  25027546.280   131520619.227          50.000    25027550.960    98213437.910          50.000  
E27  23256005.440   122211107.348          50.000    23256009.700    91261529.039          50.000  
E30  25190925.100   132379166.496          50.000    25190930.820    98854555.828          50.000  
> 2020  5 21 21 24  1.0000000  0 13       0.000000000000
G 2  20850748.360   109571451.930          50.000                                                  
G 5  23666265.880   124367032.176          50.000                                                  
G 6  21862892.540   114890222.410          50.000    21862895.500    85794645.914          50.000  
G12  20299906.920   106676729.621          50.000                                                  
G19  23582116.140   123924859.992          50.000                                                  
G24  22517836.220   118331962.676          50.000    22517839.520    88364772.016          50.000  
G25  21823833.780   114684957.559          50.000    21823836.480    85641362.703          50.000  
G29  23842130.480   125291209.750          50.000                                                  
E13  23773395.400   124930017.871          50.000    23773399.560    93291885.336          50.000  
E15  23569412.480   123858064.055          50.000    23569417.720    92491398.645          50.000  
E21  25027166.480   131518623.371          50.000    25027171.160    98211947.492          50.000  
E27  23256121.440   122211716.891          50.000    23256125.680    91261984.211          50.000  
E30  25191430.680   132381823.250          50.000    25191436.380    98856539.762          50.000  
> 2020  5 21 21 24  2.0000000  0 13       0.000000000000
G 2  20850886.900   109572179.953          50.000                                                  
G 5  23665655.340   124363823.754          50.000                                                  
G 6  21863361.940   114892689.070          50.000    21863364.900    85796487.895          50.000  
G12  20299701.180   106675648.453          50.000                                                  
G19  23582646.020   123927644.535          50.000                                                  
G24  22518352.220   118334674.289          50.000    22518355.520    88366796.914          50.000  
G25  21823336.980   114682346.852          50.000    21823339.680    85639413.145          50.000  
G29  23841664.480   125288760.832          50.000                                                  
E13  23773168.080   124928823.254          50.000    23773172.240    93290993.246          50.000  
E15  23569671.660   123859426.020          50.000    23569676.900    92492415.691          50.000  
E21  25026786.720   131516627.742          50.000    25026791.400    98210457.246          50.000  
E27  23256237.500   122212326.816          50.000    23256241.760    91262439.672          50.000  
E30  25191936.280   132384480.215          50.000    25191942.000    98858523.852          50.000  
> 2020  5 21 21 24  3.0000000  0 13       0.000000000000
G 2  20851025.540   109572908.453          50.000                                                  
G 5  23665044.800   124360615.418          50.000                                                  
G 6  21863831.400   114895156.113          50.000    21863834.360    85798330.164          50.000  
G12  20299495.520   106674567.727          50.000                                                  
G19  23583175.920   123930429.117          50.000                                                  
G24  22518868.280   118337386.195          50.000    22518871.580    88368822.031          50.000  
G25  21822840.220   114679736.410          50.000    21822842.940    85637463.789          50.000  
G29  23841198.480   125286312.027          50.000                                                  
E13  23772940.820   124927628.973          50.000    23772944.960    93290101.410          50.000  
E15  23569930.880   123860788.234          50.000    23569936.120    92493432.930          50.000  
E21  25026407.000   131514632.355          50.000    25026411.700    98208967.184          50.000  
E27  23256353.660   122212937.152          50.000    23256357.900    91262895.438          50.000  
E30  25192441.920   132387137.371          50.000    25192447.640    98860508.086          50.000  
> 2020  5 21 21 24  4.0000000  0 13       0.000000000000
G 2  20851164.260   109573637.422          50.000                                                  
G 5  23664434.300   124357407.180          50.000                                                  
G 6  21864300.940   114897623.531          50.000    21864303.900    85800172.711          50.000  
G12  20299289.940   106673487.449          50.000                                                  
G19  23583705.800   123933213.730          50.000                                                  
G24  22519384.400   118340098.398          50.000    22519387.700    88370847.375          50.000  
G25  21822343.520   114677126.227          50.000    21822346.240    85635514.621          50.000  
G29  23840732.520   125283863.363          50.000                                                  
E13  23772713.600   124926435.012          50.000    23772717.760    93289209.813          50.000  
E15  23570190.140   123862150.695          50.000    23570195.380    92494450.348          50.000  
E21  25026027.340   131512637.207          50.000    25026032.040    98207477.297          50.000  
E27  23256469.860   122213547.887          50.000    23256474.120    91263351.500          50.000  
E30  25192947.600   132389794.715          50.000    25192953.320    98862492.461          50.000  
> 2020  5 21 21 24  5.0000000  0 13       0.000000000000
G 2  20851303.060   109574366.879          50.000                                                  
G 5  23663823.800   124354199.043          50.000                                                  
G 6  21864770.540   114900091.352          50.000    21864773.500    85802015.559          50.000  
G12  20299084.460   106672407.617          50.000                                                  
G19  23584235.700   123935998.379          50.000                                                  
G24  22519900.580   118342810.922          50.000    22519903.880    88372872.953          50.000  
G25  21821846.880   114674516.316          50.000    21821849.580    85633565.660          50.000  
G29  23840266.560   125281414.813          50.000                                                  
E13  23772486.460   124925241.391          50.000    23772490.620    93288318.469          50.000  
E15  23570449.460   123863513.414          50.000    23570454.700    92495467.957          50.000  
E21  25025647.720   131510642.301          50.000    25025652.420    98205987.590          50.000  
E27  23256586.160   122214159.031          50.000    23256590.420    91263807.871          50.000  
E30  25193453.300   132392452.250          50.000    25193459.020    98864476.980          50.000  
> 2020  5 21 21 24  6.0000000  0 13       0.000000000000
G 2  20851441.960   109575096.813          50.000                                                  
G 5  23663213.340   124350990.992          50.000                                                  
G 6  21865240.240   114902559.570          50.000    21865243.200    85803858.703          50.000  
G12  20298879.060   106671328.223          50.000                                                  
G19  23584765.620   123938783.063          50.000                                                  
G24  22520416.820   118345523.785          50.000    22520420.120    88374898.789          50.000  
G25  21821350.280   114671906.672          50.000    21821352.980    85631616.895          50.000  
G29  23839800.640   125278966.391          50.000                                                  
E13  23772259.400   124924048.086          50.000    23772263.560    93287427.359          50.000  
E15  23570708.820   123864876.379          50.000    23570714.060    92496485.750          50.000  
E21  25025268.140   131508647.629          50.000    25025272.840    98204498.059          50.000  
E27  23256702.540   122214770.574          50.000    23256706.800    91264264.539          50.000  
E30  25193959.060   132395109.988          50.000    25193964.780    98866461.648          50.000  
> 2020  5 21 21 24  7.0000000  0 13       0.000000000000
G 2  20851580.960   109575827.227          50.000                                                  
G 5  23662602.880   124347783.043          50.000                                                  
G 6  21865710.000   114905028.168          50.000    21865712.960    85805702.133          50.000  
G12  20298673.740   106670249.281          50.000                                                  
G19  23585295.540   123941567.777          50.000                                                  
G24  22520933.120   118348236.973          50.000    22520936.420    88376924.867          50.000  
G25  21820853.720   114669297.297          50.000    21820856.440    85629668.336          50.000  
G29  23839334.760   125276518.090          50.000                                                  
E13  23772032.380   124922855.133          50.000    23772036.540    93286536.516          50.000  
E15  23570968.240   123866239.594          50.000    23570973.480    92497503.730          50.000  
E21  25024888.620   131506653.203          50.000    25024893.320    98203008.711          50.000  
E27  23256818.980   122215382.516          50.000    23256823.240    91264721.504          50.000  
E30  25194464.860   132397767.930          50.000    25194470.580    98868446.469          50.000  
> 2020  5 21 21 24  8.0000000  0 13       0.000000000000
G 2  20851720.040   109576558.121          50.000                                                  
G 5  23661992.440   124344575.188          50.000                                                  
G 6  21866179.820   114907497.098          50.000    21866182.780    85807545.813          50.000  
G12  20298468.520   106669170.773          50.000                                                  
G19  23585825.460   123944352.523          50.000                                                  
G24  22521449.480   118350950.461          50.000    22521452.780    88378951.168          50.000  
G25  21820357.220   114666688.184          50.000    21820359.940    85627719.969          50.000  
G29  23838868.880   125274069.918          50.000                                                  
E13  23771805.420   124921662.484          50.000    23771809.580    93285645.898          50.000  
E15  23571227.700   123867603.063          50.000    23571232.940    92498521.902          50.000  
E21  25024509.140   131504659.016          50.000    25024513.840    98201519.543          50.000  
E27  23256935.520   122215994.859          50.000    23256939.760    91265178.770          50.000  
E30  25194970.680   132400426.066          50.000    25194976.400    98870431.438          50.000  
> 2020  5 21 21 24  9.0000000  0 13       0.000000000000
G 2  20851859.220   109577289.496          50.000                                                  
G 5  23661382.020   124341367.422          50.000                                                  
G 6  21866649.720   114909966.453          50.000    21866652.680    85809389.809          50.000  
G12  20298263.360   106668092.703          50.000                                                  
G19  23586355.380   123947137.316          50.000                                                  
G24  22521965.900   118353664.254          50.000    22521969.200    88380977.695          50.000  
G25  21819860.780   114664079.359          50.000    21819863.500    85625771.816          50.000  
G29  23838403.020   125271621.867          50.000                                                  
E13  23771578.540   124920470.172          50.000    23771582.700    93284755.531          50.000  
E15  23571487.200   123868966.773          50.000    23571492.440    92499540.254          50.000  
E21  25024129.700   131502665.055          50.000    25024134.400    98200030.543          50.000  
E27  23257052.120   122216607.605          50.000    23257056.380    91265636.336          50.000  
E30  25195476.540   132403084.398          50.000    25195482.260    98872416.551          50.000  
> 2020  5 21 21 24 10.0000000  0 13       0.000000000000
G 2  20851998.480   109578021.352          50.000                                                  
G 5  23660771.620   124338159.758          50.000                                                  
G 6  21867119.700   114912436.215          50.000    21867122.660    85811234.102          50.000  
G12  20298058.300   106667015.082          50.000                                                  
G19  23586885.320   123949922.133          50.000                                                  
G24  22522482.380   118356378.348          50.000    22522485.680    88383004.453          50.000  
G25  21819364.400   114661470.789          50.000    21819367.100    85623823.855          50.000  
G29  23837937.200   125269173.945          50.000                                                  
E13  23771351.720   124919278.203          50.000    23771355.880    93283865.422          50.000  
E15  23571746.760   123870330.742          50.000    23571752.000    92500558.797          50.000  
E21  25023750.320   131500671.344          50.000    25023755.020    98198541.730          50.000  
E27  23257168.800   122217220.746          50.000    23257173.040    91266094.195          50.000  
E30  25195982.440   132405742.918          50.000    25195988.160    98874401.801          50.000  
> 2020  5 21 21 24 11.0000000  0 13       0.000000000000
G 2  20852137.840   109578753.699          50.000                                                  
G 5  23660161.240   124334952.191          50.000                                                  
G 6  21867589.760   114914906.355          50.000    21867592.720    85813078.688          50.000  
G12  20297853.320   106665937.895          50.000                                                  
G19  23587415.260   123952706.992          50.000                                                  
G24  22522998.900   118359092.766          50.000    22523002.220    88385031.445          50.000  
G25  21818868.040   114658862.492          50.000    21818870.760    85621876.098          50.000  
G29  23837471.400   125266726.145          50.000                                                  
E13  23771124.940   124918086.547          50.000    23771129.120    93282975.543          50.000  
E15  23572006.360   123871694.957          50.000    23572011.600    92501577.523          50.000  
E21  25023370.960   131498677.867          50.000    25023375.660    98197053.090          50.000  
E27  23257285.540   122217834.301          50.000    23257289.800    91266552.363          50.000  
E30  25196488.380   132408401.645          50.000    25196494.100    98876387.207          50.000  
> 2020  5 21 21 24 12.0000000  0 13       0.000000000000
G 2  20852277.300   109579486.516          50.000                                                  
G 5  23659550.880   124331744.715          50.000                                                  
G 6  21868059.880   114917376.895          50.000    21868062.840    85814923.563          50.000  
G12  20297648.420   106664861.152          50.000                                                  
G19  23587945.200   123955491.887          50.000                                                  
G24  22523515.500   118361807.492          50.000    22523518.820    88387058.672          50.000  
G25  21818371.760   114656254.469          50.000    21818374.460    85619928.543          50.000  
G29  23837005.620   125264278.473          50.000                                                  
E13  23770898.240   124916895.227          50.000    23770902.420    93282085.918          50.000  
E15  23572266.000   123873059.418          50.000    23572271.260    92502596.438          50.000  
E21  25022991.660   131496684.617          50.000    25022996.360    98195564.621          50.000  
E27  23257402.380   122218448.250          50.000    23257406.640    91267010.828          50.000  
E30  25196994.360   132411060.559          50.000    25197000.080    98878372.754          50.000  
> 2020  5 21 21 24 13.0000000  0 13       0.000000000000
G 2  20852416.840   109580219.813          50.000                                                  
G 5  23658940.540   124328537.336          50.000                                                  
G 6  21868530.080   114919847.824          50.000    21868533.040    85816768.734          50.000  
G12  20297443.600   106663784.855          50.000                                                  
G19  23588475.160   123958276.813          50.000                                                  
G24  22524032.160   118364522.543          50.000    22524035.480    88389086.141          50.000  
G25  21817875.520   114653646.703          50.000    21817878.220    85617981.184          50.000  
G29  23836539.860   125261830.914          50.000                                                  
E13  23770671.600   124915704.234          50.000    23770675.780    93281196.539          50.000  
E15  23572525.700   123874424.133          50.000    23572530.960    92503615.539          50.000  
E21  25022612.400   131494691.617          50.000    25022617.100    98194076.340          50.000  
E27  23257519.280   122219062.605          50.000    23257523.540    91267469.598          50.000  
E30  25197500.380   132413719.672          50.000    25197506.100    98880358.453          50.000  
> 2020  5 21 21 24 14.0000000  0 13       0.000000000000
G 2  20852556.480   109580953.590          50.000                                                  
G 5  23658330.220   124325330.055          50.000                                                  
G 6  21869000.360   114922319.141          50.000    21869003.320    85818614.191          50.000  
G12  20297238.880   106662709.004          50.000                                                  
G19  23589005.120   123961061.781          50.000                                                  
G24  22524548.880   118367237.910          50.000    22524552.200    88391113.844          50.000  
G25  21817379.320   114651039.203          50.000    21817382.040    85616034.020          50.000  
G29  23836074.140   125259383.484          50.000                                                  
E13  23770445.040   124914513.574          50.000    23770449.200    93280307.410          50.000  
E15  23572785.440   123875789.098          50.000    23572790.700    92504634.828          50.000  
E21  25022233.200   131492698.844          50.000    25022237.900    98192588.230          50.000  
E27  23257636.280   122219677.371          50.000    23257640.540    91267928.676          50.000  
E30  25198006.420   132416378.984          50.000    25198012.160    98882344.301          50.000  
> 2020  5 21 21 24 15.0000000  0 13       0.000000000000
G 2  20852696.200   109581687.844          50.000                                                  
G 5  23657719.900   124322122.863          50.000                                                  
G 6  21869470.700   114924790.863          50.000    21869473.680    85820459.957          50.000  
G12  20297034.240   106661633.590          50.000                                                  
G19  23589535.100   123963846.762          50.000                                                  
G24  22525065.660   118369953.563          50.000    22525068.980    88393141.758          50.000  
G25  21816883.180   114648431.977          50.000    21816885.900    85614087.063          50.000  
G29  23835608.420   125256936.180          50.000                                                  
E13  23770218.520   124913323.230          50.000    23770222.680    93279418.516          50.000  
E15  23573045.240   123877154.309          50.000    23573050.480    92505654.305          50.000  
E21  25021854.040   131490706.332          50.000    25021858.740    98191100.316          50.000  
E27  23257753.340   122220292.531          50.000    23257757.600    91268388.051          50.000  
E30  25198512.520   132419038.488          50.000    25198518.240    98884330.293          50.000  
> 2020  5 21 21 24 16.0000000  0 13       0.000000000000
G 2  20852836.020   109582422.582          50.000                                                  
G 5  23657109.620   124318915.781          50.000                                                  
G 6  21869941.140   114927262.953          50.000    21869944.100    85822305.996          50.000  
G12  20296829.680   106660558.629          50.000                                                  
G19  23590065.060   123966631.805          50.000                                                  
G24  22525582.500   118372669.563          50.000    22525585.820    88395169.934          50.000  
G25  21816387.100   114645825.020          50.000    21816389.820    85612140.309          50.000  
G29  23835142.740   125254489.000          50.000                                                  
E13  23769992.060   124912133.230          50.000    23769996.240    93278529.883          50.000  
E15  23573305.080   123878519.770          50.000    23573310.320    92506673.969          50.000  
E21  25021474.920   131488714.047          50.000    25021479.620    98189612.570          50.000  
E27  23257870.460   122220908.078          50.000    23257874.720    91268847.711          50.000  
E30  25199018.640   132421698.195          50.000    25199024.360    98886316.438          50.000  
> 2020  5 21 21 24 17.0000000  0 13       0.000000000000
G 2  20852975.920   109583157.801          50.000                                                  
G 5  23656499.340   124315708.781          50.000                                                  
G 6  21870411.640   114929735.496          50.000    21870414.620    85824152.371          50.000  
G12  20296625.200   106659484.102          50.000                                                  
G19  23590595.040   123969416.875          50.000                                                  
G24  22526099.400   118375385.867          50.000    22526102.700    88397198.340          50.000  
G25  21815891.060   114643218.336          50.000    21815893.780    85610193.758          50.000  
G29  23834677.080   125252041.941          50.000                                                  
E13  23769765.680   124910943.551          50.000    23769769.840    93277641.484          50.000  
E15  23573564.960   123879885.480          50.000    23573570.220    92507693.816          50.000  
E21  25021095.840   131486721.992          50.000    25021100.540    98188125.000          50.000  
E27  23257987.680   122221524.051          50.000    23257991.940    91269307.691          50.000  
E30  25199524.800   132424358.094          50.000    25199530.540    98888302.723          50.000  
> 2020  5 21 21 24 18.0000000  0 13       0.000000000000
G 2  20853115.920   109583893.492          50.000                                                  
G 5  23655889.080   124312501.883          50.000                                                  
G 6  21870882.220   114932208.375          50.000    21870885.180    85825999.000          50.000  
G12  20296420.800   106658410.016          50.000                                                  
G19  23591125.040   123972201.969          50.000                                                  
G24  22526616.340   118378102.465          50.000    22526619.660    88399226.965          50.000  
G25  21815395.080   114640611.910          50.000    21815397.780    85608247.395          50.000  
G29  23834211.440   125249595.008          50.000                                                  
E13  23769539.360   124909754.203          50.000    23769543.520    93276753.336          50.000  
E15  23573824.900   123881251.445          50.000    23573830.140    92508713.855          50.000  
E21  25020716.800   131484730.184          50.000    25020721.500    98186637.609          50.000  
E27  23258104.980   122222140.402          50.000    23258109.240    91269767.953          50.000  
E30  25200031.000   132427018.184          50.000    25200036.740    98890289.152          50.000  
> 2020  5 21 21 24 19.0000000  0 13       0.000000000000
G 2  20853256.000   109584629.656          50.000                                                  
G 5  23655278.860   124309295.074          50.000                                                  
G 6  21871352.860   114934681.641          50.000    21871355.840    85827845.910          50.000  
G12  20296216.500   106657336.387          50.000                                                  
G19  23591655.040   123974987.117          50.000                                                  
G24  22527133.360   118380819.402          50.000    22527136.680    88401255.840          50.000  
G25  21814899.140   114638005.754          50.000    21814901.860    85606301.238          50.000  
G29  23833745.840   125247148.203          50.000                                                  
E13  23769313.080   124908565.176          50.000    23769317.260    93275865.426          50.000  
E15  23574084.880   123882617.660          50.000    23574090.140    92509734.082          50.000  
E21  25020337.820   131482738.617          50.000    25020342.520    98185150.402          50.000  
E27  23258222.340   122222757.180          50.000    23258226.600    91270228.531          50.000  
E30  25200537.240   132429678.480          50.000    25200542.960    98892275.734          50.000  
> 2020  5 21 21 24 20.0000000  0 13       0.000000000000
G 2  20853396.180   109585366.309          50.000                                                  
G 5  23654668.640   124306088.363          50.000                                                  
G 6  21871823.580   114937155.293          50.000    21871826.560    85829693.113          50.000  
G12  20296012.280   106656263.191          50.000                                                  
G19  23592185.040   123977772.285          50.000                                                  
G24  22527650.440   118383536.648          50.000    22527653.760    88403284.945          50.000  
G25  21814403.260   114635399.871          50.000    21814405.980    85604355.281          50.000  
G29  23833280.240   125244701.520          50.000                                                  
E13  23769086.880   124907376.496          50.000    23769091.060    93274977.773          50.000  
E15  23574344.900   123883984.117          50.000    23574350.160    92510754.484          50.000  
E21  25019958.880   131480747.289          50.000    25019963.580    98183663.371          50.000  
E27  23258339.780   122223374.344          50.000    23258344.040    91270689.402          50.000  
E30  25201043.520   132432338.973          50.000    25201049.240    98894262.465          50.000  
> 2020  5 21 21 24 21.0000000  0 13       0.000000000000
G 2  20853536.460   109586103.430          50.000                                                  
G 5  23654058.440   124302881.754          50.000                                                  
G 6  21872294.380   114939629.320          50.000    21872297.360    85831540.602          50.000  
G12  20295808.140   106655190.445          50.000                                                  
G19  23592715.040   123980557.496          50.000                                                  
G24  22528167.560   118386254.180          50.000    22528170.880    88405314.270          50.000  
G25  21813907.420   114632794.250          50.000    21813910.140    85602409.523          50.000  
G29  23832814.680   125242254.953          50.000                                                  
E13  23768860.760   124906188.133          50.000    23768864.920    93274090.363          50.000  
E15  23574604.980   123885350.824          50.000    23574610.240    92511775.082          50.000  
E21  25019580.000   131478756.203          50.000    25019584.700    98182176.520          50.000  
E27  23258457.300   122223991.930          50.000    23258461.560    91271150.586          50.000  
E30  25201549.820   132434999.645          50.000    25201555.560    98896249.328          50.000  
> 2020  5 21 21 24 22.0000000  0 13       0.000000000000
G 2  20853676.820   109586841.035          50.000                                                  
G 5  23653448.260   124299675.242          50.000                                                  
G 6  21872765.240   114942103.750          50.000    21872768.220    85833388.383          50.000  
G12  20295604.080   106654118.141          50.000                                                  
G19  23593245.060   123983342.742          50.000                                                  
G24  22528684.760   118388972.020          50.000    22528688.080    88407343.820          50.000  
G25  21813411.640   114630188.910          50.000    21813414.360    85600463.973          50.000  
G29  23832349.140   125239808.523          50.000                                                  
E13  23768634.680   124905000.102          50.000    23768638.840    93273203.195          50.000  
E15  23574865.100   123886717.789          50.000    23574870.360    92512795.863          50.000  
E21  25019201.140   131476765.344          50.000    25019205.840    98180689.844          50.000  
E27  23258574.900   122224609.895          50.000    23258579.160    91271612.055          50.000  
E30  25202056.180   132437660.523          50.000    25202061.900    98898236.348          50.000  
> 2020  5 21 21 24 23.0000000  0 13       0.000000000000
G 2  20853817.260   109587579.109          50.000                                                  
G 5  23652838.100   124296468.828          50.000                                                  
G 6  21873236.180   114944578.543          50.000    21873239.160    85835236.438          50.000  
G12  20295400.120   106653046.273          50.000                                                  
G19  23593775.080   123986128.031          50.000                                                  
G24  22529202.000   118391690.176          50.000    22529205.320    88409373.605          50.000  
G25  21812915.900   114627583.816          50.000    21812918.620    85598518.609          50.000  
G29  23831883.620   125237362.203          50.000                                                  
E13  23768408.660   124903812.391          50.000    23768412.820    93272316.270          50.000  
E15  23575125.280   123888084.992          50.000    23575130.520    92513816.828          50.000  
E21  25018822.340   131474774.734          50.000    25018827.040    98179203.348          50.000  
E27  23258692.580   122225228.262          50.000    23258696.840    91272073.820          50.000  
E30  25202562.560   132440321.598          50.000    25202568.300    98900223.512          50.000  
> 2020  5 21 21 24 24.0000000  0 13       0.000000000000
G 2  20853957.820   109588317.676          50.000                                                  
G 5  23652227.940   124293262.508          50.000                                                  
G 6  21873707.200   114947053.734          50.000    21873710.180    85837084.789          50.000  
G12  20295196.240   106651974.859          50.000                                                  
G19  23594305.120   123988913.348          50.000                                                  
G24  22529719.300   118394408.629          50.000    22529722.640    88411403.613          50.000  
G25  21812420.220   114624979.016          50.000    21812422.940    85596573.465          50.000  
G29  23831418.120   125234916.016          50.000                                                  
E13  23768182.720   124902625.020          50.000    23768186.880    93271429.598          50.000  
E15  23575385.500   123889452.449          50.000    23575390.740    92514837.980          50.000  
E21  25018443.600   131472784.367          50.000    25018448.300    98177717.035          50.000  
E27  23258810.320   122225847.043          50.000    23258814.580    91272535.898          50.000  
E30  25203068.980   132442982.859          50.000    25203074.720    98902210.816          50.000  
> 2020  5 21 21 24 25.0000000  0 13       0.000000000000
G 2  20854098.440   109589056.715          50.000                                                  
G 5  23651617.820   124290056.285          50.000                                                  
G 6  21874178.280   114949529.316          50.000    21874181.260    85838933.434          50.000  
G12  20294992.440   106650903.887          50.000                                                  
G19  23594835.140   123991698.699          50.000                                                  
G24  22530236.680   118397127.395          50.000    22530240.000    88413433.855          50.000  
G25  21811924.600   114622374.480          50.000    21811927.320    85594628.516          50.000  
G29  23830952.660   125232469.957          50.000                                                  
E13  23767956.820   124901437.973          50.000    23767960.980    93270543.164          50.000  
E15  23575645.760   123890820.160          50.000    23575651.020    92515859.320          50.000  
E21  25018064.880   131470794.242          50.000    25018069.580    98176230.906          50.000  
E27  23258928.140   122226466.227          50.000    23258932.420    91272998.273          50.000  
E30  25203575.440   132445644.336          50.000    25203581.180    98904198.281          50.000  
> 2020  5 21 21 24 26.0000000  0 13       0.000000000000
G 2  20854239.180   109589796.234          50.000                                                  
G 5  23651007.720   124286850.164          50.000                                                  
G 6  21874649.440   114952005.285          50.000    21874652.420    85840782.371          50.000  
G12  20294788.720   106649833.352          50.000                                                  
G19  23595365.180   123994484.086          50.000                                                  
G24  22530754.100   118399846.449          50.000    22530757.420    88415464.316          50.000  
G25  21811429.020   114619770.211          50.000    21811431.740    85592683.770          50.000  
G29  23830487.200   125230024.012          50.000                                                  
E13  23767731.000   124900251.250          50.000    23767735.160    93269656.977          50.000  
E15  23575906.080   123892188.109          50.000    23575911.320    92516880.844          50.000  
E21  25017686.220   131468804.348          50.000    25017690.920    98174744.945          50.000  
E27  23259046.060   122227085.813          50.000    23259050.320    91273460.953          50.000  
E30  25204081.940   132448305.988          50.000    25204087.680    98906185.875          50.000  
> 2020  5 21 21 24 27.0000000  0 13       0.000000000000
G 2  20854379.980   109590536.234          50.000                                                  
G 5  23650397.620   124283644.133          50.000                                                  
G 6  21875120.680   114954481.637          50.000    21875123.660    85842631.594          50.000  
G12  20294585.100   106648763.270          50.000                                                  
G19  23595895.240   123997269.512          50.000                                                  
G24  22531271.560   118402565.813          50.000    22531274.900    88417495.008          50.000  
G25  21810933.500   114617166.215          50.000    21810936.220    85590739.227          50.000  
G29  23830021.780   125227578.199          50.000                                                  
E13  23767505.240   124899064.871          50.000    23767509.400    93268771.043          50.000  
E15  23576166.440   123893556.320          50.000    23576171.680    92517902.559          50.000  
E21  25017307.600   131466814.695          50.000    25017312.300    98173259.164          50.000  
E27  23259164.040   122227705.801          50.000    23259168.300    91273923.934          50.000  
E30  25204588.480   132450967.848          50.000    25204594.220    98908173.629          50.000  
> 2020  5 21 21 24 28.0000000  0 13       0.000000000000
G 2  20854520.900   109591276.711          50.000                                                  
G 5  23649787.560   124280438.199          50.000                                                  
G 6  21875591.980   114956958.379          50.000    21875594.980    85844481.109          50.000  
G12  20294381.540   106647693.629          50.000                                                  
G19  23596425.300   124000054.969          50.000                                                  
G24  22531789.100   118405285.488          50.000    22531792.440    88419525.934          50.000  
G25  21810438.020   114614562.496          50.000    21810440.740    85588794.891          50.000  
G29  23829556.380   125225132.504          50.000                                                  
E13  23767279.540   124897878.805          50.000    23767283.700    93267885.348          50.000  
E15  23576426.840   123894924.773          50.000    23576432.100    92518924.457          50.000  
E21  25016929.020   131464825.277          50.000    25016933.720    98171773.563          50.000  
E27  23259282.080   122228326.188          50.000    23259286.360    91274387.207          50.000  
E30  25205095.040   132453629.891          50.000    25205100.780    98910161.516          50.000  
> 2020  5 21 21 24 29.0000000  0 13       0.000000000000
G 2  20854661.900   109592017.672          50.000                                                  
G 5  23649177.500   124277232.375          50.000                                                  
G 6  21876063.360   114959435.504          50.000    21876066.360    85846330.910          50.000  
G12  20294178.080   106646624.434          50.000                                                  
G19  23596955.360   124002840.465          50.000                                                  
G24  22532306.700   118408005.457          50.000    22532310.040    88421557.078          50.000  
G25  21809942.600   114611959.039          50.000    21809945.320    85586850.754          50.000  
G29  23829091.000   125222686.934          50.000                                                  
E13  23767053.900   124896693.074          50.000    23767058.060    93266999.898          50.000  
E15  23576687.300   123896293.477          50.000    23576692.560    92519946.539          50.000  
E21  25016550.500   131462836.105          50.000    25016555.200    98170288.145          50.000  
E27  23259400.220   122228946.973          50.000    23259404.480    91274850.781          50.000  
E30  25205601.660   132456292.145          50.000    25205607.400    98912149.559          50.000  
> 2020  5 21 21 24 30.0000000  0 13       0.000000000000
G 2  20854802.980   109592759.113          50.000                                                  
G 5  23648567.480   124274026.641          50.000                                                  
G 6  21876534.820   114961913.031          50.000    21876537.820    85848181.008          50.000  
G12  20293974.700   106645555.691          50.000                                                  
G19  23597485.420   124005625.996          50.000                                                  
G24  22532824.360   118410725.773          50.000    22532827.680    88423588.480          50.000  
G25  21809447.240   114609355.848          50.000    21809449.960    85584906.813          50.000  
G29  23828625.640   125220241.480          50.000                                                  
E13  23766828.320   124895507.680          50.000    23766832.480    93266114.699          50.000  
E15  23576947.800   123897662.426          50.000    23576953.060    92520968.805          50.000  
E21  25016172.020   131460847.168          50.000    25016176.720    98168802.898          50.000  
E27  23259518.420   122229568.164          50.000    23259522.700    91275314.656          50.000  
E30  25206108.300   132458954.582          50.000    25206114.040    98914137.742          50.000  
> 2020  5 21 21 24 31.0000000  0 13       0.000000000000
G 2  20854944.180   109593501.027          50.000                                                  
G 5  23647957.460   124270821.004          50.000                                                  
G 6  21877006.360   114964390.926          50.000    21877009.340    85850031.383          50.000  
G12  20293771.420   106644487.391          50.000                                                  
G19  23598015.500   124008411.559          50.000                                                  
G24  22533342.080   118413446.398          50.000    22533345.400    88425620.117          50.000  
G25  21808951.920   114606752.926          50.000    21808954.640    85582963.074          50.000  
G29  23828160.320   125217796.156          50.000                                                  
E13  23766602.820   124894322.598          50.000    23766606.980    93265229.738          50.000  
E15  23577208.360   123899031.629          50.000    23577213.600    92521991.262          50.000  
E21  25015793.580   131458858.477          50.000    25015798.280    98167317.836          50.000  
E27  23259636.720   122230189.766          50.000    23259640.980    91275778.840          50.000  
E30  25206614.980   132461617.211          50.000    25206620.720    98916126.066          50.000  
> 2020  5 21 21 24 32.0000000  0 13       0.000000000000
G 2  20855085.440   109594243.418          50.000                                                  
G 5  23647347.480   124267615.473          50.000                                                  
G 6  21877477.960   114966869.211          50.000    21877480.940    85851882.051          50.000  
G12  20293568.200   106643419.523          50.000                                                  
G19  23598545.580   124011197.152          50.000                                                  
G24  22533859.860   118416167.324          50.000    22533863.180    88427651.977          50.000  
G25  21808456.640   114604150.285          50.000    21808459.360    85581019.543          50.000  
G29  23827695.000   125215350.953          50.000                                                  
E13  23766377.360   124893137.859          50.000    23766381.520    93264345.031          50.000  
E15  23577468.960   123900401.070          50.000    23577474.200    92523013.898          50.000  
E21  25015415.180   131456870.023          50.000    25015419.880    98165832.953          50.000  
E27  23259755.080   122230811.766          50.000    23259759.340    91276243.320          50.000  
E30  25207121.720   132464280.051          50.000    25207127.440    98918114.547          50.000  
> 2020  5 21 21 24 33.0000000  0 13       0.000000000000
G 2  20855226.800   109594986.289          50.000                                                  
G 5  23646737.500   124264410.031          50.000                                                  
G 6  21877949.640   114969347.883          50.000    21877952.620    85853733.008          50.000  
G12  20293365.080   106642352.121          50.000                                                  
G19  23599075.680   124013982.793          50.000                                                  
G24  22534377.680   118418888.559          50.000    22534381.020    88429684.066          50.000  
G25  21807961.440   114601547.906          50.000    21807964.160    85579076.211          50.000  
G29  23827229.720   125212905.879          50.000                                                  
E13  23766151.980   124891953.445          50.000    23766156.140    93263460.566          50.000  
E15  23577729.600   123901770.777          50.000    23577734.840    92524036.730          50.000  
E21  25015036.840   131454881.813          50.000    25015041.540    98164348.250          50.000  
E27  23259873.520   122231434.172          50.000    23259877.780    91276708.102          50.000  
E30  25207628.480   132466943.082          50.000    25207634.200    98920103.176          50.000  
> 2020  5 21 21 24 34.0000000  0 13       0.000000000000
G 2  20855368.260   109595729.625          50.000                                                  
G 5  23646127.560   124261204.586          50.000                                                  
G 6  21878421.380   114971827.012          50.000    21878424.360    85855584.309          50.000  
G12  20293162.080   106641285.074          50.000                                                  
G19  23599605.760   124016768.500          50.000                                                  
G24  22534895.600   118421610.043          50.000    22534898.940    88431716.266          50.000  
G25  21807466.260   114598945.824          50.000    21807468.980    85577133.074          50.000  
G29  23826764.460   125210460.973          50.000                                                  
E13  23765926.660   124890769.355          50.000    23765930.820    93262576.344          50.000  
E15  23577990.300   123903140.738          50.000    23577995.540    92525059.762          50.000  
E21  25014658.540   131452893.848          50.000    25014663.240    98162863.730          50.000  
E27  23259992.040   122232056.941          50.000    23259996.300    91277173.145          50.000  
E30  25208135.280   132469606.230          50.000    25208141.040    98922091.844          50.000  
> 2020  5 21 21 24 35.0000000  0 13       0.000000000000
G 2  20855509.800   109596473.434          50.000                                                  
G 5  23645517.620   124257999.340          50.000                                                  
G 6  21878893.200   114974306.457          50.000    21878896.180    85857435.844          50.000  
G12  20292959.120   106640218.543          50.000                                                  
G19  23600135.880   124019554.203          50.000                                                  
G24  22535413.540   118424331.871          50.000    22535416.900    88433748.801          50.000  
G25  21806971.140   114596343.980          50.000    21806973.880    85575190.145          50.000  
G29  23826299.240   125208016.152          50.000                                                  
E13  23765701.400   124889585.590          50.000    23765705.560    93261692.367          50.000  
E15  23578251.040   123904510.930          50.000    23578256.280    92526082.957          50.000  
E21  25014280.300   131450906.109          50.000    25014285.000    98161379.383          50.000  
E27  23260110.640   122232680.145          50.000    23260114.900    91277638.520          50.000  
E30  25208642.120   132472269.648          50.000    25208647.860    98924080.754          50.000  
> 2020  5 21 21 24 36.0000000  0 13       0.000000000000
G 2  20855651.440   109597217.730          50.000                                                  
G 5  23644907.700   124254794.199          50.000                                                  
G 6  21879365.100   114976786.270          50.000    21879368.080    85859287.656          50.000  
G12  20292756.260   106639152.461          50.000                                                  
G19  23600665.980   124022339.941          50.000                                                  
G24  22535931.560   118427054.035          50.000    22535934.920    88435781.586          50.000  
G25  21806476.080   114593742.402          50.000    21806478.820    85573247.414          50.000  
G29  23825834.020   125205571.441          50.000                                                  
E13  23765476.200   124888402.156          50.000    23765480.360    93260808.633          50.000  
E15  23578511.820   123905881.367          50.000    23578517.060    92527106.336          50.000  
E21  25013902.100   131448918.609          50.000    25013906.780    98159895.211          50.000  
E27  23260229.300   122233303.746          50.000    23260233.560    91278104.195          50.000  
E30  25209148.980   132474933.258          50.000    25209154.740    98926069.813          50.000  
> 2020  5 21 21 24 37.0000000  0 13       0.000000000000
G 2  20855793.160   109597962.504          50.000                                                  
G 5  23644297.800   124251589.148          50.000                                                  
G 6  21879837.060   114979266.488          50.000    21879840.040    85861139.770          50.000  
G12  20292553.480   106638086.832          50.000                                                  
G19  23601196.100   124025125.711          50.000                                                  
G24  22536449.640   118429776.508          50.000    22536452.980    88437814.605          50.000  
G25  21805981.080   114591141.105          50.000    21805983.800    85571304.887          50.000  
G29  23825368.840   125203126.863          50.000                                                  
E13  23765251.060   124887219.047          50.000    23765255.220    93259925.141          50.000  
E15  23578772.660   123907252.059          50.000    23578777.900    92528129.902          50.000  
E21  25013523.920   131446931.348          50.000    25013528.620    98158411.219          50.000  
E27  23260348.040   122233927.746          50.000    23260352.320    91278570.172          50.000  
E30  25209655.900   132477597.063          50.000    25209661.640    98928059.016          50.000  
> 2020  5 21 21 24 38.0000000  0 13       0.000000000000
G 2  20855934.980   109598707.742          50.000                                                  
G 5  23643687.920   124248384.195          50.000                                                  
G 6  21880309.100   114981747.082          50.000    21880312.080    85862992.164          50.000  
G12  20292350.780   106637021.637          50.000                                                  
G19  23601726.220   124027911.508          50.000                                                  
G24  22536967.760   118432499.316          50.000    22536971.120    88439847.875          50.000  
G25  21805486.120   114588540.066          50.000    21805488.840    85569362.563          50.000  
G29  23824903.680   125200682.414          50.000                                                  
E13  23765025.980   124886036.270          50.000    23765030.140    93259041.898          50.000  
E15  23579033.540   123908622.984          50.000    23579038.780    92529153.645          50.000  
E21  25013145.820   131444944.328          50.000    25013150.520    98156927.406          50.000  
E27  23260466.880   122234552.148          50.000    23260471.140    91279036.445          50.000  
E30  25210162.840   132480261.055          50.000    25210168.600    98930048.359          50.000  
> 2020  5 21 21 24 39.0000000  0 13       0.000000000000
G 2  20856076.900   109599453.477          50.000                                                  
G 5  23643078.060   124245179.344          50.000                                                  
G 6  21880781.220   114984228.070          50.000    21880784.200    85864844.855          50.000  
G12  20292148.160   106635956.879          50.000                                                  
G19  23602256.360   124030697.355          50.000                                                  
G24  22537485.960   118435222.434          50.000    22537489.320    88441881.375          50.000  
G25  21804991.220   114585939.305          50.000    21804993.940    85567420.438          50.000  
G29  23824438.540   125198238.090          50.000                                                  
E13  23764800.980   124884853.820          50.000    23764805.140    93258158.902          50.000  
E15  23579294.460   123909994.172          50.000    23579299.720    92530177.586          50.000  
E21  25012767.740   131442957.551          50.000    25012772.440    98155443.773          50.000  
E27  23260585.780   122235176.965          50.000    23260590.040    91279503.031          50.000  
E30  25210669.820   132482925.254          50.000    25210675.580    98932037.859          50.000  
> 2020  5 21 21 24 40.0000000  0 13       0.000000000000
G 2  20856218.900   109600199.684          50.000                                                  
G 5  23642468.220   124241974.609          50.000                                                  
G 6  21881253.420   114986709.445          50.000    21881256.400    85866697.828          50.000  
G12  20291945.640   106634892.586          50.000                                                  
G19  23602786.500   124033483.234          50.000                                                  
G24  22538004.220   118437945.852          50.000    22538007.560    88443915.094          50.000  
G25  21804496.360   114583338.809          50.000    21804499.080    85565478.512          50.000  
G29  23823973.420   125195793.895          50.000                                                  
E13  23764576.020   124883671.703          50.000    23764580.180    93257276.152          50.000  
E15  23579555.440   123911365.609          50.000    23579560.700    92531201.711          50.000  
E21  25012389.720   131440971.016          50.000    25012394.420    98153960.324          50.000  
E27  23260704.740   122235802.184          50.000    23260709.020    91279969.914          50.000  
E30  25211176.840   132485589.645          50.000    25211182.600    98934027.500          50.000  
> 2020  5 21 21 24 41.0000000  0 13       0.000000000000
G 2  20856360.980   109600946.371          50.000                                                  
G 5  23641858.400   124238769.965          50.000                                                  
G 6  21881725.680   114989191.203          50.000    21881728.660    85868551.090          50.000  
G12  20291743.180   106633828.727          50.000                                                  
G19  23603316.640   124036269.148          50.000                                                  
G24  22538522.520   118440669.594          50.000    22538525.880    88445949.055          50.000  
G25  21804001.540   114580738.598          50.000    21804004.260    85563536.797          50.000  
G29  23823508.320   125193349.816          50.000                                                  
E13  23764351.140   124882489.918          50.000    23764355.300    93256393.652          50.000  
E15  23579816.460   123912737.285          50.000    23579821.720    92532226.012          50.000  
E21  25012011.740   131438984.715          50.000    25012016.440    98152477.047          50.000  
E27  23260823.800   122236427.793          50.000    23260828.060    91280437.090          50.000  
E30  25211683.900   132488254.227          50.000    25211689.660    98936017.281          50.000  
> 2020  5 21 21 24 42.0000000  0 13       0.000000000000
G 2  20856503.160   109601693.535          50.000                                                  
G 5  23641248.600   124235565.430          50.000                                                  
G 6  21882198.020   114991673.348          50.000    21882201.000    85870404.641          50.000  
G12  20291540.820   106632765.316          50.000                                                  
G19  23603846.780   124039055.102          50.000                                                  
G24  22539040.900   118443393.633          50.000    22539044.240    88447983.242          50.000  
G25  21803506.800   114578138.656          50.000    21803509.520    85561595.281          50.000  
G29  23823043.260   125190905.867          50.000                                                  
E13  23764126.320   124881308.449          50.000    23764130.480    93255511.383          50.000  
E15  23580077.540   123914109.219          50.000    23580082.780    92533250.508          50.000  
E21  25011633.800   131436998.660          50.000    25011638.500    98150993.953          50.000  
E27  23260942.920   122237053.805          50.000    23260947.200    91280904.566          50.000  
E30  25212191.000   132490919.008          50.000    25212196.740    98938007.215          50.000  
> 2020  5 21 21 24 43.0000000  0 13       0.000000000000
G 2  20856645.440   109602441.180          50.000                                                  
G 5  23640638.800   124232360.984          50.000                                                  
G 6  21882670.420   114994155.879          50.000    21882673.400    85872258.477          50.000  
G12  20291338.540   106631702.355          50.000                                                  
G19  23604376.940   124041841.094          50.000                                                  
G24  22539559.320   118446117.973          50.000    22539562.660    88450017.648          50.000  
G25  21803012.100   114575538.988          50.000    21803014.820    85559653.969          50.000  
G29  23822578.200   125188462.043          50.000                                                  
E13  23763901.560   124880127.313          50.000    23763905.720    93254629.367          50.000  
E15  23580338.660   123915481.395          50.000    23580343.900    92534275.188          50.000  
E21  25011255.920   131435012.852          50.000    25011260.620    98149511.043          50.000  
E27  23261062.140   122237680.215          50.000    23261066.400    91281372.340          50.000  
E30  25212698.120   132493583.980          50.000    25212703.880    98939997.289          50.000  
> 2020  5 21 21 24 44.0000000  0 13       0.000000000000
G 2  20856787.800   109603189.305          50.000                                                  
G 5  23640029.040   124229156.641          50.000                                                  
G 6  21883142.920   114996638.801          50.000    21883145.900    85874112.605          50.000  
G12  20291136.360   106630639.836          50.000                                                  
G19  23604907.100   124044627.113          50.000                                                  
G24  22540077.800   118448842.637          50.000    22540081.160    88452052.301          50.000  
G25  21802517.440   114572939.582          50.000    21802520.160    85557712.859          50.000  
G29  23822113.180   125186018.344          50.000                                                  
E13  23763676.860   124878946.504          50.000    23763681.020    93253747.598          50.000  
E15  23580599.820   123916853.820          50.000    23580605.080    92535300.047          50.000  
E21  25010878.080   131433027.277          50.000    25010882.780    98148028.313          50.000  
E27  23261181.420   122238307.035          50.000    23261185.680    91281840.422          50.000  
E30  25213205.300   132496249.156          50.000    25213211.040    98941987.516          50.000  
> 2020  5 21 21 24 45.0000000  0 13       0.000000000000
G 2  20856930.260   109603937.898          50.000                                                  
G 5  23639419.280   124225952.398          50.000                                                  
G 6  21883615.460   114999122.098          50.000    21883618.440    85875967.016          50.000  
G12  20290934.260   106629577.762          50.000                                                  
G19  23605437.280   124047413.172          50.000                                                  
G24  22540596.360   118451567.609          50.000    22540599.700    88454087.180          50.000  
G25  21802022.840   114570340.449          50.000    21802025.560    85555771.949          50.000  
G29  23821648.180   125183574.770          50.000                                                  
E13  23763452.220   124877766.023          50.000    23763456.380    93252866.066          50.000  
E15  23580861.040   123918226.504          50.000    23580866.280    92536325.105          50.000  
E21  25010500.280   131431041.938          50.000    25010504.980    98146545.754          50.000  
E27  23261300.780   122238934.258          50.000    23261305.040    91282308.801          50.000  
E30  25213712.500   132498914.516          50.000    25213718.260    98943977.883          50.000  
> 2020  5 21 21 24 46.0000000  0 13       0.000000000000
G 2  20857072.800   109604686.973          50.000                                                  
G 5  23638809.560   124222748.266          50.000                                                  
G 6  21884088.100   115001605.781          50.000    21884091.080    85877821.715          50.000  
G12  20290732.240   106628516.137          50.000                                                  
G19  23605967.460   124050199.270          50.000                                                  
G24  22541114.940   118454292.852          50.000    22541118.300    88456122.262          50.000  
G25  21801528.300   114567741.590          50.000    21801531.020    85553831.242          50.000  
G29  23821183.220   125181131.316          50.000                                                  
E13  23763227.640   124876585.875          50.000    23763231.820    93251984.789          50.000  
E15  23581122.300   123919599.418          50.000    23581127.540    92537350.332          50.000  
E21  25010122.540   131429056.840          50.000    25010127.240    98145063.375          50.000  
E27  23261420.200   122239561.887          50.000    23261424.480    91282777.480          50.000  
E30  25214219.740   132501580.078          50.000    25214225.500    98945968.398          50.000  
> 2020  5 21 21 24 47.0000000  0 13       0.000000000000
G 2  20857215.440   109605436.523          50.000                                                  
G 5  23638199.860   124219544.234          50.000                                                  
G 6  21884560.800   115004089.855          50.000    21884563.780    85879676.703          50.000  
G12  20290530.300   106627454.957          50.000                                                  
G19  23606497.640   124052985.398          50.000                                                  
G24  22541633.600   118457018.414          50.000    22541636.960    88458157.586          50.000  
G25  21801033.800   114565142.996          50.000    21801036.520    85551890.734          50.000  
G29  23820718.260   125178688.000          50.000                                                  
E13  23763003.140   124875406.063          50.000    23763007.300    93251103.762          50.000  
E15  23581383.600   123920972.574          50.000    23581388.860    92538375.742          50.000  
E21  25009744.840   131427071.988          50.000    25009749.540    98143581.180          50.000  
E27  23261539.720   122240189.918          50.000    23261543.980    91283246.465          50.000  
E30  25214727.020   132504245.824          50.000    25214732.780    98947959.051          50.000  
> 2020  5 21 21 24 48.0000000  0 13       0.000000000000
G 2  20857358.160   109606186.547          50.000                                                  
G 5  23637590.160   124216340.305          50.000                                                  
G 6  21885033.580   115006574.313          50.000    21885036.560    85881531.980          50.000  
G12  20290328.440   106626394.215          50.000                                                  
G19  23607027.820   124055771.559          50.000                                                  
G24  22542152.320   118459744.270          50.000    22542155.680    88460193.125          50.000  
G25  21800539.360   114562544.680          50.000    21800542.080    85549950.434          50.000  
G29  23820253.340   125176244.801          50.000                                                  
E13  23762778.700   124874226.574          50.000    23762782.860    93250222.973          50.000  
E15  23581644.960   123922346.004          50.000    23581650.220    92539401.352          50.000  
E21  25009367.180   131425087.371          50.000    25009371.880    98142099.164          50.000  
E27  23261659.300   122240818.336          50.000    23261663.580    91283715.742          50.000  
E30  25215234.340   132506911.781          50.000    25215240.100    98949949.863          50.000  
> 2020  5 21 21 24 49.0000000  0 13       0.000000000000
G 2  20857500.980   109606937.059          50.000                                                  
G 5  23636980.500   124213136.469          50.000                                                  
G 6  21885506.420   115009059.152          50.000    21885509.400    85883387.539          50.000  
G12  20290126.680   106625333.930          50.000                                                  
G19  23607558.020   124058557.762          50.000                                                  
G24  22542671.080   118462470.410          50.000    22542674.440    88462228.879          50.000  
G25  21800044.960   114559946.633          50.000    21800047.680    85548010.336          50.000  
G29  23819788.440   125173801.719          50.000                                                  
E13  23762554.300   124873047.402          50.000    23762558.460    93249342.426          50.000  
E15  23581906.360   123923719.668          50.000    23581911.620    92540427.141          50.000  
E21  25008989.560   131423103.004          50.000    25008994.260    98140617.332          50.000  
E27  23261778.980   122241447.172          50.000    23261783.240    91284185.324          50.000  
E30  25215741.700   132509577.930          50.000    25215747.440    98951940.813          50.000  
> 2020  5 21 21 24 50.0000000  0 13       0.000000000000
G 2  20857643.880   109607688.039          50.000                                                  
G 5  23636370.840   124209932.746          50.000                                                  
G 6  21885979.360   115011544.383          50.000    21885982.340    85885243.395          50.000  
G12  20289925.000   106624274.094          50.000                                                  
G19  23608088.220   124061343.980          50.000                                                  
G24  22543189.920   118465196.863          50.000    22543193.260    88464264.863          50.000  
G25  21799550.620   114557348.855          50.000    21799553.340    85546070.438          50.000  
G29  23819323.560   125171358.766          50.000                                                  
E13  23762329.980   124871868.574          50.000    23762334.140    93248462.133          50.000  
E15  23582167.820   123925093.578          50.000    23582173.060    92541453.113          50.000  
E21  25008612.000   131421118.879          50.000    25008616.700    98139135.680          50.000  
E27  23261898.720   122242076.406          50.000    23261902.980    91284655.207          50.000  
E30  25216249.080   132512244.266          50.000    25216254.840    98953931.906          50.000  
> 2020  5 21 21 24 51.0000000  0 13       0.000000000000
G 2  20857786.880   109608439.500          50.000                                                  
G 5  23635761.220   124206729.117          50.000                                                  
G 6  21886452.340   115014029.996          50.000    21886455.320    85887099.535          50.000  
G12  20289723.400   106623214.695          50.000                                                  
G19  23608618.440   124064130.250          50.000                                                  
G24  22543708.800   118467923.645          50.000    22543712.160    88466301.098          50.000  
G25  21799056.340   114554751.348          50.000    21799059.060    85544130.742          50.000  
G29  23818858.700   125168915.941          50.000                                                  
E13  23762105.720   124870690.074          50.000    23762109.880    93247582.082          50.000  
E15  23582429.300   123926467.746          50.000    23582434.560    92542479.277          50.000  
E21  25008234.480   131419134.988          50.000    25008239.180    98137654.203          50.000  
E27  23262018.540   122242706.055          50.000    23262022.800    91285125.398          50.000  
E30  25216756.500   132514910.805          50.000    25216762.260    98955923.152          50.000  
> 2020  5 21 21 24 52.0000000  0 13       0.000000000000
G 2  20857929.960   109609191.434          50.000                                                  
G 5  23635151.600   124203525.582          50.000                                                  
G 6  21886925.420   115016515.992          50.000    21886928.400    85888955.957          50.000  
G12  20289521.900   106622155.762          50.000                                                  
G19  23609148.640   124066916.551          50.000                                                  
G24  22544227.760   118470650.730          50.000    22544231.100    88468337.555          50.000  
G25  21798562.100   114552154.117          50.000    21798564.820    85542191.250          50.000  
G29  23818393.860   125166473.238          50.000                                                  
E13  23761881.520   124869511.891          50.000    23761885.680    93246702.270          50.000  
E15  23582690.860   123927842.148          50.000    23582696.100    92543505.617          50.000  
E21  25007857.000   131417151.336          50.000    25007861.700    98136172.906          50.000  
E27  23262138.440   122243336.102          50.000    23262142.700    91285595.887          50.000  
E30  25217263.980   132517577.535          50.000    25217269.720    98957914.539          50.000  
> 2020  5 21 21 24 53.0000000  0 13       0.000000000000
G 2  20858073.140   109609943.844          50.000                                                  
G 5  23634542.000   124200322.160          50.000                                                  
G 6  21887398.560   115019002.371          50.000    21887401.540    85890812.672          50.000  
G12  20289320.460   106621097.254          50.000                                                  
G19  23609678.880   124069702.887          50.000                                                  
G24  22544746.760   118473378.117          50.000    22544750.100    88470374.238          50.000  
G25  21798067.920   114549557.164          50.000    21798070.620    85540251.969          50.000  
G29  23817929.060   125164030.668          50.000                                                  
E13  23761657.400   124868334.055          50.000    23761661.560    93245822.715          50.000  
E15  23582952.440   123929216.809          50.000    23582957.700    92544532.148          50.000  
E21  25007479.580   131415167.938          50.000    25007484.280    98134691.797          50.000  
E27  23262258.400   122243966.543          50.000    23262262.660    91286066.672          50.000  
E30  25217771.480   132520244.461          50.000    25217777.240    98959906.074          50.000  
> 2020  5 21 21 24 54.0000000  0 13       0.000000000000
G 2  20858216.420   109610696.742          50.000                                                  
G 5  23633932.440   124197118.836          50.000                                                  
G 6  21887871.780   115021489.141          50.000    21887874.760    85892669.672          50.000  
G12  20289119.120   106620039.203          50.000                                                  
G19  23610209.100   124072489.262          50.000                                                  
G24  22545265.820   118476105.793          50.000    22545269.180    88472411.141          50.000  
G25  21797573.780   114546960.477          50.000    21797576.500    85538312.887          50.000  
G29  23817464.280   125161588.227          50.000                                                  
E13  23761433.320   124867156.535          50.000    23761437.480    93244943.402          50.000  
E15  23583214.080   123930591.719          50.000    23583219.340    92545558.867          50.000  
E21  25007102.200   131413184.777          50.000    25007106.900    98133210.867          50.000  
E27  23262378.460   122244597.395          50.000    23262382.720    91286537.766          50.000  
E30  25218279.020   132522911.590          50.000    25218284.780    98961897.758          50.000  
> 2020  5 21 21 24 55.0000000  0 13       0.000000000000
G 2  20858359.780   109611450.098          50.000                                                  
G 5  23633322.880   124193915.613          50.000                                                  
G 6  21888345.060   115023976.289          50.000    21888348.040    85894526.957          50.000  
G12  20288917.860   106618981.590          50.000                                                  
G19  23610739.340   124075275.668          50.000                                                  
G24  22545784.940   118478833.797          50.000    22545788.300    88474448.285          50.000  
G25  21797079.700   114544364.055          50.000    21797082.420    85536374.000          50.000  
G29  23816999.520   125159145.898          50.000                                                  
E13  23761209.320   124865979.355          50.000    23761213.480    93244064.340          50.000  
E15  23583475.760   123931966.871          50.000    23583481.020    92546585.766          50.000  
E21  25006724.860   131411201.852          50.000    25006729.560    98131730.109          50.000  
E27  23262498.580   122245228.652          50.000    23262502.840    91287009.156          50.000  
E30  25218786.600   132525578.895          50.000    25218792.340    98963889.578          50.000  
> 2020  5 21 21 24 56.0000000  0 13       0.000000000000
G 2  20858503.220   109612203.938          50.000                                                  
G 5  23632713.340   124190712.492          50.000                                                  
G 6  21888818.420   115026463.816          50.000    21888821.400    85896384.527          50.000  
G12  20288716.700   106617924.434          50.000                                                  
G19  23611269.580   124078062.105          50.000                                                  
G24  22546304.120   118481562.113          50.000    22546307.480    88476485.660          50.000  
G25  21796585.660   114541767.914          50.000    21796588.380    85534435.324          50.000  
G29  23816534.780   125156703.699          50.000                                                  
E13  23760985.360   124864802.488          50.000    23760989.520    93243185.508          50.000  
E15  23583737.500   123933342.270          50.000    23583742.740    92547612.848          50.000  
E21  25006347.560   131409219.164          50.000    25006352.260    98130249.535          50.000  
E27  23262618.780   122245860.301          50.000    23262623.040    91287480.844          50.000  
E30  25219294.200   132528246.402          50.000    25219299.960    98965881.547          50.000  
> 2020  5 21 21 24 57.0000000  0 13       0.000000000000
G 2  20858646.760   109612958.258          50.000                                                  
G 5  23632103.820   124187509.465          50.000                                                  
G 6  21889291.860   115028951.730          50.000    21889294.840    85898242.383          50.000  
G12  20288515.600   106616867.715          50.000                                                  
G19  23611799.840   124080848.590          50.000                                                  
G24  22546823.360   118484290.730          50.000    22546826.720    88478523.266          50.000  
G25  21796091.680   114539172.039          50.000    21796094.400    85532496.848          50.000  
G29  23816070.080   125154261.629          50.000                                                  
E13  23760761.480   124863625.957          50.000    23760765.640    93242306.934          50.000  
E15  23583999.280   123934717.918          50.000    23584004.520    92548640.117          50.000  
E21  25005970.320   131407236.734          50.000    25005975.020    98128769.148          50.000  
E27  23262739.060   122246492.355          50.000    23262743.320    91287952.832          50.000  
E30  25219801.860   132530914.113          50.000    25219807.620    98967873.668          50.000  
> 2020  5 21 21 24 58.0000000  0 13       0.000000000000
G 2  20858790.400   109613713.055          50.000                                                  
G 5  23631494.320   124184306.543          50.000                                                  
G 6  21889765.380   115031440.035          50.000    21889768.360    85900100.531          50.000  
G12  20288314.600   106615811.457          50.000                                                  
G19  23612330.080   124083635.102          50.000                                                  
G24  22547342.660   118487019.660          50.000    22547346.020    88480561.102          50.000  
G25  21795597.760   114536576.438          50.000    21795600.480    85530558.574          50.000  
G29  23815605.380   125151819.688          50.000                                                  
E13  23760537.660   124862449.754          50.000    23760541.820    93241428.598          50.000  
E15  23584261.100   123936093.813          50.000    23584266.360    92549667.570          50.000  
E21  25005593.120   131405254.535          50.000    25005597.820    98127288.934          50.000  
E27  23262859.420   122247124.813          50.000    23262863.680    91288425.121          50.000  
E30  25220309.540   132533582.012          50.000    25220315.300    98969865.926          50.000  
> 2020  5 21 21 24 59.0000000  0 13       0.000000000000
G 2  20858934.120   109614468.320          50.000                                                  
G 5  23630884.860   124181103.727          50.000                                                  
G 6  21890238.960   115033928.719          50.000    21890241.940    85901958.965          50.000  
G12  20288113.700   106614755.629          50.000                                                  
G19  23612860.340   124086421.645          50.000                                                  
G24  22547862.020   118489748.875          50.000    22547865.360    88482599.152          50.000  
G25  21795103.880   114533981.109          50.000    21795106.600    85528620.504          50.000  
G29  23815140.720   125149377.863          50.000                                                  
E13  23760313.900   124861273.871          50.000    23760318.060    93240550.504          50.000  
E15  23584522.980   123937469.953          50.000    23584528.220    92550695.207          50.000  
E21  25005215.980   131403272.570          50.000    25005220.680    98125808.895          50.000  
E27  23262979.840   122247757.676          50.000    23262984.100    91288897.711          50.000  
E30  25220817.260   132536250.102          50.000    25220823.020    98971858.332          50.000  
> 2020  5 21 21 25  0.0000000  0 13       0.000000000000
G 2  20859077.940   109615224.070          50.000                                                  
G 5  23630275.400   124177901.016          50.000                                                  
G 6  21890712.600   115036417.789          50.000    21890715.580    85903817.684          50.000  
G12  20287912.860   106613700.270          50.000                                                  
G19  23613390.620   124089208.223          50.000                                                  
G24  22548381.420   118492478.402          50.000    22548384.780    88484637.434          50.000  
G25  21794610.060   114531386.070          50.000    21794612.780    85526682.652          50.000  
G29  23814676.080   125146936.164          50.000                                                  
E13  23760090.200   124860098.332          50.000    23760094.360    93239672.668          50.000  
E15  23584784.900   123938846.340          50.000    23584790.140    92551723.031          50.000  
E21  25004838.860   131401290.859          50.000    25004843.560    98124329.047          50.000  
E27  23263100.360   122248390.941          50.000    23263104.620    91289370.605          50.000  
E30  25221325.020   132538918.391          50.000    25221330.780    98973850.883          50.000  
> 2020  5 21 21 25  1.0000000  0 13       0.000000000000
G 2  20859221.840   109615980.289          50.000                                                  
G 5  23629665.960   124174698.398          50.000                                                  
G 6  21891186.340   115038907.250          50.000    21891189.320    85905676.695          50.000  
G12  20287712.120   106612645.344          50.000                                                  
G19  23613920.900   124091994.840          50.000                                                  
G24  22548900.900   118495208.238          50.000    22548904.260    88486675.945          50.000  
G25  21794116.280   114528791.273          50.000    21794119.000    85524744.980          50.000  
G29  23814211.460   125144494.590          50.000                                                  
E13  23759866.560   124858923.109          50.000    23759870.720    93238795.066          50.000  
E15  23585046.860   123940222.984          50.000    23585052.120    92552751.043          50.000  
E21  25004461.800   131399309.383          50.000    25004466.500    98122849.375          50.000  
E27  23263220.940   122249024.602          50.000    23263225.200    91289843.793          50.000  
E30  25221832.820   132541586.867          50.000    25221838.580    98975843.574          50.000  
> 2020  5 21 21 25  2.0000000  0 13       0.000000000000
G 2  20859365.840   109616736.996          50.000                                                  
G 5  23629056.540   124171495.879          50.000                                                  
G 6  21891660.140   115041397.082          50.000    21891663.120    85907535.988          50.000  
G12  20287511.460   106611590.863          50.000                                                  
G19  23614451.180   124094781.477          50.000                                                  
G24  22549420.420   118497938.367          50.000    22549423.780    88488714.680          50.000  
G25  21793622.560   114526196.762          50.000    21793625.280    85522807.523          50.000  
G29  23813746.880   125142053.145          50.000                                                  
E13  23759643.000   124857748.219          50.000    23759647.160    93237917.711          50.000  
E15  23585308.880   123941599.863          50.000    23585314.120    92553779.230          50.000  
E21  25004084.800   131397328.148          50.000    25004089.480    98121369.883          50.000  
E27  23263341.600   122249658.668          50.000    23263345.860    91290317.285          50.000  
E30  25222340.660   132544255.539          50.000    25222346.420    98977836.410          50.000  
> 2020  5 21 21 25  3.0000000  0 13       0.000000000000
G 2  20859509.920   109617494.176          50.000                                                  
G 5  23628447.140   124168293.473          50.000                                                  
G 6  21892134.000   115043887.297          50.000    21892137.000    85909395.563          50.000  
G12  20287310.880   106610536.824          50.000                                                  
G19  23614981.460   124097568.148          50.000                                                  
G24  22549940.020   118500668.820          50.000    22549943.360    88490753.652          50.000  
G25  21793128.900   114523602.520          50.000    21793131.620    85520870.262          50.000  
G29  23813282.300   125139611.820          50.000                                                  
E13  23759419.480   124856573.652          50.000    23759423.640    93237040.605          50.000  
E15  23585570.940   123942976.996          50.000    23585576.200    92554807.609          50.000  
E21  25003707.820   131395347.156          50.000    25003712.520    98119890.570          50.000  
E27  23263462.340   122250293.145          50.000    23263466.600    91290791.082          50.000  
E30  25222848.540   132546924.418          50.000    25222854.300    98979829.406          50.000  
> 2020  5 21 21 25  4.0000000  0 13       0.000000000000
G 2  20859654.100   109618251.832          50.000                                                  
G 5  23627837.760   124165091.168          50.000                                                  
G 6  21892607.960   115046377.902          50.000    21892610.940    85911255.430          50.000  
G12  20287110.400   106609483.242          50.000                                                  
G19  23615511.760   124100354.859          50.000                                                  
G24  22550459.660   118503399.566          50.000    22550463.020    88492792.844          50.000  
G25  21792635.280   114521008.555          50.000    21792638.000    85518933.215          50.000  
G29  23812817.760   125137170.629          50.000                                                  
E13  23759196.040   124855399.434          50.000    23759200.200    93236163.750          50.000  
E15  23585833.060   123944354.379          50.000    23585838.300    92555836.176          50.000  
E21  25003330.900   131393366.406          50.000    25003335.600    98118411.438          50.000  
E27  23263583.140   122250928.016          50.000    23263587.420    91291265.172          50.000  
E30  25223356.440   132549593.477          50.000    25223362.200    98981822.531          50.000  
> 2020  5 21 21 25  5.0000000  0 13       0.000000000000
G 2  20859798.380   109619009.969          50.000                                                  
G 5  23627228.400   124161888.961          50.000                                                  
G 6  21893081.980   115048868.891          50.000    21893084.960    85913115.582          50.000  
G12  20286909.980   106608430.105          50.000                                                  
G19  23616042.060   124103141.602          50.000                                                  
G24  22550979.360   118506130.609          50.000    22550982.720    88494832.258          50.000  
G25  21792141.720   114518414.875          50.000    21792144.440    85516996.375          50.000  
G29  23812353.240   125134729.551          50.000                                                  
E13  23758972.660   124854225.531          50.000    23758976.820    93235287.137          50.000  
E15  23586095.200   123945732.000          50.000    23586100.460    92556864.918          50.000  
E21  25002954.020   131391385.898          50.000    25002958.720    98116932.488          50.000  
E27  23263704.040   122251563.297          50.000    23263708.300    91291739.570          50.000  
E30  25223864.380   132552262.734          50.000    25223870.140    98983815.805          50.000  
> 2020  5 21 21 25  6.0000000  0 13       0.000000000000
G 2  20859942.720   109619768.563          50.000                                                  
G 5  23626619.060   124158686.855          50.000                                                  
G 6  21893556.060   115051360.258          50.000    21893559.040    85914976.016          50.000  
G12  20286709.660   106607377.406          50.000                                                  
G19  23616572.360   124105928.375          50.000                                                  
G24  22551499.120   118508861.984          50.000    22551502.480    88496871.922          50.000  
G25  21791648.220   114515821.449          50.000    21791650.920    85515059.727          50.000  
G29  23811888.740   125132288.602          50.000                                                  
E13  23758749.320   124853051.953          50.000    23758753.480    93234410.762          50.000  
E15  23586357.400   123947109.879          50.000    23586362.660    92557893.852          50.000  
E21  25002577.200   131389405.641          50.000    25002581.900    98115453.723          50.000  
E27  23263825.000   122252198.973          50.000    23263829.280    91292214.266          50.000  
E30  25224372.380   132554932.191          50.000    25224378.140    98985809.230          50.000  
> 2020  5 21 21 25  7.0000000  0 13       0.000000000000
G 2  20860087.180   109620527.645          50.000                                                  
G 5  23626009.740   124155484.859          50.000                                                  
G 6  21894030.240   115053852.008          50.000    21894033.220    85916836.738          50.000  
G12  20286509.420   106606325.156          50.000                                                  
G19  23617102.680   124108715.184          50.000                                                  
G24  22552018.940   118511593.672          50.000    22552022.300    88498911.816          50.000  
G25  21791154.740   114513228.293          50.000    21791157.460    85513123.281          50.000  
G29  23811424.260   125129847.777          50.000                                                  
E13  23758526.060   124851878.703          50.000    23758530.220    93233534.637          50.000  
E15  23586619.660   123948487.996          50.000    23586624.900    92558922.965          50.000  
E21  25002200.420   131387425.613          50.000    25002205.100    98113975.137          50.000  
E27  23263946.060   122252835.047          50.000    23263950.320    91292689.258          50.000  
E30  25224880.380   132557601.832          50.000    25224886.160    98987802.789          50.000  
> 2020  5 21 21 25  8.0000000  0 13       0.000000000000
G 2  20860231.720   109621287.203          50.000                                                  
G 5  23625400.440   124152282.984          50.000                                                  
G 6  21894504.480   115056344.145          50.000    21894507.460    85918697.750          50.000  
G12  20286309.280   106605273.359          50.000                                                  
G19  23617633.000   124111502.027          50.000                                                  
G24  22552538.820   118514325.660          50.000    22552542.180    88500951.934          50.000  
G25  21790661.340   114510635.422          50.000    21790664.060    85511187.047          50.000  
G29  23810959.820   125127407.082          50.000                                                  
E13  23758302.880   124850705.785          50.000    23758307.040    93232658.758          50.000  
E15  23586881.960   123949866.359          50.000    23586887.200    92559952.262          50.000  
E21  25001823.680   131385445.832          50.000    25001828.360    98112496.727          50.000  
E27  23264067.180   122253471.531          50.000    23264071.440    91293164.551          50.000  
E30  25225388.440   132560271.672          50.000    25225394.200    98989796.500          50.000  
> 2020  5 21 21 25  9.0000000  0 13       0.000000000000
G 2  20860376.340   109622047.246          50.000                                                  
G 5  23624791.160   124149081.215          50.000                                                  
G 6  21894978.780   115058836.664          50.000    21894981.760    85920559.047          50.000  
G12  20286109.200   106604222.004          50.000                                                  
G19  23618163.320   124114288.914          50.000                                                  
G24  22553058.760   118517057.965          50.000    22553062.120    88502992.289          50.000  
G25  21790167.980   114508042.828          50.000    21790170.700    85509251.020          50.000  
G29  23810495.380   125124966.496          50.000                                                  
E13  23758079.740   124849533.191          50.000    23758083.900    93231783.117          50.000  
E15  23587144.300   123951244.969          50.000    23587149.540    92560981.746          50.000  
E21  25001446.980   131383466.289          50.000    25001451.680    98111018.496          50.000  
E27  23264188.380   122254108.422          50.000    23264192.640    91293640.148          50.000  
E30  25225896.540   132562941.711          50.000    25225902.300    98991790.359          50.000  
> 2020  5 21 21 25 10.0000000  0 13       0.000000000000
G 2  20860521.060   109622807.754          50.000                                                  
G 5  23624181.900   124145879.543          50.000                                                  
G 6  21895453.160   115061329.570          50.000    21895456.140    85922420.633          50.000  
G12  20285909.220   106603171.105          50.000                                                  
G19  23618693.660   124117075.840          50.000                                                  
G24  22553578.760   118519790.566          50.000    22553582.120    88505032.867          50.000  
G25  21789674.680   114505450.484          50.000    21789677.400    85507315.180          50.000  
G29  23810030.980   125122526.047          50.000                                                  
E13  23757856.660   124848360.938          50.000    23757860.820    93230907.734          50.000  
E15  23587406.680   123952623.824          50.000    23587411.940    92562011.410          50.000  
E21  25001070.340   131381486.996          50.000    25001075.040    98109540.457          50.000  
E27  23264309.640   122254745.711          50.000    23264313.920    91294116.047          50.000  
E30  25226404.680   132565611.949          50.000    25226410.440    98993784.367          50.000  
> 2020  5 21 21 25 11.0000000  0 13       0.000000000000
G 2  20860665.880   109623568.734          50.000                                                  
G 5  23623572.660   124142677.969          50.000                                                  
G 6  21895927.620   115063822.844          50.000    21895930.600    85924282.492          50.000  
G12  20285709.340   106602120.641          50.000                                                  
G19  23619224.000   124119862.789          50.000                                                  
G24  22554098.820   118522523.477          50.000    22554102.180    88507073.676          50.000  
G25  21789181.420   114502858.430          50.000    21789184.140    85505379.555          50.000  
G29  23809566.600   125120085.715          50.000                                                  
E13  23757633.660   124847188.996          50.000    23757637.820    93230032.582          50.000  
E15  23587669.120   123954002.922          50.000    23587674.380    92563041.254          50.000  
E21  25000693.740   131379507.930          50.000    25000698.420    98108062.578          50.000  
E27  23264431.000   122255383.398          50.000    23264435.260    91294592.246          50.000  
E30  25226912.840   132568282.355          50.000    25226918.600    98995778.500          50.000  
> 2020  5 21 21 25 12.0000000  0 13       0.000000000000
G 2  20860810.780   109624330.191          50.000                                                  
G 5  23622963.440   124139476.504          50.000                                                  
G 6  21896402.140   115066316.508          50.000    21896405.140    85926144.645          50.000  
G12  20285509.520   106601070.637          50.000                                                  
G19  23619754.340   124122649.789          50.000                                                  
G24  22554618.940   118525256.672          50.000    22554622.280    88509114.699          50.000  
G25  21788688.220   114500266.645          50.000    21788690.940    85503444.133          50.000  
G29  23809102.240   125117645.512          50.000                                                  
E13  23757410.700   124846017.402          50.000    23757414.860    93229157.691          50.000  
E15  23587931.600   123955382.277          50.000    23587936.860    92564071.293          50.000  
E21  25000317.180   131377529.125          50.000    25000321.880    98106584.902          50.000  
E27  23264552.420   122256021.496          50.000    23264556.700    91295068.746          50.000  
E30  25227421.040   132570952.977          50.000    25227426.800    98997772.793          50.000  
> 2020  5 21 21 25 13.0000000  0 13       0.000000000000
G 2  20860955.760   109625092.133          50.000                                                  
G 5  23622354.240   124136275.148          50.000                                                  
G 6  21896876.760   115068810.563          50.000    21896879.740    85928007.086          50.000  
G12  20285309.800   106600021.074          50.000                                                  
G19  23620284.700   124125436.816          50.000                                                  
G24  22555139.100   118527990.172          50.000    22555142.460    88511155.949          50.000  
G25  21788195.080   114497675.137          50.000    21788197.800    85501508.914          50.000  
G29  23808637.900   125115205.426          50.000                                                  
E13  23757187.820   124844846.121          50.000    23757191.980    93228283.035          50.000  
E15  23588194.140   123956761.879          50.000    23588199.380    92565101.512          50.000  
E21  24999940.680   131375550.555          50.000    24999945.360    98105107.398          50.000  
E27  23264673.920   122256659.996          50.000    23264678.200    91295545.547          50.000  
E30  25227929.280   132573623.785          50.000    25227935.040    98999767.227          50.000  
> 2020  5 21 21 25 14.0000000  0 13       0.000000000000
G 2  20861100.860   109625854.551          50.000                                                  
G 5  23621745.060   124133073.891          50.000                                                  
G 6  21897351.420   115071304.992          50.000    21897354.420    85929869.809          50.000  
G12  20285110.160   106598971.961          50.000                                                  
G19  23620815.060   124128223.875          50.000                                                  
G24  22555659.320   118530723.973          50.000    22555662.680    88513197.422          50.000  
G25  21787701.980   114495083.898          50.000    21787704.700    85499573.902          50.000  
G29  23808173.600   125112765.465          50.000                                                  
E13  23756965.000   124843675.176          50.000    23756969.160    93227408.625          50.000  
E15  23588456.720   123958141.727          50.000    23588461.960    92566131.922          50.000  
E21  24999564.220   131373572.234          50.000    24999568.900    98103630.082          50.000  
E27  23264795.500   122257298.895          50.000    23264799.780    91296022.648          50.000  
E30  25228437.560   132576294.793          50.000    25228443.320    99001761.809          50.000  
> 2020  5 21 21 25 15.0000000  0 13       0.000000000000
G 2  20861246.020   109626617.438          50.000                                                  
G 5  23621135.900   124129872.730          50.000                                                  
G 6  21897826.180   115073799.801          50.000    21897829.160    85931732.813          50.000  
G12  20284910.600   106597923.281          50.000                                                  
G19  23621345.420   124131010.957          50.000                                                  
G24  22556179.620   118533458.094          50.000    22556182.960    88515239.133          50.000  
G25  21787208.940   114492492.949          50.000    21787211.660    85497639.105          50.000  
G29  23807709.320   125110325.625          50.000                                                  
E13  23756742.240   124842504.551          50.000    23756746.400    93226534.461          50.000  
E15  23588719.340   123959521.820          50.000    23588724.600    92567162.508          50.000  
E21  24999187.800   131371594.141          50.000    24999192.480    98102152.938          50.000  
E27  23264917.160   122257938.199          50.000    23264921.440    91296500.051          50.000  
E30  25228945.880   132578965.984          50.000    25228951.640    99003756.531          50.000  
> 2020  5 21 21 25 16.0000000  0 13       0.000000000000
G 2  20861391.300   109627380.809          50.000                                                  
G 5  23620526.760   124126671.676          50.000                                                  
G 6  21898301.000   115076294.992          50.000    21898303.980    85933596.105          50.000  
G12  20284711.140   106596875.066          50.000                                                  
G19  23621875.800   124133798.090          50.000                                                  
G24  22556699.960   118536192.496          50.000    22556703.320    88517281.055          50.000  
G25  21786715.940   114489902.250          50.000    21786718.660    85495704.492          50.000  
G29  23807245.040   125107885.906          50.000                                                  
E13  23756519.540   124841334.270          50.000    23756523.700    93225660.547          50.000  
E15  23588982.020   123960902.152          50.000    23588987.260    92568193.277          50.000  
E21  24998811.420   131369616.301          50.000    24998816.120    98100675.980          50.000  
E27  23265038.900   122258577.902          50.000    23265043.160    91296977.750          50.000  
E30  25229454.240   132581637.383          50.000    25229460.000    99005751.402          50.000  
> 2020  5 21 21 25 17.0000000  0 13       0.000000000000
G 2  20861536.640   109628144.656          50.000                                                  
G 5  23619917.640   124123470.730          50.000                                                  
G 6  21898775.880   115078790.570          50.000    21898778.880    85935459.684          50.000  
G12  20284511.740   106595827.289          50.000                                                  
G19  23622406.180   124136585.250          50.000                                                  
G24  22557220.360   118538927.246          50.000    22557223.720    88519323.238          50.000  
G25  21786223.000   114487311.840          50.000    21786225.720    85493770.094          50.000  
G29  23806780.800   125105446.313          50.000                                                  
E13  23756296.920   124840164.313          50.000    23756301.080    93224786.879          50.000  
E15  23589244.740   123962282.738          50.000    23589249.980    92569224.234          50.000  
E21  24998435.100   131367638.707          50.000    24998439.800    98099199.203          50.000  
E27  23265160.720   122259218.012          50.000    23265164.980    91297455.754          50.000  
E30  25229962.620   132584308.961          50.000    25229968.380    99007746.410          50.000  
> 2020  5 21 21 25 18.0000000  0 13       0.000000000000
G 2  20861682.100   109628908.977          50.000                                                  
G 5  23619308.540   124120269.887          50.000                                                  
G 6  21899250.860   115081286.531          50.000    21899253.840    85937323.551          50.000  
G12  20284312.440   106594779.957          50.000                                                  
G19  23622936.560   124139372.449          50.000                                                  
G24  22557740.820   118541662.277          50.000    22557744.180    88521365.633          50.000  
G25  21785730.120   114484721.695          50.000    21785732.820    85491835.898          50.000  
G29  23806316.600   125103006.848          50.000                                                  
E13  23756074.340   124838994.676          50.000    23756078.500    93223913.449          50.000  
E15  23589507.500   123963663.570          50.000    23589512.740    92570255.375          50.000  
E21  24998058.820   131365661.352          50.000    24998063.520    98097722.609          50.000  
E27  23265282.600   122259858.523          50.000    23265286.860    91297934.059          50.000  
E30  25230471.040   132586980.742          50.000    25230476.800    99009741.570          50.000  
> 2020  5 21 21 25 19.0000000  0 13       0.000000000000
G 2  20861827.620   109629673.773          50.000                                                  
G 5  23618699.440   124117069.137          50.000                                                  
G 6  21899725.900   115083782.863          50.000    21899728.880    85939187.695          50.000  
G12  20284113.240   106593733.070          50.000                                                  
G19  23623466.960   124142159.684          50.000                                                  
G24  22558261.340   118544397.621          50.000    22558264.700    88523408.258          50.000  
G25  21785237.280   114482131.828          50.000    21785240.000    85489901.906          50.000  
G29  23805852.400   125100567.504          50.000                                                  
E13  23755851.840   124837825.375          50.000    23755855.980    93223040.270          50.000  
E15  23589770.300   123965044.652          50.000    23589775.560    92571286.699          50.000  
E21  24997682.600   131363684.234          50.000    24997687.280    98096246.188          50.000  
E27  23265404.560   122260499.438          50.000    23265408.820    91298412.664          50.000  
E30  25230979.500   132589652.707          50.000    25230985.280    99011736.867          50.000  
> 2020  5 21 21 25 20.0000000  0 13       0.000000000000
G 2  20861973.260   109630439.031          50.000                                                  
G 5  23618090.380   124113868.500          50.000                                                  
G 6  21900201.000   115086279.586          50.000    21900203.980    85941052.133          50.000  
G12  20283914.100   106592686.641          50.000                                                  
G19  23623997.360   124144946.953          50.000                                                  
G24  22558781.920   118547133.258          50.000    22558785.280    88525451.102          50.000  
G25  21784744.500   114479542.242          50.000    21784747.200    85487968.125          50.000  
G29  23805388.240   125098128.285          50.000                                                  
E13  23755629.380   124836656.402          50.000    23755633.540    93222167.336          50.000  
E15  23590033.160   123966425.977          50.000    23590038.420    92572318.211          50.000  
E21  24997306.420   131361707.367          50.000    24997311.100    98094769.961          50.000  
E27  23265526.600   122261140.762          50.000    23265530.880    91298891.570          50.000  
E30  25231488.000   132592324.879          50.000    25231493.780    99013732.316          50.000  
> 2020  5 21 21 25 21.0000000  0 13       0.000000000000
G 2  20862118.960   109631204.770          50.000                                                  
G 5  23617481.340   124110667.961          50.000                                                  
G 6  21900676.180   115088776.691          50.000    21900679.180    85942916.852          50.000  
G12  20283715.060   106591640.652          50.000                                                  
G19  23624527.760   124147734.258          50.000                                                  
G24  22559302.540   118549869.211          50.000    22559305.900    88527494.184          50.000  
G25  21784251.760   114476952.926          50.000    21784254.480    85486034.547          50.000  
G29  23804924.080   125095689.195          50.000                                                  
E13  23755407.000   124835487.762          50.000    23755411.160    93221294.648          50.000  
E15  23590296.080   123967807.551          50.000    23590301.320    92573349.902          50.000  
E21  24996930.280   131359730.742          50.000    24996934.960    98093293.906          50.000  
E27  23265648.720   122261782.488          50.000    23265652.980    91299370.781          50.000  
E30  25231996.540   132594997.242          50.000    25232002.300    99015727.910          50.000  
> 2020  5 21 21 25 22.0000000  0 13       0.000000000000
G 2  20862264.780   109631970.988          50.000                                                  
G 5  23616872.320   124107467.531          50.000                                                  
G 6  21901151.440   115091274.180          50.000    21901154.420    85944781.855          50.000  
G12  20283516.100   106590595.117          50.000                                                  
G19  23625058.180   124150521.602          50.000                                                  
G24  22559823.240   118552605.453          50.000    22559826.600    88529537.480          50.000  
G25  21783759.080   114474363.891          50.000    21783761.800    85484101.176          50.000  
G29  23804459.960   125093250.234          50.000                                                  
E13  23755184.680   124834319.453          50.000    23755188.840    93220422.207          50.000  
E15  23590559.020   123969189.367          50.000    23590564.280    92574381.773          50.000  
E21  24996554.180   131357754.355          50.000    24996558.880    98091818.031          50.000  
E27  23265770.920   122262424.613          50.000    23265775.180    91299850.285          50.000  
E30  25232505.120   132597669.809          50.000    25232510.880    99017723.652          50.000  
> 2020  5 21 21 25 23.0000000  0 13       0.000000000000
G 2  20862410.660   109632737.672          50.000                                                  
G 5  23616263.320   124104267.203          50.000                                                  
G 6  21901626.780   115093772.047          50.000    21901629.760    85946647.148          50.000  
G12  20283317.220   106589550.020          50.000                                                  
G19  23625588.600   124153308.977          50.000                                                  
G24  22560343.980   118555341.988          50.000    22560347.340    88531580.996          50.000  
G25  21783266.460   114471775.117          50.000    21783269.180    85482168.004          50.000  
G29  23803995.860   125090811.395          50.000                                                  
E13  23754962.420   124833151.465          50.000    23754966.580    93219550.004          50.000  
E15  23590822.020   123970571.430          50.000    23590827.280    92575413.828          50.000  
E21  24996178.140   131355778.215          50.000    24996182.820    98090342.336          50.000  
E27  23265893.180   122263067.145          50.000    23265897.460    91300330.094          50.000  
E30  25233013.720   132600342.555          50.000    25233019.500    99019719.531          50.000  
> 2020  5 21 21 25 24.0000000  0 13       0.000000000000
G 2  20862556.660   109633504.840          50.000                                                  
G 5  23615654.340   124101066.992          50.000                                                  
G 6  21902102.180   115096270.293          50.000    21902105.160    85948512.723          50.000  
G12  20283118.440   106588505.383          50.000                                                  
G19  23626119.040   124156096.387          50.000                                                  
G24  22560864.780   118558078.820          50.000    22560868.140    88533624.734          50.000  
G25  21782773.880   114469186.617          50.000    21782776.600    85480235.031          50.000  
G29  23803531.800   125088372.676          50.000                                                  
E13  23754740.220   124831983.805          50.000    23754744.380    93218678.047          50.000  
E15  23591085.060   123971953.746          50.000    23591090.320    92576446.074          50.000  
E21  24995802.140   131353802.324          50.000    24995806.820    98088866.828          50.000  
E27  23266015.540   122263710.082          50.000    23266019.800    91300810.203          50.000  
E30  25233522.360   132603015.500          50.000    25233528.140    99021715.555          50.000  
> 2020  5 21 21 25 25.0000000  0 13       0.000000000000
G 2  20862702.740   109634272.480          50.000                                                  
G 5  23615045.380   124097866.871          50.000                                                  
G 6  21902577.640   115098768.922          50.000    21902580.640    85950378.582          50.000  
G12  20282919.720   106587461.188          50.000                                                  
G19  23626649.460   124158883.828          50.000                                                  
G24  22561385.660   118560815.973          50.000    22561389.020    88535668.707          50.000  
G25  21782281.360   114466598.398          50.000    21782284.080    85478302.273          50.000  
G29  23803067.740   125085934.090          50.000                                                  
E13  23754518.080   124830816.480          50.000    23754522.240    93217806.340          50.000  
E15  23591348.160   123973336.305          50.000    23591353.420    92577478.500          50.000  
E21  24995426.180   131351826.668          50.000    24995430.880    98087391.496          50.000  
E27  23266137.960   122264353.418          50.000    23266142.220    91301290.617          50.000  
E30  25234031.040   132605688.641          50.000    25234036.820    99023711.723          50.000  
> 2020  5 21 21 25 26.0000000  0 13       0.000000000000
G 2  20862848.900   109635040.605          50.000                                                  
G 5  23614436.420   124094666.859          50.000                                                  
G 6  21903053.200   115101267.934          50.000    21903056.180    85952244.727          50.000  
G12  20282721.120   106586417.441          50.000                                                  
G19  23627179.900   124161671.301          50.000                                                  
G24  22561906.560   118563553.398          50.000    22561909.920    88537712.891          50.000  
G25  21781788.900   114464010.445          50.000    21781791.600    85476369.711          50.000  
G29  23802603.720   125083495.621          50.000                                                  
E13  23754296.020   124829649.484          50.000    23754300.180    93216934.875          50.000  
E15  23591611.300   123974719.109          50.000    23591616.560    92578511.109          50.000  
E21  24995050.260   131349851.258          50.000    24995054.960    98085916.352          50.000  
E27  23266260.460   122264997.160          50.000    23266264.720    91301771.328          50.000  
E30  25234539.760   132608361.977          50.000    25234545.540    99025708.039          50.000  
> 2020  5 21 21 25 27.0000000  0 13       0.000000000000
G 2  20862995.160   109635809.191          50.000                                                  
G 5  23613827.500   124091466.941          50.000                                                  
G 6  21903528.800   115103767.324          50.000    21903531.800    85954111.152          50.000  
G12  20282522.580   106585374.141          50.000                                                  
G19  23627710.360   124164458.813          50.000                                                  
G24  22562427.540   118566291.137          50.000    22562430.900    88539757.305          50.000  
G25  21781296.480   114461422.773          50.000    21781299.180    85474437.359          50.000  
G29  23802139.720   125081057.281          50.000                                                  
E13  23754074.000   124828482.816          50.000    23754078.160    93216063.660          50.000  
E15  23591874.480   123976102.156          50.000    23591879.740    92579543.902          50.000  
E21  24994674.400   131347876.094          50.000    24994679.100    98084441.387          50.000  
E27  23266383.020   122265641.297          50.000    23266387.300    91302252.336          50.000  
E30  25235048.520   132611035.504          50.000    25235054.300    99027704.504          50.000  
> 2020  5 21 21 25 28.0000000  0 13       0.000000000000
G 2  20863141.500   109636578.266          50.000                                                  
G 5  23613218.600   124088267.133          50.000                                                  
G 6  21904004.500   115106267.098          50.000    21904007.480    85955977.863          50.000  
G12  20282324.140   106584331.293          50.000                                                  
G19  23628240.800   124167246.359          50.000                                                  
G24  22562948.580   118569029.172          50.000    22562951.940    88541801.938          50.000  
G25  21780804.100   114458835.375          50.000    21780806.820    85472505.211          50.000  
G29  23801675.740   125078619.066          50.000                                                  
E13  23753852.060   124827316.469          50.000    23753856.220    93215192.684          50.000  
E15  23592137.720   123977485.461          50.000    23592142.980    92580576.883          50.000  
E21  24994298.600   131345901.168          50.000    24994303.300    98082966.602          50.000  
E27  23266505.680   122266285.844          50.000    23266509.960    91302733.648          50.000  
E30  25235557.320   132613709.230          50.000    25235563.100    99029701.109          50.000  
> 2020  5 21 21 25 29.0000000  0 13       0.000000000000
G 2  20863287.940   109637347.809          50.000                                                  
G 5  23612609.720   124085067.441          50.000                                                  
G 6  21904480.260   115108767.246          50.000    21904483.260    85957844.859          50.000  
G12  20282125.760   106583288.887          50.000                                                  
G19  23628771.260   124170033.930          50.000                                                  
G24  22563469.660   118571767.535          50.000    22563473.020    88543846.816          50.000  
G25  21780311.800   114456248.250          50.000    21780314.500    85470573.270          50.000  
G29  23801211.780   125076180.980          50.000                                                  
E13  23753630.160   124826150.461          50.000    23753634.340    93214321.961          50.000  
E15  23592401.000   123978869.000          50.000    23592406.260    92581610.039          50.000  
E21  24993922.820   131343926.488          50.000    24993927.520    98081492.000          50.000  
E27  23266628.420   122266930.793          50.000    23266632.680    91303215.258          50.000  
E30  25236066.140   132616383.141          50.000    25236071.920    99031697.855          50.000  
> 2020  5 21 21 25 30.0000000  0 13       0.000000000000
G 2  20863434.480   109638117.824          50.000                                                  
G 5  23612000.840   124081867.922          50.000                                                  
G 6  21904956.100   115111267.793          50.000    21904959.080    85959712.156          50.000  
G12  20281927.480   106582246.941          50.000                                                  
G19  23629301.720   124172821.543          50.000                                                  
G24  22563990.820   118574506.180          50.000    22563994.180    88545891.898          50.000  
G25  21779819.520   114453661.395          50.000    21779822.240    85468641.531          50.000  
G29  23800747.860   125073743.016          50.000                                                  
E13  23753408.340   124824984.758          50.000    23753412.520    93213451.461          50.000  
E15  23592664.320   123980252.793          50.000    23592669.580    92582643.391          50.000  
E21  24993547.100   131341952.047          50.000    24993551.800    98080017.578          50.000  
E27  23266751.220   122267576.137          50.000    23266755.500    91303697.168          50.000  
E30  25236575.020   132619057.234          50.000    25236580.800    99033694.730          50.000  
> 2020  5 21 21 25 31.0000000  0 13       0.000000000000
G 2  20863581.100   109638888.320          50.000                                                  
G 5  23611392.000   124078668.434          50.000                                                  
G 6  21905432.000   115113768.711          50.000    21905435.000    85961579.723          50.000  
G12  20281729.300   106581205.438          50.000                                                  
G19  23629832.200   124175609.188          50.000                                                  
G24  22564512.020   118577245.145          50.000    22564515.400    88547937.227          50.000  
G25  21779327.320   114451074.816          50.000    21779330.020    85466709.992          50.000  
G29  23800283.940   125071305.176          50.000                                                  
E13  23753186.580   124823819.406          50.000    23753190.760    93212581.223          50.000  
E15  23592927.700   123981636.824          50.000    23592932.960    92583676.918          50.000  
E21  24993171.420   131339977.855          50.000    24993176.120    98078543.344          50.000  
E27  23266874.100   122268221.891          50.000    23266878.380    91304179.383          50.000  
E30  25237083.920   132621731.527          50.000    25237089.700    99035691.762          50.000  
> 2020  5 21 21 25 32.0000000  0 13       0.000000000000
G 2  20863727.800   109639659.289          50.000                                                  
G 5  23610783.160   124075469.043          50.000                                                  
G 6  21905907.980   115116270.004          50.000    21905910.980    85963447.570          50.000  
G12  20281531.200   106580164.379          50.000                                                  
G19  23630362.680   124178396.859          50.000                                                  
G24  22565033.300   118579984.426          50.000    22565036.660    88549982.793          50.000  
G25  21778835.160   114448488.516          50.000    21778837.860    85464778.668          50.000  
G29  23799820.060   125068867.473          50.000                                                  
E13  23752964.880   124822654.367          50.000    23752969.060    93211711.227          50.000  
E15  23593191.120   123983021.102          50.000    23593196.380    92584710.625          50.000  
E21  24992795.800   131338003.914          50.000    24992800.500    98077069.293          50.000  
E27  23266997.060   122268868.047          50.000    23267001.340    91304661.898          50.000  
E30  25237592.860   132624406.027          50.000    25237598.640    99037688.949          50.000  
> 2020  5 21 21 25 33.0000000  0 13       0.000000000000
G 2  20863874.620   109640430.738          50.000                                                  
G 5  23610174.360   124072269.750          50.000                                                  
G 6  21906384.040   115118771.688          50.000    21906387.020    85965315.711          50.000  
G12  20281333.160   106579123.766          50.000                                                  
G19  23630893.160   124181184.578          50.000                                                  
G24  22565554.620   118582723.988          50.000    22565557.980    88552028.570          50.000  
G25  21778343.060   114445902.488          50.000    21778345.760    85462847.543          50.000  
G29  23799356.200   125066429.883          50.000                                                  
E13  23752743.260   124821489.676          50.000    23752747.420    93210841.484          50.000  
E15  23593454.580   123984405.637          50.000    23593459.840    92585744.527          50.000  
E21  24992420.200   131336030.203          50.000    24992424.900    98075595.414          50.000  
E27  23267120.100   122269514.609          50.000    23267124.380    91305144.715          50.000  
E30  25238101.840   132627080.707          50.000    25238107.620    99039686.270          50.000  
> 2020  5 21 21 25 34.0000000  0 13       0.000000000000
G 2  20864021.500   109641202.660          50.000                                                  
G 5  23609565.580   124069070.563          50.000                                                  
G 6  21906860.180   115121273.746          50.000    21906863.160    85967184.133          50.000  
G12  20281135.240   106578083.594          50.000                                                  
G19  23631423.660   124183972.320          50.000                                                  
G24  22566076.000   118585463.875          50.000    22566079.360    88554074.586          50.000  
G25  21777851.000   114443316.742          50.000    21777853.720    85460916.629          50.000  
G29  23798892.380   125063992.422          50.000                                                  
E13  23752521.680   124820325.301          50.000    23752525.860    93209971.980          50.000  
E15  23593718.100   123985790.406          50.000    23593723.360    92586778.605          50.000  
E21  24992044.660   131334056.738          50.000    24992049.380    98074121.719          50.000  
E27  23267243.220   122270161.570          50.000    23267247.500    91305627.832          50.000  
E30  25238610.860   132629755.586          50.000    25238616.640    99041683.738          50.000  
> 2020  5 21 21 25 35.0000000  0 13       0.000000000000
G 2  20864168.480   109641975.051          50.000                                                  
G 5  23608956.820   124065871.488          50.000                                                  
G 6  21907336.360   115123776.188          50.000    21907339.360    85969052.836          50.000  
G12  20280937.380   106577043.875          50.000                                                  
G19  23631954.160   124186760.102          50.000                                                  
G24  22566597.440   118588204.055          50.000    22566600.820    88556120.824          50.000  
G25  21777359.000   114440731.258          50.000    21777361.720    85458985.914          50.000  
G29  23798428.560   125061555.082          50.000                                                  
E13  23752300.160   124819161.250          50.000    23752304.340    93209102.719          50.000  
E15  23593981.660   123987175.422          50.000    23593986.920    92587812.867          50.000  
E21  24991669.180   131332083.523          50.000    24991673.880    98072648.211          50.000  
E27  23267366.400   122270808.938          50.000    23267370.680    91306111.250          50.000  
E30  25239119.900   132632430.668          50.000    25239125.700    99043681.359          50.000  
> 2020  5 21 21 25 36.0000000  0 13       0.000000000000
G 2  20864315.560   109642747.922          50.000                                                  
G 5  23608348.060   124062672.516          50.000                                                  
G 6  21907812.640   115126279.000          50.000    21907815.620    85970921.820          50.000  
G12  20280739.620   106576004.609          50.000                                                  
G19  23632484.660   124189547.922          50.000                                                  
G24  22567118.940   118590944.535          50.000    22567122.300    88558167.285          50.000  
G25  21776867.060   114438146.059          50.000    21776869.760    85457055.406          50.000  
G29  23797964.780   125059117.871          50.000                                                  
E13  23752078.720   124817997.531          50.000    23752082.900    93208233.703          50.000  
E15  23594245.260   123988560.676          50.000    23594250.540    92588847.305          50.000  
E21  24991293.740   131330110.547          50.000    24991298.440    98071174.883          50.000  
E27  23267489.660   122271456.703          50.000    23267493.960    91306594.969          50.000  
E30  25239628.980   132635105.930          50.000    25239634.780    99045679.113          50.000  
> 2020  5 21 21 25 37.0000000  0 13       0.000000000000
G 2  20864462.720   109643521.270          50.000                                                  
G 5  23607739.340   124059473.656          50.000                                                  
G 6  21908288.980   115128782.199          50.000    21908291.960    85972791.090          50.000  
G12  20280541.940   106574965.793          50.000                                                  
G19  23633015.160   124192335.777          50.000                                                  
G24  22567640.500   118593685.324          50.000    22567643.860    88560213.980          50.000  
G25  21776375.160   114435561.133          50.000    21776377.860    85455125.105          50.000  
G29  23797501.020   125056680.781          50.000                                                  
E13  23751857.340   124816834.145          50.000    23751861.500    93207364.938          50.000  
E15  23594508.920   123989946.180          50.000    23594514.180    92589881.934          50.000  
E21  24990918.340   131328137.816          50.000    24990923.040    98069701.734          50.000  
E27  23267613.000   122272104.875          50.000    23267617.300    91307078.988          50.000  
E30  25240138.120   132637781.391          50.000    25240143.900    99047677.020          50.000  
> 2020  5 21 21 25 38.0000000  0 13       0.000000000000
G 2  20864609.980   109644295.090          50.000                                                  
G 5  23607130.640   124056274.902          50.000                                                  
G 6  21908765.400   115131285.777          50.000    21908768.380    85974660.645          50.000  
G12  20280344.340   106573927.418          50.000                                                  
G19  23633545.680   124195123.652          50.000                                                  
G24  22568162.100   118596426.406          50.000    22568165.480    88562260.887          50.000  
G25  21775883.320   114432976.484          50.000    21775886.020    85453195.012          50.000  
G29  23797037.280   125054243.824          50.000                                                  
E13  23751636.020   124815671.078          50.000    23751640.180    93206496.410          50.000  
E15  23594772.620   123991331.934          50.000    23594777.880    92590916.742          50.000  
E21  24990542.980   131326165.320          50.000    24990547.680    98068228.766          50.000  
E27  23267736.420   122272753.445          50.000    23267740.720    91307563.309          50.000  
E30  25240647.280   132640457.039          50.000    25240653.060    99049675.063          50.000  
> 2020  5 21 21 25 39.0000000  0 13       0.000000000000
G 2  20864757.320   109645069.379          50.000                                                  
G 5  23606521.960   124053076.262          50.000                                                  
G 6  21909241.880   115133789.742          50.000    21909244.880    85976530.488          50.000  
G12  20280146.820   106572889.492          50.000                                                  
G19  23634076.200   124197911.574          50.000                                                  
G24  22568683.780   118599167.824          50.000    22568687.140    88564308.051          50.000  
G25  21775391.520   114430392.117          50.000    21775394.240    85451265.129          50.000  
G29  23796573.560   125051806.980          50.000                                                  
E13  23751414.760   124814508.348          50.000    23751418.920    93205628.133          50.000  
E15  23595036.360   123992717.930          50.000    23595041.640    92591951.734          50.000  
E21  24990167.680   131324193.078          50.000    24990172.380    98066755.980          50.000  
E27  23267859.920   122273402.422          50.000    23267864.220    91308047.930          50.000  
E30  25241156.480   132643132.883          50.000    25241162.260    99051673.250          50.000  
> 2020  5 21 21 25 40.0000000  0 13       0.000000000000
G 2  20864904.740   109645844.141          50.000                                                  
G 5  23605913.300   124049877.730          50.000                                                  
G 6  21909718.440   115136294.078          50.000    21909721.440    85978400.609          50.000  
G12  20279949.400   106571852.016          50.000                                                  
G19  23634606.740   124200699.527          50.000                                                  
G24  22569205.520   118601909.539          50.000    22569208.880    88566355.434          50.000  
G25  21774899.780   114427808.000          50.000    21774902.500    85449335.430          50.000  
G29  23796109.860   125049370.266          50.000                                                  
E13  23751193.560   124813345.945          50.000    23751197.720    93204760.102          50.000  
E15  23595300.160   123994104.180          50.000    23595305.420    92592986.918          50.000  
E21  24989792.420   131322221.086          50.000    24989797.120    98065283.387          50.000  
E27  23267983.500   122274051.809          50.000    23267987.780    91308532.855          50.000  
E30  25241665.700   132645808.918          50.000    25241671.500    99053671.582          50.000  
> 2020  5 21 21 25 41.0000000  0 13       0.000000000000
G 2  20865052.280   109646619.383          50.000                                                  
G 5  23605304.660   124046679.293          50.000                                                  
G 6  21910195.080   115138798.793          50.000    21910198.060    85980271.012          50.000  
G12  20279752.060   106570814.992          50.000                                                  
G19  23635137.280   124203487.512          50.000                                                  
G24  22569727.300   118604651.547          50.000    22569730.660    88568403.035          50.000  
G25  21774408.100   114425224.191          50.000    21774410.800    85447405.965          50.000  
G29  23795646.200   125046933.672          50.000                                                  
E13  23750972.420   124812183.871          50.000    23750976.600    93203892.316          50.000  
E15  23595564.000   123995490.664          50.000    23595569.260    92594022.273          50.000  
E21  24989417.200   131320249.332          50.000    24989421.920    98063810.969          50.000  
E27  23268107.140   122274701.590          50.000    23268111.440    91309018.078          50.000  
E30  25242174.980   132648485.148          50.000    25242180.780    99055670.063          50.000  
> 2020  5 21 21 25 42.0000000  0 13       0.000000000000
G 2  20865199.880   109647395.094          50.000                                                  
G 5  23604696.020   124043480.969          50.000                                                  
G 6  21910671.780   115141303.887          50.000    21910674.760    85982141.699          50.000  
G12  20279554.800   106569778.414          50.000                                                  
G19  23635667.820   124206275.527          50.000                                                  
G24  22570249.140   118607393.871          50.000    22570252.520    88570450.875          50.000  
G25  21773916.460   114422640.633          50.000    21773919.180    85445476.688          50.000  
G29  23795182.560   125044497.211          50.000                                                  
E13  23750751.340   124811022.125          50.000    23750755.520    93203024.773          50.000  
E15  23595827.880   123996877.387          50.000    23595833.160    92595057.813          50.000  
E21  24989042.040   131318277.813          50.000    24989046.740    98062338.727          50.000  
E27  23268230.880   122275351.773          50.000    23268235.160    91309503.602          50.000  
E30  25242684.280   132651161.574          50.000    25242690.080    99057668.688          50.000  
> 2020  5 21 21 25 43.0000000  0 13       0.000000000000
G 2  20865347.580   109648171.277          50.000                                                  
G 5  23604087.420   124040282.766          50.000                                                  
G 6  21911148.560   115143809.367          50.000    21911151.540    85984012.672          50.000  
G12  20279357.640   106568742.289          50.000                                                  
G19  23636198.360   124209063.582          50.000                                                  
G24  22570771.040   118610136.469          50.000    22570774.420    88572498.918          50.000  
G25  21773424.880   114420057.367          50.000    21773427.600    85443547.625          50.000  
G29  23794718.940   125042060.867          50.000                                                  
E13  23750530.340   124809860.695          50.000    23750534.500    93202157.469          50.000  
E15  23596091.820   123998264.363          50.000    23596097.080    92596093.539          50.000  
E21  24988666.920   131316306.551          50.000    24988671.620    98060866.676          50.000  
E27  23268354.680   122276002.363          50.000    23268358.960    91309989.426          50.000  
E30  25243193.620   132653838.188          50.000    25243199.420    99059667.449          50.000  
> 2020  5 21 21 25 44.0000000  0 13       0.000000000000
G 2  20865495.380   109648947.938          50.000                                                  
G 5  23603478.840   124037084.664          50.000                                                  
G 6  21911625.400   115146315.227          50.000    21911628.400    85985883.930          50.000  
G12  20279160.560   106567706.617          50.000                                                  
G19  23636728.920   124211851.660          50.000                                                  
G24  22571293.000   118612879.367          50.000    22571296.380    88574547.184          50.000  
G25  21772933.360   114417474.363          50.000    21772936.060    85441618.758          50.000  
G29  23794255.340   125039624.656          50.000                                                  
E13  23750309.380   124808699.609          50.000    23750313.560    93201290.422          50.000  
E15  23596355.800   123999651.586          50.000    23596361.080    92597129.445          50.000  
E21  24988291.840   131314335.523          50.000    24988296.560    98059394.805          50.000  
E27  23268478.560   122276653.363          50.000    23268482.860    91310475.559          50.000  
E30  25243703.000   132656514.996          50.000    25243708.800    99061666.359          50.000  
> 2020  5 21 21 25 45.0000000  0 13       0.000000000000
G 2  20865643.260   109649725.070          50.000                                                  
G 5  23602870.280   124033886.664          50.000                                                  
G 6  21912102.340   115148821.473          50.000    21912105.320    85987755.477          50.000  
G12  20278963.560   106566671.383          50.000                                                  
G19  23637259.480   124214639.785          50.000                                                  
G24  22571815.020   118615622.555          50.000    22571818.380    88576595.672          50.000  
G25  21772441.880   114414891.645          50.000    21772444.580    85439690.105          50.000  
G29  23793791.760   125037188.555          50.000                                                  
E13  23750088.500   124807538.848          50.000    23750092.680    93200423.613          50.000  
E15  23596619.820   124001039.051          50.000    23596625.100    92598165.535          50.000  
E21  24987916.820   131312364.746          50.000    24987921.520    98057923.117          50.000  
E27  23268602.520   122277304.750          50.000    23268606.800    91310961.980          50.000  
E30  25244212.420   132659191.992          50.000    25244218.220    99063665.410          50.000  
> 2020  5 21 21 25 46.0000000  0 13       0.000000000000
G 2  20865791.240   109650502.672          50.000                                                  
G 5  23602261.740   124030688.773          50.000                                                  
G 6  21912579.320   115151328.082          50.000    21912582.320    85989627.293          50.000  
G12  20278766.640   106565636.598          50.000                                                  
G19  23637790.060   124217427.941          50.000                                                  
G24  22572337.080   118618366.059          50.000    22572340.460    88578644.391          50.000  
G25  21771950.460   114412309.203          50.000    21771953.160    85437761.660          50.000  
G29  23793328.200   125034752.578          50.000                                                  
E13  23749867.680   124806378.410          50.000    23749871.860    93199557.051          50.000  
E15  23596883.900   124002426.766          50.000    23596889.180    92599201.813          50.000  
E21  24987541.840   131310394.207          50.000    24987546.540    98056451.605          50.000  
E27  23268726.540   122277956.547          50.000    23268730.840    91311448.707          50.000  
E30  25244721.880   132661869.180          50.000    25244727.680    99065664.602          50.000  
> 2020  5 21 21 25 47.0000000  0 13       0.000000000000
G 2  20865939.300   109651280.758          50.000                                                  
G 5  23601653.240   124027490.992          50.000                                                  
G 6  21913056.400   115153835.078          50.000    21913059.380    85991499.402          50.000  
G12  20278569.820   106564602.273          50.000                                                  
G19  23638320.640   124220216.125          50.000                                                  
G24  22572859.220   118621109.855          50.000    22572862.580    88580693.324          50.000  
G25  21771459.080   114409727.027          50.000    21771461.800    85435833.414          50.000  
G29  23792864.680   125032316.730          50.000                                                  
E13  23749646.920   124805218.313          50.000    23749651.100    93198690.742          50.000  
E15  23597148.020   124003814.727          50.000    23597153.300    92600238.273          50.000  
E21  24987166.900   131308423.914          50.000    24987171.620    98054980.281          50.000  
E27  23268850.660   122278608.750          50.000    23268854.960    91311935.734          50.000  
E30  25245231.360   132664546.566          50.000    25245237.180    99067663.945          50.000  
> 2020  5 21 21 25 48.0000000  0 13       0.000000000000
G 2  20866087.460   109652059.313          50.000                                                  
G 5  23601044.740   124024293.328          50.000                                                  
G 6  21913533.520   115156342.453          50.000    21913536.520    85993371.793          50.000  
G12  20278373.080   106563568.383          50.000                                                  
G19  23638851.220   124223004.340          50.000                                                  
G24  22573381.400   118623853.945          50.000    22573384.780    88582742.484          50.000  
G25  21770967.760   114407145.137          50.000    21770970.480    85433905.379          50.000  
G29  23792401.180   125029881.008          50.000                                                  
E13  23749426.220   124804058.531          50.000    23749430.400    93197824.664          50.000  
E15  23597412.180   124005202.922          50.000    23597417.460    92601274.906          50.000  
E21  24986792.020   131306453.871          50.000    24986796.720    98053509.145          50.000  
E27  23268974.840   122279261.355          50.000    23268979.140    91312423.066          50.000  
E30  25245740.900   132667224.148          50.000    25245746.700    99069663.430          50.000  
