     3.03           OBSERVATION DATA    M: Mixed            RINEX VERSION / TYPE
sbp2rinex v2.2 (RTKL                    20210504 171523 UTC PGM / RUN BY / DATE 
log: 2020-05-15-US-MTV-2.sbp                                COMMENT             
format: Swift Navigation SBP, option: CONVBASE,EPHALL,OBSALLCOMMENT             
                                                            MARKER NAME         
                                                            MARKER NUMBER       
                                                            MARKER TYPE         
                                                            OBSERVER / AGENCY   
                                                            REC # / TYPE / VERS 
                                                            ANT # / TYPE        
 -2744179.0502 -4320042.2250  3793481.6346                  APPROX POSITION XYZ 
        0.0000        0.0000        0.0000                  ANTENNA: DELTA H/E/N
G    6 C1C L1C S1C C5I L5I S5I                              SYS / # / OBS TYPES 
E    6 C1B L1B S1B C5I L5I S5I                              SYS / # / OBS TYPES 
  2020     5    15    23    56   13.0000000     GPS         TIME OF FIRST OBS   
  2020     5    16     0    41   35.0000000     GPS         TIME OF LAST OBS    
G                                                           SYS / PHASE SHIFT   
E                                                           SYS / PHASE SHIFT   
  0                                                         GLONASS SLOT / FRQ #
 C1C    0.000 C1P    0.000 C2C    0.000 C2P    0.000        GLONASS COD/PHS/BIS 
                                                            END OF HEADER       
> 2020  5 15 23 56 13.0000000  0 13       0.000000000000
G 2  23649580.740   124279412.469          50.000                                                  
G 5  21095255.980   110856316.590          50.000                                                  
G12  21694415.420   114004915.227          50.000                                                  
G18  22633593.700   118940335.000          50.000                                                  
G21  23246178.000   122159459.105          50.000                                                  
G25  20572979.200   108111680.039          50.000    20572981.420    80732748.512          50.000  
G29  21007533.700   110395332.438          50.000                                                  
G31  24490429.640   128698077.715          50.000                                                  
E 3  27667331.820   145392752.445          50.000    27667338.740   108572489.086          50.000  
E 5  27090457.540   142361275.098          50.000    27090463.140   106308728.961          50.000  
E15  23717217.800   124634791.188          50.000    23717222.680    93071423.574          50.000  
E27  24513048.740   128816917.457          50.000    24513052.760    96194440.035          50.000  
E30  23325728.460   122577509.875          50.000    23325732.760    91535142.234          50.000  
> 2020  5 15 23 56 14.0000000  0 13       0.000000000000
G 2  23650053.140   124281894.934          50.000                                                  
G 5  21095350.680   110856814.199          50.000                                                  
G12  21694977.020   114007866.477          50.000                                                  
G18  22633118.200   118937836.234          50.000                                                  
G21  23245770.300   122157316.609          50.000                                                  
G25  20573239.500   108113047.910          50.000    20573241.720    80733769.973          50.000  
G29  21007274.960   110393972.762          50.000                                                  
G31  24490537.480   128698644.488          50.000                                                  
E 3  27666842.020   145390178.461          50.000    27666848.920   108570566.957          50.000  
E 5  27090177.420   142359803.098          50.000    27090183.020   106307629.738          50.000  
E15  23717107.320   124634210.605          50.000    23717112.180    93070990.023          50.000  
E27  24512936.400   128816327.152          50.000    24512940.420    96193999.223          50.000  
E30  23326143.940   122579693.305          50.000    23326148.240    91536772.719          50.000  
> 2020  5 15 23 56 15.0000000  0 13       0.000000000000
G 2  23650525.540   124284377.414          50.000                                                  
G 5  21095445.500   110857312.492          50.000                                                  
G12  21695538.720   114010818.137          50.000                                                  
G18  22632642.740   118935337.750          50.000                                                  
G21  23245362.660   122155174.387          50.000                                                  
G25  20573499.900   108114416.383          50.000    20573502.120    80734791.887          50.000  
G29  21007016.260   110392613.285          50.000                                                  
G31  24490645.440   128699211.785          50.000                                                  
E 3  27666352.200   145387604.457          50.000    27666359.100   108568644.813          50.000  
E 5  27089897.360   142358331.422          50.000    27089902.980   106306530.758          50.000  
E15  23716996.860   124633630.188          50.000    23717001.740    93070556.594          50.000  
E27  24512824.160   128815737.332          50.000    24512828.200    96193558.773          50.000  
E30  23326559.500   122581877.070          50.000    23326563.800    91538403.453          50.000  
> 2020  5 15 23 56 16.0000000  0 13       0.000000000000
G 2  23650997.940   124286859.910          50.000                                                  
G 5  21095540.460   110857811.480          50.000                                                  
G12  21696100.480   114013770.199          50.000                                                  
G18  22632167.360   118932839.547          50.000                                                  
G21  23244955.060   122153032.426          50.000                                                  
G25  20573760.440   108115785.465          50.000    20573762.660    80735814.250          50.000  
G29  21006757.600   110391254.012          50.000                                                  
G31  24490753.500   128699779.602          50.000                                                  
E 3  27665862.380   145385030.430          50.000    27665869.280   108566722.648          50.000  
E 5  27089617.380   142356860.063          50.000    27089622.980   106305432.020          50.000  
E15  23716886.460   124633049.934          50.000    23716891.320    93070123.285          50.000  
E27  24512712.020   128815147.980          50.000    24512716.040    96193118.672          50.000  
E30  23326975.120   122584061.195          50.000    23326979.420    91540034.453          50.000  
> 2020  5 15 23 56 17.0000000  0 13       0.000000000000
G 2  23651470.360   124289342.422          50.000                                                  
G 5  21095635.540   110858311.141          50.000                                                  
G12  21696662.300   114016722.660          50.000                                                  
G18  22631692.020   118930341.629          50.000                                                  
G21  23244547.500   122150890.734          50.000                                                  
G25  20574021.080   108117155.160          50.000    20574023.300    80736837.074          50.000  
G29  21006498.980   110389894.969          50.000                                                  
G31  24490861.640   128700347.941          50.000                                                  
E 3  27665372.540   145382456.367          50.000    27665379.460   108564800.461          50.000  
E 5  27089337.460   142355389.035          50.000    27089343.060   106304333.523          50.000  
E15  23716776.060   124632469.836          50.000    23716780.940    93069690.102          50.000  
E27  24512599.960   128814559.094          50.000    24512603.980    96192678.918          50.000  
E30  23327390.820   122586245.648          50.000    23327395.120    91541665.699          50.000  
> 2020  5 15 23 56 18.0000000  0 13       0.000000000000
G 2  23651942.760   124291824.941          50.000                                                  
G 5  21095730.760   110858811.492          50.000                                                  
G12  21697224.220   114019675.551          50.000                                                  
G18  22631216.740   118927844.000          50.000                                                  
G21  23244140.000   122148749.316          50.000                                                  
G25  20574281.840   108118525.480          50.000    20574284.060    80737860.367          50.000  
G29  21006240.400   110388536.137          50.000                                                  
G31  24490969.900   128700916.801          50.000                                                  
E 3  27664882.700   145379882.273          50.000    27664889.620   108562878.250          50.000  
E 5  27089057.580   142353918.313          50.000    27089063.180   106303235.258          50.000  
E15  23716665.700   124631889.906          50.000    23716670.580    93069257.035          50.000  
E27  24512487.980   128813970.684          50.000    24512492.000    96192239.523          50.000  
E30  23327806.560   122588430.441          50.000    23327810.860    91543297.199          50.000  
> 2020  5 15 23 56 19.0000000  0 13       0.000000000000
G 2  23652415.180   124294307.480          50.000                                                  
G 5  21095826.100   110859312.535          50.000                                                  
G12  21697786.220   114022628.832          50.000                                                  
G18  22630741.500   118925346.645          50.000                                                  
G21  23243732.540   122146608.148          50.000                                                  
G25  20574542.720   108119896.410          50.000    20574544.940    80738884.113          50.000  
G29  21005981.860   110387177.512          50.000                                                  
G31  24491078.240   128701486.176          50.000                                                  
E 3  27664392.860   145377308.152          50.000    27664399.780   108560956.020          50.000  
E 5  27088777.780   142352447.930          50.000    27088783.380   106302137.246          50.000  
E15  23716555.380   124631310.133          50.000    23716560.240    93068824.086          50.000  
E27  24512376.100   128813382.746          50.000    24512380.120    96191800.477          50.000  
E30  23328222.380   122590615.574          50.000    23328226.680    91544928.953          50.000  
> 2020  5 15 23 56 20.0000000  0 13       0.000000000000
G 2  23652887.580   124296790.027          50.000                                                  
G 5  21095921.580   110859814.270          50.000                                                  
G12  21698348.280   114025582.512          50.000                                                  
G18  22630266.320   118922849.574          50.000                                                  
G21  23243325.140   122144467.254          50.000                                                  
G25  20574803.720   108121267.941          50.000    20574805.940    80739908.305          50.000  
G29  21005723.380   110385819.102          50.000                                                  
G31  24491186.700   128702056.070          50.000                                                  
E 3  27663903.020   145374733.996          50.000    27663909.940   108559033.762          50.000  
E 5  27088498.020   142350977.840          50.000    27088503.640   106301039.449          50.000  
E15  23716445.080   124630730.520          50.000    23716449.960    93068391.258          50.000  
E27  24512264.300   128812795.281          50.000    24512268.340    96191361.789          50.000  
E30  23328638.260   122592801.043          50.000    23328642.560    91546560.961          50.000  
> 2020  5 15 23 56 21.0000000  0 13       0.000000000000
G 2  23653360.000   124299272.609          50.000                                                  
G 5  21096017.180   110860316.691          50.000                                                  
G12  21698910.420   114028536.602          50.000                                                  
G18  22629791.200   118920352.793          50.000                                                  
G21  23242917.800   122142326.621          50.000                                                  
G25  20575064.820   108122640.086          50.000    20575067.040    80740932.957          50.000  
G29  21005464.920   110384460.922          50.000                                                  
G31  24491295.240   128702626.480          50.000                                                  
E 3  27663413.180   145372159.813          50.000    27663420.080   108557111.480          50.000  
E 5  27088218.340   142349508.078          50.000    27088223.940   106299941.902          50.000  
E15  23716334.820   124630151.063          50.000    23716339.680    93067958.547          50.000  
E27  24512152.600   128812208.289          50.000    24512156.640    96190923.449          50.000  
E30  23329054.220   122594986.859          50.000    23329058.520    91548193.227          50.000  
> 2020  5 15 23 56 22.0000000  0 13       0.000000000000
G 2  23653832.420   124301755.188          50.000                                                  
G 5  21096112.920   110860819.797          50.000                                                  
G12  21699472.660   114031491.094          50.000                                                  
G18  22629316.140   118917856.281          50.000                                                  
G21  23242510.500   122140186.242          50.000                                                  
G25  20575326.060   108124012.844          50.000    20575328.280    80741958.070          50.000  
G29  21005206.500   110383102.938          50.000                                                  
G31  24491403.880   128703197.406          50.000                                                  
E 3  27662923.320   145369585.598          50.000    27662930.220   108555189.180          50.000  
E 5  27087938.720   142348038.637          50.000    27087944.320   106298844.590          50.000  
E15  23716224.580   124629571.770          50.000    23716229.440    93067525.957          50.000  
E27  24512041.000   128811621.770          50.000    24512045.020    96190485.465          50.000  
E30  23329470.220   122597173.008          50.000    23329474.520    91549825.738          50.000  
> 2020  5 15 23 56 23.0000000  0 13       0.000000000000
G 2  23654304.860   124304237.789          50.000                                                  
G 5  21096208.780   110861323.574          50.000                                                  
G12  21700034.940   114034445.988          50.000                                                  
G18  22628841.120   118915360.066          50.000                                                  
G21  23242103.260   122138046.148          50.000                                                  
G25  20575587.400   108125386.195          50.000    20575589.620    80742983.625          50.000  
G29  21004948.140   110381745.176          50.000                                                  
G31  24491512.620   128703768.855          50.000                                                  
E 3  27662433.440   145367011.348          50.000    27662440.360   108553266.852          50.000  
E 5  27087659.140   142346569.500          50.000    27087664.760   106297747.512          50.000  
E15  23716114.380   124628992.633          50.000    23716119.240    93067093.488          50.000  
E27  24511929.480   128811035.723          50.000    24511933.500    96190047.832          50.000  
E30  23329886.300   122599359.500          50.000    23329890.600    91551458.508          50.000  
> 2020  5 15 23 56 24.0000000  0 13       0.000000000000
G 2  23654777.280   124306720.406          50.000                                                  
G 5  21096304.780   110861828.051          50.000                                                  
G12  21700597.320   114037401.293          50.000                                                  
G18  22628366.160   118912864.129          50.000                                                  
G21  23241696.060   122135906.301          50.000                                                  
G25  20575848.860   108126760.176          50.000    20575851.080    80744009.648          50.000  
G29  21004689.800   110380387.637          50.000                                                  
G31  24491621.460   128704340.824          50.000                                                  
E 3  27661943.580   145364437.074          50.000    27661950.480   108551344.508          50.000  
E 5  27087379.640   142345100.699          50.000    27087385.240   106296650.680          50.000  
E15  23716004.200   124628413.656          50.000    23716009.060    93066661.133          50.000  
E27  24511818.040   128810450.152          50.000    24511822.080    96189610.555          50.000  
E30  23330302.440   122601546.359          50.000    23330306.740    91553091.551          50.000  
> 2020  5 15 23 56 25.0000000  0 13       0.000000000000
G 2  23655249.720   124309203.039          50.000                                                  
G 5  21096400.920   110862333.215          50.000                                                  
G12  21701159.780   114040356.992          50.000                                                  
G18  22627891.240   118910368.469          50.000                                                  
G21  23241288.900   122133766.727          50.000                                                  
G25  20576110.420   108128134.758          50.000    20576112.640    80745036.121          50.000  
G29  21004431.500   110379030.301          50.000                                                  
G31  24491730.400   128704913.305          50.000                                                  
E 3  27661453.700   145361862.773          50.000    27661460.620   108549422.141          50.000  
E 5  27087100.200   142343632.207          50.000    27087105.800   106295554.078          50.000  
E15  23715894.060   124627834.844          50.000    23715898.920    93066228.902          50.000  
E27  24511706.700   128809865.055          50.000    24511710.740    96189173.633          50.000  
E30  23330718.660   122603733.520          50.000    23330722.960    91554724.816          50.000  
> 2020  5 15 23 56 26.0000000  0 13       0.000000000000
G 2  23655722.140   124311685.688          50.000                                                  
G 5  21096497.180   110862839.063          50.000                                                  
G12  21701722.300   114043313.098          50.000                                                  
G18  22627416.400   118907873.102          50.000                                                  
G21  23240881.800   122131627.414          50.000                                                  
G25  20576372.120   108129509.965          50.000    20576374.340    80746063.063          50.000  
G29  21004173.260   110377673.195          50.000                                                  
G31  24491839.440   128705486.316          50.000                                                  
E 3  27660963.820   145359288.441          50.000    27660970.740   108547499.750          50.000  
E 5  27086820.820   142342164.039          50.000    27086826.420   106294457.723          50.000  
E15  23715783.940   124627256.180          50.000    23715788.800    93065796.785          50.000  
E27  24511595.460   128809280.410          50.000    24511599.480    96188737.047          50.000  
E30  23331134.920   122605921.035          50.000    23331139.220    91556358.352          50.000  
> 2020  5 15 23 56 27.0000000  0 13       0.000000000000
G 2  23656194.580   124314168.352          50.000                                                  
G 5  21096593.560   110863345.605          50.000                                                  
G12  21702284.920   114046269.602          50.000                                                  
G18  22626941.600   118905378.020          50.000                                                  
G21  23240474.760   122129488.367          50.000                                                  
G25  20576633.940   108130885.777          50.000    20576636.160    80747090.453          50.000  
G29  21003915.040   110376316.285          50.000                                                  
G31  24491948.580   128706059.832          50.000                                                  
E 3  27660473.940   145356714.078          50.000    27660480.840   108545577.340          50.000  
E 5  27086541.500   142340696.191          50.000    27086547.100   106293361.602          50.000  
E15  23715673.860   124626677.688          50.000    23715678.720    93065364.793          50.000  
E27  24511484.300   128808696.262          50.000    24511488.320    96188300.828          50.000  
E30  23331551.260   122608108.891          50.000    23331555.560    91557992.137          50.000  
> 2020  5 15 23 56 28.0000000  0 13       0.000000000000
G 2  23656667.020   124316651.035          50.000                                                  
G 5  21096690.080   110863852.832          50.000                                                  
G12  21702847.600   114049226.512          50.000                                                  
G18  22626466.840   118902883.211          50.000                                                  
G21  23240067.760   122127349.598          50.000                                                  
G25  20576895.860   108132262.207          50.000    20576898.080    80748118.309          50.000  
G29  21003656.880   110374959.598          50.000                                                  
G31  24492057.820   128706633.875          50.000                                                  
E 3  27659984.040   145354139.680          50.000    27659990.960   108543654.902          50.000  
E 5  27086262.240   142339228.664          50.000    27086267.840   106292265.719          50.000  
E15  23715563.800   124626099.355          50.000    23715568.660    93064932.922          50.000  
E27  24511373.220   128808112.574          50.000    24511377.240    96187864.961          50.000  
E30  23331967.660   122610297.090          50.000    23331971.960    91559626.184          50.000  
> 2020  5 15 23 56 29.0000000  0 13       0.000000000000
G 2  23657139.460   124319133.723          50.000                                                  
G 5  21096786.740   110864360.750          50.000                                                  
G12  21703410.360   114052183.832          50.000                                                  
G18  22625992.160   118900388.688          50.000                                                  
G21  23239660.820   122125211.086          50.000                                                  
G25  20577157.900   108133639.238          50.000    20577160.120    80749146.609          50.000  
G29  21003398.760   110373603.133          50.000                                                  
G31  24492167.160   128707208.434          50.000                                                  
E 3  27659494.140   145351565.258          50.000    27659501.060   108541732.445          50.000  
E 5  27085983.040   142337761.457          50.000    27085988.640   106291170.082          50.000  
E15  23715453.780   124625521.180          50.000    23715458.640    93064501.168          50.000  
E27  24511262.240   128807529.371          50.000    24511266.260    96187429.449          50.000  
E30  23332384.120   122612485.613          50.000    23332388.420    91561260.469          50.000  
> 2020  5 15 23 56 30.0000000  0 13       0.000000000000
G 2  23657611.900   124321616.434          50.000                                                  
G 5  21096883.520   110864869.352          50.000                                                  
G12  21703973.180   114055141.551          50.000                                                  
G18  22625517.520   118897894.449          50.000                                                  
G21  23239253.920   122123072.844          50.000                                                  
G25  20577420.060   108135016.887          50.000    20577422.280    80750175.371          50.000  
G29  21003140.660   110372246.875          50.000                                                  
G31  24492276.600   128707783.516          50.000                                                  
E 3  27659004.240   145348990.805          50.000    27659011.160   108539809.965          50.000  
E 5  27085703.900   142336294.570          50.000    27085709.500   106290074.676          50.000  
E15  23715343.780   124624943.164          50.000    23715348.660    93064069.531          50.000  
E27  24511151.340   128806946.629          50.000    24511155.380    96186994.289          50.000  
E30  23332800.660   122614674.492          50.000    23332804.960    91562895.020          50.000  
> 2020  5 15 23 56 31.0000000  0 13       0.000000000000
G 2  23658084.340   124324099.141          50.000                                                  
G 5  21096980.440   110865378.637          50.000                                                  
G12  21704536.100   114058099.676          50.000                                                  
G18  22625042.940   118895400.500          50.000                                                  
G21  23238847.080   122120934.863          50.000                                                  
G25  20577682.320   108136395.137          50.000    20577684.540    80751204.582          50.000  
G29  21002882.620   110370890.840          50.000                                                  
G31  24492386.120   128708359.109          50.000                                                  
E 3  27658514.340   145346416.324          50.000    27658521.240   108537887.465          50.000  
E 5  27085424.820   142334827.996          50.000    27085430.420   106288979.512          50.000  
E15  23715233.820   124624365.309          50.000    23715238.700    93063638.016          50.000  
E27  24511040.540   128806364.367          50.000    24511044.580    96186559.480          50.000  
E30  23333217.240   122616863.703          50.000    23333221.540    91564529.820          50.000  
> 2020  5 15 23 56 32.0000000  0 13       0.000000000000
G 2  23658556.800   124326581.867          50.000                                                  
G 5  21097077.480   110865888.613          50.000                                                  
G12  21705099.100   114061058.203          50.000                                                  
G18  22624568.400   118892906.824          50.000                                                  
G21  23238440.280   122118797.152          50.000                                                  
G25  20577944.720   108137774.004          50.000    20577946.940    80752234.258          50.000  
G29  21002624.620   110369535.012          50.000                                                  
G31  24492495.760   128708935.230          50.000                                                  
E 3  27658024.420   145343841.816          50.000    27658031.340   108535964.945          50.000  
E 5  27085145.800   142333361.738          50.000    27085151.400   106287884.578          50.000  
E15  23715123.880   124623787.617          50.000    23715128.760    93063206.625          50.000  
E27  24510929.840   128805782.582          50.000    24510933.860    96186125.031          50.000  
E30  23333633.900   122619053.250          50.000    23333638.200    91566164.871          50.000  
> 2020  5 15 23 56 33.0000000  0 13       0.000000000000
G 2  23659029.240   124329064.609          50.000                                                  
G 5  21097174.660   110866399.277          50.000                                                  
G12  21705662.160   114064017.137          50.000                                                  
G18  22624093.920   118890413.441          50.000                                                  
G21  23238033.540   122116659.703          50.000                                                  
G25  20578207.220   108139153.477          50.000    20578209.440    80753264.383          50.000  
G29  21002366.640   110368179.406          50.000                                                  
G31  24492605.480   128709511.859          50.000                                                  
E 3  27657534.500   145341267.270          50.000    27657541.400   108534042.395          50.000  
E 5  27084866.840   142331895.805          50.000    27084872.440   106286789.887          50.000  
E15  23715013.980   124623210.078          50.000    23715018.860    93062775.348          50.000  
E27  24510819.220   128805201.270          50.000    24510823.240    96185690.934          50.000  
E30  23334050.620   122621243.152          50.000    23334054.940    91567800.188          50.000  
> 2020  5 15 23 56 34.0000000  0 13       0.000000000000
G 2  23659501.700   124331547.355          50.000                                                  
G 5  21097271.960   110866910.629          50.000                                                  
G12  21706225.300   114066976.469          50.000                                                  
G18  22623619.500   118887920.336          50.000                                                  
G21  23237626.840   122114522.535          50.000                                                  
G25  20578469.840   108140533.566          50.000    20578472.060    80754294.969          50.000  
G29  21002108.720   110366824.012          50.000                                                  
G31  24492715.320   128710089.008          50.000                                                  
E 3  27657044.580   145338692.707          50.000    27657051.480   108532119.832          50.000  
E 5  27084587.940   142330430.199          50.000    27084593.540   106285695.441          50.000  
E15  23714904.120   124622632.707          50.000    23714908.980    93062344.191          50.000  
E27  24510708.680   128804620.426          50.000    24510712.720    96185257.184          50.000  
E30  23334467.420   122623433.383          50.000    23334471.720    91569435.746          50.000  
> 2020  5 15 23 56 35.0000000  0 13       0.000000000000
G 2  23659974.160   124334030.129          50.000                                                  
G 5  21097369.400   110867422.660          50.000                                                  
G12  21706788.520   114069936.215          50.000                                                  
G18  22623145.140   118885427.520          50.000                                                  
G21  23237220.200   122112385.621          50.000                                                  
G25  20578732.580   108141914.254          50.000    20578734.800    80755326.000          50.000  
G29  21001850.840   110365468.844          50.000                                                  
G31  24492825.240   128710666.676          50.000                                                  
E 3  27656554.640   145336118.117          50.000    27656561.560   108530197.250          50.000  
E 5  27084309.100   142328964.906          50.000    27084314.700   106284601.230          50.000  
E15  23714794.280   124622055.488          50.000    23714799.140    93061913.152          50.000  
E27  24510598.240   128804040.059          50.000    24510602.280    96184823.797          50.000  
E30  23334884.260   122625623.949          50.000    23334888.580    91571071.559          50.000  
> 2020  5 15 23 56 36.0000000  0 13       0.000000000000
G 2  23660446.620   124336512.906          50.000                                                  
G 5  21097466.980   110867935.379          50.000                                                  
G12  21707351.820   114072896.359          50.000                                                  
G18  22622670.820   118882934.980          50.000                                                  
G21  23236813.620   122110248.977          50.000                                                  
G25  20578995.440   108143295.563          50.000    20578997.660    80756357.496          50.000  
G29  21001593.000   110364113.883          50.000                                                  
G31  24492935.260   128711244.871          50.000                                                  
E 3  27656064.720   145333543.492          50.000    27656071.620   108528274.641          50.000  
E 5  27084030.320   142327499.934          50.000    27084035.920   106283507.258          50.000  
E15  23714684.460   124621478.434          50.000    23714689.340    93061482.234          50.000  
E27  24510487.900   128803460.164          50.000    24510491.920    96184390.758          50.000  
E30  23335301.180   122627814.863          50.000    23335305.480    91572707.629          50.000  
> 2020  5 15 23 56 37.0000000  0 13       0.000000000000
G 2  23660919.080   124338995.699          50.000                                                  
G 5  21097564.660   110868448.785          50.000                                                  
G12  21707915.200   114075856.902          50.000                                                  
G18  22622196.560   118880442.727          50.000                                                  
G21  23236407.080   122108112.594          50.000                                                  
G25  20579258.400   108144677.480          50.000    20579260.620    80757389.449          50.000  
G29  21001335.200   110362759.133          50.000                                                  
G31  24493045.400   128711823.578          50.000                                                  
E 3  27655574.780   145330968.836          50.000    27655581.680   108526352.012          50.000  
E 5  27083751.600   142326035.273          50.000    27083757.220   106282413.520          50.000  
E15  23714574.680   124620901.539          50.000    23714579.560    93061051.434          50.000  
E27  24510377.640   128802880.746          50.000    24510381.660    96183958.074          50.000  
E30  23335718.160   122630006.109          50.000    23335722.460    91574343.949          50.000  
> 2020  5 15 23 56 38.0000000  0 13       0.000000000000
G 2  23661391.540   124341478.520          50.000                                                  
G 5  21097662.500   110868962.875          50.000                                                  
G12  21708478.640   114078817.852          50.000                                                  
G18  22621722.360   118877950.762          50.000                                                  
G21  23236000.580   122105976.488          50.000                                                  
G25  20579521.500   108146060.008          50.000    20579523.720    80758421.855          50.000  
G29  21001077.440   110361404.602          50.000                                                  
G31  24493155.620   128712402.805          50.000                                                  
E 3  27655084.820   145328394.152          50.000    27655091.720   108524429.359          50.000  
E 5  27083472.960   142324570.941          50.000    27083478.560   106281320.023          50.000  
E15  23714464.940   124620324.805          50.000    23714469.800    93060620.758          50.000  
E27  24510267.460   128802301.801          50.000    24510271.500    96183525.746          50.000  
E30  23336135.220   122632197.711          50.000    23336139.520    91575980.535          50.000  
> 2020  5 15 23 56 39.0000000  0 13       0.000000000000
G 2  23661864.000   124343961.340          50.000                                                  
G 5  21097760.460   110869477.656          50.000                                                  
G12  21709042.180   114081779.199          50.000                                                  
G18  22621248.200   118875459.074          50.000                                                  
G21  23235594.140   122103840.645          50.000                                                  
G25  20579784.700   108147443.152          50.000    20579786.920    80759454.723          50.000  
G29  21000819.720   110360050.289          50.000                                                  
G31  24493265.940   128712982.551          50.000                                                  
E 3  27654594.880   145325819.438          50.000    27654601.780   108522506.684          50.000  
E 5  27083194.360   142323106.926          50.000    27083199.960   106280226.766          50.000  
E15  23714355.220   124619748.227          50.000    23714360.080    93060190.199          50.000  
E27  24510157.380   128801723.320          50.000    24510161.420    96183093.762          50.000  
E30  23336552.320   122634389.641          50.000    23336556.620    91577617.367          50.000  
> 2020  5 15 23 56 40.0000000  0 13       0.000000000000
G 2  23662336.480   124346444.168          50.000                                                  
G 5  21097858.540   110869993.121          50.000                                                  
G12  21709605.780   114084740.941          50.000                                                  
G18  22620774.100   118872967.672          50.000                                                  
G21  23235187.760   122101705.074          50.000                                                  
G25  20580048.020   108148826.902          50.000    20580050.240    80760488.039          50.000  
G29  21000562.060   110358696.184          50.000                                                  
G31  24493376.360   128713562.801          50.000                                                  
E 3  27654104.920   145323244.703          50.000    27654111.820   108520583.996          50.000  
E 5  27082915.820   142321643.227          50.000    27082921.440   106279133.746          50.000  
E15  23714245.540   124619171.813          50.000    23714250.400    93059759.758          50.000  
E27  24510047.400   128801145.316          50.000    24510051.420    96182662.137          50.000  
E30  23336969.500   122636581.906          50.000    23336973.800    91579254.445          50.000  
> 2020  5 15 23 56 41.0000000  0 13       0.000000000000
G 2  23662808.940   124348927.027          50.000                                                  
G 5  21097956.760   110870509.273          50.000                                                  
G12  21710169.460   114087703.090          50.000                                                  
G18  22620300.060   118870476.547          50.000                                                  
G21  23234781.420   122099569.770          50.000                                                  
G25  20580311.460   108150211.266          50.000    20580313.680    80761521.816          50.000  
G29  21000304.420   110357342.293          50.000                                                  
G31  24493486.880   128714143.574          50.000                                                  
E 3  27653614.960   145320669.934          50.000    27653621.860   108518661.281          50.000  
E 5  27082637.360   142320179.855          50.000    27082642.960   106278040.969          50.000  
E15  23714135.880   124618595.555          50.000    23714140.740    93059329.438          50.000  
E27  24509937.500   128800567.785          50.000    24509941.520    96182230.863          50.000  
E30  23337386.740   122638774.516          50.000    23337391.040    91580891.781          50.000  
> 2020  5 15 23 56 42.0000000  0 13       0.000000000000
G 2  23663281.420   124351409.883          50.000                                                  
G 5  21098055.120   110871026.113          50.000                                                  
G12  21710733.200   114090665.641          50.000                                                  
G18  22619826.060   118867985.711          50.000                                                  
G21  23234375.140   122097434.730          50.000                                                  
G25  20580575.000   108151596.234          50.000    20580577.220    80762556.047          50.000  
G29  21000046.820   110355988.621          50.000                                                  
G31  24493597.500   128714724.871          50.000                                                  
E 3  27653124.980   145318095.129          50.000    27653131.880   108516738.535          50.000  
E 5  27082358.960   142318716.813          50.000    27082364.560   106276948.438          50.000  
E15  23714026.240   124618019.453          50.000    23714031.120    93058899.230          50.000  
E27  24509827.680   128799990.742          50.000    24509831.720    96181799.957          50.000  
E30  23337804.040   122640967.461          50.000    23337808.340    91582529.371          50.000  
> 2020  5 15 23 56 43.0000000  0 13       0.000000000000
G 2  23663753.900   124353892.770          50.000                                                  
G 5  21098153.600   110871543.641          50.000                                                  
G12  21711297.040   114093628.602          50.000                                                  
G18  22619352.120   118865495.164          50.000                                                  
G21  23233968.900   122095299.961          50.000                                                  
G25  20580838.680   108152981.832          50.000    20580840.900    80763590.746          50.000  
G29  20999789.260   110354635.172          50.000                                                  
G31  24493708.200   128715306.688          50.000                                                  
E 3  27652635.000   145315520.313          50.000    27652641.920   108514815.785          50.000  
E 5  27082080.600   142317254.070          50.000    27082086.200   106275856.133          50.000  
E15  23713916.640   124617443.527          50.000    23713921.520    93058469.152          50.000  
E27  24509717.960   128799414.164          50.000    24509722.000    96181369.391          50.000  
E30  23338221.420   122643160.742          50.000    23338225.720    91584167.207          50.000  
> 2020  5 15 23 56 44.0000000  0 13       0.000000000000
G 2  23664226.380   124356375.652          50.000                                                  
G 5  21098252.220   110872061.848          50.000                                                  
G12  21711860.940   114096591.957          50.000                                                  
G18  22618878.240   118863004.891          50.000                                                  
G21  23233562.720   122093165.484          50.000                                                  
G25  20581102.460   108154368.020          50.000    20581104.680    80764625.883          50.000  
G29  20999531.760   110353281.930          50.000                                                  
G31  24493819.020   128715889.020          50.000                                                  
E 3  27652145.020   145312945.457          50.000    27652151.940   108512893.008          50.000  
E 5  27081802.320   142315791.660          50.000    27081807.920   106274764.070          50.000  
E15  23713807.080   124616867.746          50.000    23713811.960    93058039.191          50.000  
E27  24509608.340   128798838.055          50.000    24509612.360    96180939.180          50.000  
E30  23338638.840   122645354.367          50.000    23338643.160    91585805.305          50.000  
> 2020  5 15 23 56 45.0000000  0 13       0.000000000000
G 2  23664698.860   124358858.566          50.000                                                  
G 5  21098350.960   110872580.746          50.000                                                  
G12  21712424.940   114099555.727          50.000                                                  
G18  22618404.420   118860514.914          50.000                                                  
G21  23233156.600   122091031.266          50.000                                                  
G25  20581366.360   108155754.824          50.000    20581368.580    80765661.484          50.000  
G29  20999274.280   110351928.918          50.000                                                  
G31  24493929.940   128716471.867          50.000                                                  
E 3  27651655.040   145310370.578          50.000    27651661.940   108510970.211          50.000  
E 5  27081524.080   142314329.563          50.000    27081529.680   106273672.246          50.000  
E15  23713697.540   124616292.121          50.000    23713702.420    93057609.340          50.000  
E27  24509498.800   128798262.422          50.000    24509502.820    96180509.324          50.000  
E30  23339056.340   122647548.336          50.000    23339060.660    91587443.656          50.000  
> 2020  5 15 23 56 46.0000000  0 13       0.000000000000
G 2  23665171.340   124361341.480          50.000                                                  
G 5  21098449.840   110873100.336          50.000                                                  
G12  21712989.000   114102519.883          50.000                                                  
G18  22617930.640   118858025.207          50.000                                                  
G21  23232750.520   122088897.309          50.000                                                  
G25  20581630.380   108157142.238          50.000    20581632.600    80766697.539          50.000  
G29  20999016.860   110350576.098          50.000                                                  
G31  24494040.940   128717055.230          50.000                                                  
E 3  27651165.060   145307795.672          50.000    27651171.960   108509047.391          50.000  
E 5  27081245.920   142312867.797          50.000    27081251.520   106272580.672          50.000  
E15  23713588.040   124615716.668          50.000    23713592.900    93057179.617          50.000  
E27  24509389.360   128797687.266          50.000    24509393.380    96180079.824          50.000  
E30  23339473.900   122649742.637          50.000    23339478.220    91589082.258          50.000  
> 2020  5 15 23 56 47.0000000  0 13       0.000000000000
G 2  23665643.820   124363824.414          50.000                                                  
G 5  21098548.840   110873620.613          50.000                                                  
G12  21713553.140   114105484.453          50.000                                                  
G18  22617456.920   118855535.797          50.000                                                  
G21  23232344.500   122086763.625          50.000                                                  
G25  20581894.520   108158530.270          50.000    20581896.740    80767734.059          50.000  
G29  20998759.460   110349223.512          50.000                                                  
G31  24494152.060   128717639.117          50.000                                                  
E 3  27650675.060   145305220.730          50.000    27650681.960   108507124.547          50.000  
E 5  27080967.820   142311406.344          50.000    27080973.420   106271489.324          50.000  
E15  23713478.560   124615141.371          50.000    23713483.440    93056750.012          50.000  
E27  24509280.000   128797112.574          50.000    24509284.020    96179650.672          50.000  
E30  23339891.540   122651937.281          50.000    23339895.840    91590721.117          50.000  
> 2020  5 15 23 56 48.0000000  0 13       0.000000000000
G 2  23666116.320   124366307.355          50.000                                                  
G 5  21098647.980   110874141.582          50.000                                                  
G12  21714117.360   114108449.418          50.000                                                  
G18  22616983.260   118853046.664          50.000                                                  
G21  23231938.520   122084630.195          50.000                                                  
G25  20582158.760   108159918.895          50.000    20582160.980    80768771.016          50.000  
G29  20998502.120   110347871.145          50.000                                                  
G31  24494263.260   128718223.516          50.000                                                  
E 3  27650185.060   145302645.770          50.000    27650191.960   108505201.688          50.000  
E 5  27080689.760   142309945.215          50.000    27080695.360   106270398.223          50.000  
E15  23713369.120   124614566.234          50.000    23713373.980    93056320.527          50.000  
E27  24509170.720   128796538.363          50.000    24509174.760    96179221.879          50.000  
E30  23340309.220   122654132.270          50.000    23340313.540    91592360.227          50.000  
> 2020  5 15 23 56 49.0000000  0 13       0.000000000000
G 2  23666588.820   124368790.316          50.000                                                  
G 5  21098747.240   110874663.242          50.000                                                  
G12  21714681.640   114111414.797          50.000                                                  
G18  22616509.640   118850557.813          50.000                                                  
G21  23231532.580   122082497.031          50.000                                                  
G25  20582423.120   108161308.137          50.000    20582425.340    80769808.438          50.000  
G29  20998244.800   110346518.988          50.000                                                  
G31  24494374.580   128718808.434          50.000                                                  
E 3  27649695.060   145300070.770          50.000    27649701.960   108503278.801          50.000  
E 5  27080411.780   142308484.402          50.000    27080417.380   106269307.355          50.000  
E15  23713259.700   124613991.254          50.000    23713264.580    93055891.156          50.000  
E27  24509061.540   128795964.621          50.000    24509065.580    96178793.434          50.000  
E30  23340726.980   122656327.594          50.000    23340731.300    91593999.594          50.000  
> 2020  5 15 23 56 50.0000000  0 13       0.000000000000
G 2  23667061.300   124371273.293          50.000                                                  
G 5  21098846.640   110875185.578          50.000                                                  
G12  21715246.020   114114380.566          50.000                                                  
G18  22616036.080   118848069.246          50.000                                                  
G21  23231126.700   122080364.137          50.000                                                  
G25  20582687.600   108162697.996          50.000    20582689.820    80770846.320          50.000  
G29  20997987.540   110345167.043          50.000                                                  
G31  24494485.980   128719393.863          50.000                                                  
E 3  27649205.040   145297495.746          50.000    27649211.940   108501355.895          50.000  
E 5  27080133.860   142307023.910          50.000    27080139.460   106268216.730          50.000  
E15  23713150.320   124613416.430          50.000    23713155.180    93055461.910          50.000  
E27  24508952.460   128795391.355          50.000    24508956.480    96178365.344          50.000  
E30  23341144.800   122658523.250          50.000    23341149.120    91595639.207          50.000  
> 2020  5 15 23 56 51.0000000  0 13       0.000000000000
G 2  23667533.800   124373756.281          50.000                                                  
G 5  21098946.160   110875708.609          50.000                                                  
G12  21715810.460   114117346.746          50.000                                                  
G18  22615562.580   118845580.961          50.000                                                  
G21  23230720.880   122078231.500          50.000                                                  
G25  20582952.200   108164088.465          50.000    20582954.420    80771884.656          50.000  
G29  20997730.320   110343815.324          50.000                                                  
G31  24494597.480   128719979.813          50.000                                                  
E 3  27648715.020   145294920.699          50.000    27648721.920   108499432.973          50.000  
E 5  27079856.000   142305563.738          50.000    27079861.600   106267126.344          50.000  
E15  23713040.960   124612841.770          50.000    23713045.840    93055032.777          50.000  
E27  24508843.460   128794818.559          50.000    24508847.480    96177937.609          50.000  
E30  23341562.680   122660719.242          50.000    23341567.000    91597279.066          50.000  
> 2020  5 15 23 56 52.0000000  0 13       0.000000000000
G 2  23668006.300   124376239.277          50.000                                                  
G 5  21099045.820   110876232.324          50.000                                                  
G12  21716374.980   114120313.320          50.000                                                  
G18  22615089.120   118843092.965          50.000                                                  
G21  23230315.100   122076099.133          50.000                                                  
G25  20583216.920   108165479.535          50.000    20583219.140    80772923.441          50.000  
G29  20997473.140   110342463.813          50.000                                                  
G31  24494709.080   128720566.285          50.000                                                  
E 3  27648225.000   145292345.617          50.000    27648231.900   108497510.023          50.000  
E 5  27079578.200   142304103.891          50.000    27079583.800   106266036.199          50.000  
E15  23712931.640   124612267.273          50.000    23712936.520    93054603.770          50.000  
E27  24508734.540   128794246.242          50.000    24508738.580    96177510.230          50.000  
E30  23341980.640   122662915.566          50.000    23341984.940    91598919.180          50.000  
> 2020  5 15 23 56 53.0000000  0 13       0.000000000000
G 2  23668478.800   124378722.281          50.000                                                  
G 5  21099145.620   110876756.723          50.000                                                  
G12  21716939.580   114123280.301          50.000                                                  
G18  22614615.720   118840605.246          50.000                                                  
G21  23229909.380   122073967.020          50.000                                                  
G25  20583481.740   108166871.207          50.000    20583483.960    80773962.676          50.000  
G29  20997215.980   110341112.512          50.000                                                  
G31  24494820.780   128721153.266          50.000                                                  
E 3  27647734.980   145289770.520          50.000    27647741.880   108495587.063          50.000  
E 5  27079300.460   142302644.363          50.000    27079306.060   106264946.293          50.000  
E15  23712822.340   124611692.926          50.000    23712827.220    93054174.875          50.000  
E27  24508625.720   128793674.391          50.000    24508629.760    96177083.195          50.000  
E30  23342398.640   122665112.238          50.000    23342402.960    91600559.551          50.000  
> 2020  5 15 23 56 54.0000000  0 13       0.000000000000
G 2  23668951.300   124381205.309          50.000                                                  
G 5  21099245.540   110877281.816          50.000                                                  
G12  21717504.260   114126247.684          50.000                                                  
G18  22614142.380   118838117.813          50.000                                                  
G21  23229503.700   122071835.176          50.000                                                  
G25  20583746.680   108168263.496          50.000    20583748.900    80775002.371          50.000  
G29  20996958.880   110339761.438          50.000                                                  
G31  24494932.580   128721740.770          50.000                                                  
E 3  27647244.940   145287195.391          50.000    27647251.840   108493664.074          50.000  
E 5  27079022.780   142301185.148          50.000    27079028.380   106263856.617          50.000  
E15  23712713.080   124611118.738          50.000    23712717.960    93053746.098          50.000  
E27  24508517.000   128793103.023          50.000    24508521.020    96176656.523          50.000  
E30  23342816.720   122667309.258          50.000    23342821.040    91602200.184          50.000  
> 2020  5 15 23 56 55.0000000  0 13       0.000000000000
G 2  23669423.820   124383688.340          50.000                                                  
G 5  21099345.600   110877807.590          50.000                                                  
G12  21718069.000   114129215.465          50.000                                                  
G18  22613669.100   118835630.664          50.000                                                  
G21  23229098.080   122069703.602          50.000                                                  
G25  20584011.740   108169656.398          50.000    20584013.960    80776042.527          50.000  
G29  20996701.820   110338410.586          50.000                                                  
G31  24495044.480   128722328.797          50.000                                                  
E 3  27646754.900   145284620.230          50.000    27646761.800   108491741.070          50.000  
E 5  27078745.160   142299726.270          50.000    27078750.760   106262767.195          50.000  
E15  23712603.840   124610544.719          50.000    23712608.720    93053317.449          50.000  
E27  24508408.360   128792532.125          50.000    24508412.400    96176230.203          50.000  
E30  23343234.880   122669506.621          50.000    23343239.180    91603841.066          50.000  
> 2020  5 15 23 56 56.0000000  0 13       0.000000000000
G 2  23669896.320   124386171.383          50.000                                                  
G 5  21099445.780   110878334.055          50.000                                                  
G12  21718633.840   114132183.648          50.000                                                  
G18  22613195.860   118833143.801          50.000                                                  
G21  23228692.500   122067572.277          50.000                                                  
G25  20584276.920   108171049.914          50.000    20584279.140    80777083.137          50.000  
G29  20996444.820   110337059.945          50.000                                                  
G31  24495156.480   128722917.328          50.000                                                  
E 3  27646264.860   145282045.043          50.000    27646271.760   108489818.039          50.000  
E 5  27078467.600   142298267.703          50.000    27078473.200   106261678.008          50.000  
E15  23712494.640   124609970.855          50.000    23712499.520    93052888.914          50.000  
E27  24508299.820   128791961.699          50.000    24508303.840    96175804.238          50.000  
E30  23343653.080   122671704.305          50.000    23343657.380    91605482.195          50.000  
> 2020  5 15 23 56 57.0000000  0 13       0.000000000000
G 2  23670368.840   124388654.449          50.000                                                  
G 5  21099546.080   110878861.203          50.000                                                  
G12  21719198.740   114135152.234          50.000                                                  
G18  22612722.680   118830657.219          50.000                                                  
G21  23228286.960   122065441.219          50.000                                                  
G25  20584542.220   108172444.039          50.000    20584544.440    80778124.203          50.000  
G29  20996187.840   110335709.512          50.000                                                  
G31  24495268.560   128723506.383          50.000                                                  
E 3  27645774.820   145279469.820          50.000    27645781.720   108487894.988          50.000  
E 5  27078190.120   142296809.453          50.000    27078195.720   106260589.059          50.000  
E15  23712385.480   124609397.145          50.000    23712390.340    93052460.492          50.000  
E27  24508191.360   128791391.746          50.000    24508195.380    96175378.621          50.000  
E30  23344071.340   122673902.320          50.000    23344075.660    91607123.570          50.000  
> 2020  5 15 23 56 58.0000000  0 13       0.000000000000
G 2  23670841.340   124391137.520          50.000                                                  
G 5  21099646.540   110879389.043          50.000                                                  
G12  21719763.720   114138121.227          50.000                                                  
G18  22612249.540   118828170.906          50.000                                                  
G21  23227881.480   122063310.434          50.000                                                  
G25  20584807.620   108173838.773          50.000    20584809.840    80779165.727          50.000  
G29  20995930.900   110334359.297          50.000                                                  
G31  24495380.760   128724095.953          50.000                                                  
E 3  27645284.760   145276894.582          50.000    27645291.660   108485971.922          50.000  
E 5  27077912.680   142295351.531          50.000    27077918.280   106259500.348          50.000  
E15  23712276.340   124608823.598          50.000    23712281.200    93052032.195          50.000  
E27  24508082.980   128790822.262          50.000    24508087.020    96174953.359          50.000  
E30  23344489.680   122676100.680          50.000    23344494.000    91608765.203          50.000  
> 2020  5 15 23 56 59.0000000  0 13       0.000000000000
G 2  23671313.860   124393620.605          50.000                                                  
G 5  21099747.100   110879917.559          50.000                                                  
G12  21720328.780   114141090.609          50.000                                                  
G18  22611776.480   118825684.898          50.000                                                  
G21  23227476.060   122061179.910          50.000                                                  
G25  20585073.160   108175234.117          50.000    20585075.380    80780207.703          50.000  
G29  20995674.000   110333009.297          50.000                                                  
G31  24495493.040   128724686.043          50.000                                                  
E 3  27644794.700   145274319.320          50.000    27644801.600   108484048.840          50.000  
E 5  27077635.300   142293893.914          50.000    27077640.900   106258411.871          50.000  
E15  23712167.220   124608250.203          50.000    23712172.080    93051604.012          50.000  
E27  24507974.700   128790253.254          50.000    24507978.740    96174528.453          50.000  
E30  23344908.080   122678299.375          50.000    23344912.380    91610407.086          50.000  
> 2020  5 15 23 57  0.0000000  0 13       0.000000000000
G 2  23671786.380   124396103.703          50.000                                                  
G 5  21099847.820   110880446.770          50.000                                                  
G12  21720893.900   114144060.406          50.000                                                  
G18  22611303.460   118823199.168          50.000                                                  
G21  23227070.680   122059049.652          50.000                                                  
G25  20585338.800   108176630.070          50.000    20585341.020    80781250.137          50.000  
G29  20995417.140   110331659.523          50.000                                                  
G31  24495605.440   128725276.652          50.000                                                  
E 3  27644304.640   145271744.012          50.000    27644311.540   108482125.719          50.000  
E 5  27077358.000   142292436.637          50.000    27077363.600   106257323.645          50.000  
E15  23712058.140   124607676.984          50.000    23712063.000    93051175.957          50.000  
E27  24507866.520   128789684.727          50.000    24507870.540    96174103.902          50.000  
E30  23345326.540   122680498.418          50.000    23345330.860    91612049.223          50.000  
> 2020  5 15 23 57  1.0000000  0 13       0.000000000000
G 2  23672258.900   124398586.813          50.000                                                  
G 5  21099948.640   110880976.660          50.000                                                  
G12  21721459.120   114147030.605          50.000                                                  
G18  22610830.480   118820713.723          50.000                                                  
G21  23226665.360   122056919.660          50.000                                                  
G25  20585604.540   108178026.633          50.000    20585606.780    80782293.023          50.000  
G29  20995160.340   110330309.957          50.000                                                  
G31  24495717.920   128725867.781          50.000                                                  
E 3  27643814.560   145269168.688          50.000    27643821.460   108480202.590          50.000  
E 5  27077080.740   142290979.676          50.000    27077086.340   106256235.656          50.000  
E15  23711949.080   124607103.918          50.000    23711953.960    93050748.020          50.000  
E27  24507758.420   128789116.672          50.000    24507762.460    96173679.703          50.000  
E30  23345745.080   122682697.793          50.000    23345749.380    91613691.617          50.000  
> 2020  5 15 23 57  2.0000000  0 13       0.000000000000
G 2  23672731.420   124401069.941          50.000                                                  
G 5  21100049.620   110881507.242          50.000                                                  
G12  21722024.400   114150001.203          50.000                                                  
G18  22610357.580   118818228.555          50.000                                                  
G21  23226260.080   122054789.926          50.000                                                  
G25  20585870.420   108179423.813          50.000    20585872.640    80783336.371          50.000  
G29  20994903.560   110328960.605          50.000                                                  
G31  24495830.520   128726459.438          50.000                                                  
E 3  27643324.500   145266593.348          50.000    27643331.400   108478279.449          50.000  
E 5  27076803.560   142289523.035          50.000    27076809.140   106255147.902          50.000  
E15  23711840.060   124606531.004          50.000    23711844.940    93050320.191          50.000  
E27  24507650.420   128788549.094          50.000    24507654.440    96173255.863          50.000  
E30  23346163.660   122684897.508          50.000    23346167.980    91615334.258          50.000  
> 2020  5 15 23 57  3.0000000  0 13       0.000000000000
G 2  23673203.960   124403553.078          50.000                                                  
G 5  21100150.700   110882038.508          50.000                                                  
G12  21722589.760   114152972.199          50.000                                                  
G18  22609884.720   118815743.680          50.000                                                  
G21  23225854.860   122052660.453          50.000                                                  
G25  20586136.420   108180821.590          50.000    20586138.640    80784380.164          50.000  
G29  20994646.820   110327611.473          50.000                                                  
G31  24495943.200   128727051.602          50.000                                                  
E 3  27642834.420   145264017.961          50.000    27642841.320   108476356.270          50.000  
E 5  27076526.420   142288066.715          50.000    27076532.020   106254060.391          50.000  
E15  23711731.080   124605958.250          50.000    23711735.940    93049892.488          50.000  
E27  24507542.500   128787981.980          50.000    24507546.520    96172832.371          50.000  
E30  23346582.320   122687097.559          50.000    23346586.640    91616977.152          50.000  
> 2020  5 15 23 57  4.0000000  0 13       0.000000000000
G 2  23673676.480   124406036.234          50.000                                                  
G 5  21100251.940   110882570.465          50.000                                                  
G12  21723155.200   114155943.590          50.000                                                  
G18  22609411.920   118813259.082          50.000                                                  
G21  23225449.680   122050531.258          50.000                                                  
G25  20586402.520   108182219.973          50.000    20586404.740    80785424.414          50.000  
G29  20994390.140   110326262.551          50.000                                                  
G31  24496055.980   128727644.285          50.000                                                  
E 3  27642344.340   145261442.555          50.000    27642351.220   108474433.082          50.000  
E 5  27076249.360   142286610.715          50.000    27076254.960   106252973.121          50.000  
E15  23711622.120   124605385.660          50.000    23711626.980    93049464.906          50.000  
E27  24507434.680   128787415.348          50.000    24507438.700    96172409.234          50.000  
E30  23347001.040   122689297.949          50.000    23347005.360    91618620.301          50.000  
> 2020  5 15 23 57  5.0000000  0 13       0.000000000000
G 2  23674149.020   124408519.398          50.000                                                  
G 5  21100353.300   110883103.098          50.000                                                  
G12  21723720.720   114158915.395          50.000                                                  
G18  22608939.160   118810774.773          50.000                                                  
G21  23225044.560   122048402.328          50.000                                                  
G25  20586668.740   108183618.973          50.000    20586670.960    80786469.121          50.000  
G29  20994133.480   110324913.852          50.000                                                  
G31  24496168.860   128728237.480          50.000                                                  
E 3  27641854.240   145258867.141          50.000    27641861.140   108472509.883          50.000  
E 5  27075972.340   142285155.047          50.000    27075977.940   106251886.094          50.000  
E15  23711513.180   124604813.230          50.000    23711518.060    93049037.441          50.000  
E27  24507326.940   128786849.188          50.000    24507330.960    96171986.453          50.000  
E30  23347419.840   122691498.691          50.000    23347424.140    91620263.711          50.000  
> 2020  5 15 23 57  6.0000000  0 13       0.000000000000
G 2  23674621.540   124411002.578          50.000                                                  
G 5  21100454.780   110883636.441          50.000                                                  
G12  21724286.320   114161887.590          50.000                                                  
G18  22608466.480   118808290.746          50.000                                                  
G21  23224639.480   122046273.641          50.000                                                  
G25  20586935.080   108185018.594          50.000    20586937.300    80787514.289          50.000  
G29  20993876.880   110323565.363          50.000                                                  
G31  24496281.840   128728831.199          50.000                                                  
E 3  27641364.160   145256291.676          50.000    27641371.040   108470586.648          50.000  
E 5  27075695.400   142283699.699          50.000    27075701.000   106250799.313          50.000  
E15  23711404.280   124604240.965          50.000    23711409.160    93048610.098          50.000  
E27  24507219.280   128786283.504          50.000    24507223.320    96171564.023          50.000  
E30  23347838.680   122693699.758          50.000    23347843.000    91621907.363          50.000  
> 2020  5 15 23 57  7.0000000  0 13       0.000000000000
G 2  23675094.080   124413485.766          50.000                                                  
G 5  21100556.400   110884170.457          50.000                                                  
G12  21724851.980   114164860.188          50.000                                                  
G18  22607993.820   118805807.000          50.000                                                  
G21  23224234.460   122044145.242          50.000                                                  
G25  20587201.540   108186418.813          50.000    20587203.760    80788559.906          50.000  
G29  20993620.320   110322217.102          50.000                                                  
G31  24496394.920   128729425.434          50.000                                                  
E 3  27640874.060   145253716.191          50.000    27640880.940   108468663.398          50.000  
E 5  27075418.520   142282244.660          50.000    27075424.120   106249712.758          50.000  
E15  23711295.420   124603668.844          50.000    23711300.280    93048182.867          50.000  
E27  24507111.740   128785718.289          50.000    24507115.760    96171141.949          50.000  
E30  23348257.600   122695901.156          50.000    23348261.900    91623551.266          50.000  
> 2020  5 15 23 57  8.0000000  0 13       0.000000000000
G 2  23675566.620   124415968.961          50.000                                                  
G 5  21100658.160   110884705.156          50.000                                                  
G12  21725417.720   114167833.191          50.000                                                  
G18  22607521.240   118803323.539          50.000                                                  
G21  23223829.500   122042017.098          50.000                                                  
G25  20587468.100   108187819.641          50.000    20587470.320    80789605.980          50.000  
G29  20993363.780   110320869.059          50.000                                                  
G31  24496508.100   128730020.188          50.000                                                  
E 3  27640383.940   145251140.688          50.000    27640390.840   108466740.133          50.000  
E 5  27075141.700   142280789.957          50.000    27075147.300   106248626.453          50.000  
E15  23711186.580   124603096.895          50.000    23711191.440    93047755.762          50.000  
E27  24507004.260   128785153.555          50.000    24507008.300    96170720.234          50.000  
E30  23348676.580   122698102.910          50.000    23348680.880    91625195.430          50.000  
> 2020  5 15 23 57  9.0000000  0 13       0.000000000000
G 2  23676039.160   124418452.160          50.000                                                  
G 5  21100760.020   110885240.586          50.000                                                  
G12  21725983.560   114170806.492          50.000                                                  
G18  22607048.700   118800840.402          50.000                                                  
G21  23223424.540   122039889.340          50.000                                                  
G25  20587734.800   108189221.012          50.000    20587737.000    80790652.504          50.000  
G29  20993107.300   110319521.223          50.000                                                  
G31  24496621.400   128730615.289          50.000                                                  
E 3  27639893.840   145248565.070          50.000    27639900.740   108464816.758          50.000  
E 5  27074864.940   142279335.555          50.000    27074870.520   106247540.379          50.000  
E15  23711077.760   124602525.086          50.000    23711082.640    93047328.762          50.000  
E27  24506896.900   128784589.227          50.000    24506900.940    96170298.793          50.000  
E30  23349095.600   122700305.082          50.000    23349099.900    91626839.965          50.000  
> 2020  5 15 23 57 10.0000000  0 13       0.000000000000
G 2  23676511.700   124420935.383          50.000                                                  
G 5  21100862.040   110885776.645          50.000                                                  
G12  21726549.460   114173780.285          50.000                                                  
G18  22606576.220   118798357.504          50.000                                                  
G21  23223019.680   122037761.730          50.000                                                  
G25  20588001.600   108190623.051          50.000    20588003.820    80791699.484          50.000  
G29  20992850.860   110318173.590          50.000                                                  
G31  24496734.780   128731211.063          50.000                                                  
E 3  27639403.720   145245989.504          50.000    27639410.620   108462893.449          50.000  
E 5  27074588.240   142277881.480          50.000    27074593.820   106246454.543          50.000  
E15  23710968.980   124601953.453          50.000    23710973.860    93046901.891          50.000  
E27  24506789.620   128784025.438          50.000    24506793.660    96169877.781          50.000  
E30  23349514.700   122702507.484          50.000    23349519.000    91628484.613          50.000  
> 2020  5 15 23 57 11.0000000  0 13       0.000000000000
G 2  23676984.260   124423418.617          50.000                                                  
G 5  21100964.180   110886313.398          50.000                                                  
G12  21727115.440   114176754.484          50.000                                                  
G18  22606103.800   118795874.891          50.000                                                  
G21  23222614.860   122035634.391          50.000                                                  
G25  20588268.520   108192025.703          50.000    20588270.720    80792746.918          50.000  
G29  20992594.460   110316826.188          50.000                                                  
G31  24496848.260   128731807.352          50.000                                                  
E 3  27638913.600   145243413.902          50.000    27638920.500   108460970.109          50.000  
E 5  27074311.600   142276427.715          50.000    27074317.180   106245368.941          50.000  
E15  23710860.240   124601381.965          50.000    23710865.100    93046475.133          50.000  
E27  24506682.420   128783462.109          50.000    24506686.460    96169457.113          50.000  
E30  23349933.880   122704710.242          50.000    23349938.180    91630129.531          50.000  
> 2020  5 15 23 57 12.0000000  0 13       0.000000000000
G 2  23677456.800   124425901.859          50.000                                                  
G 5  21101066.460   110886850.844          50.000                                                  
G12  21727681.480   114179729.086          50.000                                                  
G18  22605631.420   118793392.566          50.000                                                  
G21  23222210.100   122033507.320          50.000                                                  
G25  20588535.560   108193428.961          50.000    20588537.760    80793794.805          50.000  
G29  20992338.100   110315478.996          50.000                                                  
G31  24496961.820   128732404.168          50.000                                                  
E 3  27638423.480   145240838.285          50.000    27638430.380   108459046.762          50.000  
E 5  27074035.020   142274974.293          50.000    27074040.620   106244283.594          50.000  
E15  23710751.520   124600810.641          50.000    23710756.400    93046048.492          50.000  
E27  24506575.320   128782899.266          50.000    24506579.360    96169036.805          50.000  
E30  23350353.120   122706913.313          50.000    23350357.400    91631774.680          50.000  
> 2020  5 15 23 57 13.0000000  0 13       0.000000000000
G 2  23677929.360   124428385.117          50.000                                                  
G 5  21101168.860   110887388.977          50.000                                                  
G12  21728247.620   114182704.090          50.000                                                  
G18  22605159.120   118790910.520          50.000                                                  
G21  23221805.380   122031380.516          50.000                                                  
G25  20588802.700   108194832.840          50.000    20588804.920    80794843.156          50.000  
G29  20992081.780   110314132.023          50.000                                                  
G31  24497075.500   128733001.492          50.000                                                  
E 3  27637933.360   145238262.641          50.000    27637940.260   108457123.391          50.000  
E 5  27073758.500   142273521.188          50.000    27073764.100   106243198.484          50.000  
E15  23710642.840   124600239.480          50.000    23710647.700    93045621.980          50.000  
E27  24506468.300   128782336.895          50.000    24506472.340    96168616.852          50.000  
E30  23350772.420   122709116.746          50.000    23350776.700    91633420.102          50.000  
> 2020  5 15 23 57 14.0000000  0 13       0.000000000000
G 2  23678401.900   124430868.391          50.000                                                  
G 5  21101271.400   110887927.777          50.000                                                  
G12  21728813.820   114185679.492          50.000                                                  
G18  22604686.840   118788428.762          50.000                                                  
G21  23221400.720   122029253.969          50.000                                                  
G25  20589069.960   108196237.324          50.000    20589072.180    80795891.957          50.000  
G29  20991825.500   110312785.273          50.000                                                  
G31  24497189.260   128733599.336          50.000                                                  
E 3  27637443.220   145235686.973          50.000    27637450.120   108455200.004          50.000  
E 5  27073482.040   142272068.395          50.000    27073487.640   106242113.605          50.000  
E15  23710534.180   124599668.480          50.000    23710539.060    93045195.582          50.000  
E27  24506361.380   128781774.992          50.000    24506365.420    96168197.254          50.000  
E30  23351191.780   122711320.508          50.000    23351196.080    91635065.766          50.000  
> 2020  5 15 23 57 15.0000000  0 13       0.000000000000
G 2  23678874.460   124433351.672          50.000                                                  
G 5  21101374.060   110888467.266          50.000                                                  
G12  21729380.100   114188655.293          50.000                                                  
G18  22604214.640   118785947.285          50.000                                                  
G21  23220996.100   122027127.688          50.000                                                  
G25  20589337.340   108197642.395          50.000    20589339.560    80796941.199          50.000  
G29  20991569.260   110311438.727          50.000                                                  
G31  24497303.120   128734197.699          50.000                                                  
E 3  27636953.080   145233111.254          50.000    27636959.980   108453276.578          50.000  
E 5  27073205.660   142270615.938          50.000    27073211.260   106241028.977          50.000  
E15  23710425.560   124599097.637          50.000    23710430.420    93044769.305          50.000  
E27  24506254.540   128781213.574          50.000    24506258.580    96167778.008          50.000  
E30  23351611.200   122713524.613          50.000    23351615.500    91636711.688          50.000  
> 2020  5 15 23 57 16.0000000  0 13       0.000000000000
G 2  23679347.020   124435834.973          50.000                                                  
G 5  21101476.860   110889007.445          50.000                                                  
G12  21729946.440   114191631.496          50.000                                                  
G18  22603742.480   118783466.094          50.000                                                  
G21  23220591.520   122025001.668          50.000                                                  
G25  20589604.840   108199048.105          50.000    20589607.060    80797990.918          50.000  
G29  20991313.080   110310092.410          50.000                                                  
G31  24497417.100   128734796.582          50.000                                                  
E 3  27636462.940   145230535.531          50.000    27636469.840   108451353.148          50.000  
E 5  27072929.320   142269163.789          50.000    27072934.920   106239944.582          50.000  
E15  23710316.960   124598526.949          50.000    23710321.820    93044343.141          50.000  
E27  24506147.800   128780652.625          50.000    24506151.840    96167359.121          50.000  
E30  23352030.700   122715729.051          50.000    23352035.000    91638357.859          50.000  
> 2020  5 15 23 57 17.0000000  0 13       0.000000000000
G 2  23679819.580   124438318.289          50.000                                                  
G 5  21101579.780   110889548.316          50.000                                                  
G12  21730512.880   114194608.102          50.000                                                  
G18  22603270.380   118780985.188          50.000                                                  
G21  23220187.020   122022875.926          50.000                                                  
G25  20589872.460   108200454.410          50.000    20589874.680    80799041.082          50.000  
G29  20991056.920   110308746.313          50.000                                                  
G31  24497531.160   128735395.977          50.000                                                  
E 3  27635972.800   145227959.785          50.000    27635979.680   108449429.703          50.000  
E 5  27072653.060   142267711.977          50.000    27072658.640   106238860.438          50.000  
E15  23710208.400   124597956.430          50.000    23710213.260    93043917.105          50.000  
E27  24506041.160   128780092.148          50.000    24506045.180    96166940.582          50.000  
E30  23352450.260   122717933.813          50.000    23352454.560    91640004.270          50.000  
> 2020  5 15 23 57 18.0000000  0 13       0.000000000000
G 2  23680292.140   124440801.609          50.000                                                  
G 5  21101682.840   110890089.855          50.000                                                  
G12  21731079.380   114197585.094          50.000                                                  
G18  22602798.340   118778504.566          50.000                                                  
G21  23219782.560   122020750.449          50.000                                                  
G25  20590140.200   108201861.332          50.000    20590142.400    80800091.703          50.000  
G29  20990800.800   110307400.410          50.000                                                  
G31  24497645.320   128735995.883          50.000                                                  
E 3  27635482.640   145225384.008          50.000    27635489.540   108447506.234          50.000  
E 5  27072376.840   142266260.488          50.000    27072382.440   106237776.535          50.000  
E15  23710099.860   124597386.063          50.000    23710104.720    93043491.180          50.000  
E27  24505934.580   128779532.148          50.000    24505938.620    96166522.398          50.000  
E30  23352869.880   122720138.922          50.000    23352874.180    91641650.941          50.000  
> 2020  5 15 23 57 19.0000000  0 13       0.000000000000
G 2  23680764.720   124443284.949          50.000                                                  
G 5  21101786.020   110890632.090          50.000                                                  
G12  21731645.980   114200562.496          50.000                                                  
G18  22602326.360   118776024.227          50.000                                                  
G21  23219378.140   122018625.234          50.000                                                  
G25  20590408.040   108203268.852          50.000    20590410.240    80801142.773          50.000  
G29  20990544.740   110306054.742          50.000                                                  
G31  24497759.580   128736596.305          50.000                                                  
E 3  27634992.480   145222808.203          50.000    27634999.380   108445582.746          50.000  
E 5  27072100.700   142264809.316          50.000    27072106.300   106236692.867          50.000  
E15  23709991.360   124596815.852          50.000    23709996.220    93043065.371          50.000  
E27  24505828.120   128778972.621          50.000    24505832.160    96166104.570          50.000  
E30  23353289.560   122722344.375          50.000    23353293.860    91643297.871          50.000  
> 2020  5 15 23 57 20.0000000  0 13       0.000000000000
G 2  23681237.280   124445768.293          50.000                                                  
G 5  21101889.340   110891175.000          50.000                                                  
G12  21732212.620   114203540.293          50.000                                                  
G18  22601854.420   118773544.164          50.000                                                  
G21  23218973.780   122016500.293          50.000                                                  
G25  20590676.000   108204676.988          50.000    20590678.220    80802194.301          50.000  
G29  20990288.700   110304709.285          50.000                                                  
G31  24497873.940   128737197.242          50.000                                                  
E 3  27634502.320   145220232.371          50.000    27634509.220   108443659.238          50.000  
E 5  27071824.620   142263358.465          50.000    27071830.200   106235609.441          50.000  
E15  23709882.880   124596245.797          50.000    23709887.740    93042639.684          50.000  
E27  24505721.740   128778413.570          50.000    24505725.780    96165687.098          50.000  
E30  23353709.320   122724550.160          50.000    23353713.620    91644945.047          50.000  
> 2020  5 15 23 57 21.0000000  0 13       0.000000000000
G 2  23681709.840   124448251.656          50.000                                                  
G 5  21101992.780   110891718.609          50.000                                                  
G12  21732779.360   114206518.480          50.000                                                  
G18  22601382.520   118771064.395          50.000                                                  
G21  23218569.460   122014375.609          50.000                                                  
G25  20590944.080   108206085.727          50.000    20590946.280    80803246.281          50.000  
G29  20990032.720   110303364.047          50.000                                                  
G31  24497988.380   128737798.688          50.000                                                  
E 3  27634012.160   145217656.520          50.000    27634019.040   108441735.715          50.000  
E 5  27071548.580   142261907.934          50.000    27071554.180   106234526.250          50.000  
E15  23709774.440   124595675.906          50.000    23709779.300    93042214.117          50.000  
E27  24505615.440   128777854.996          50.000    24505619.480    96165269.980          50.000  
E30  23354129.120   122726756.281          50.000    23354133.420    91646592.477          50.000  
> 2020  5 15 23 57 22.0000000  0 13       0.000000000000
G 2  23682182.420   124450735.023          50.000                                                  
G 5  21102096.360   110892262.887          50.000                                                  
G12  21733346.180   114209497.074          50.000                                                  
G18  22600910.700   118768584.914          50.000                                                  
G21  23218165.200   122012251.191          50.000                                                  
G25  20591212.260   108207495.082          50.000    20591214.480    80804298.723          50.000  
G29  20989776.760   110302019.027          50.000                                                  
G31  24498102.940   128738400.664          50.000                                                  
E 3  27633521.980   145215080.641          50.000    27633528.880   108439812.168          50.000  
E 5  27071272.620   142260457.727          50.000    27071278.220   106233443.305          50.000  
E15  23709666.020   124595106.172          50.000    23709670.880    93041788.664          50.000  
E27  24505509.240   128777296.891          50.000    24505513.280    96164853.215          50.000  
E30  23354549.000   122728962.738          50.000    23354553.300    91648240.152          50.000  
> 2020  5 15 23 57 23.0000000  0 13       0.000000000000
G 2  23682655.000   124453218.406          50.000                                                  
G 5  21102200.060   110892807.867          50.000                                                  
G12  21733913.060   114212476.074          50.000                                                  
G18  22600438.920   118766105.711          50.000                                                  
G21  23217760.980   122010127.043          50.000                                                  
G25  20591480.580   108208905.043          50.000    20591482.800    80805351.613          50.000  
G29  20989520.860   110300674.219          50.000                                                  
G31  24498217.600   128739003.145          50.000                                                  
E 3  27633031.800   145212504.730          50.000    27633038.700   108437888.602          50.000  
E 5  27070996.720   142259007.844          50.000    27071002.320   106232360.602          50.000  
E15  23709557.640   124594536.594          50.000    23709562.500    93041363.332          50.000  
E27  24505403.140   128776739.266          50.000    24505407.160    96164436.805          50.000  
E30  23354968.940   122731169.535          50.000    23354973.240    91649888.086          50.000  
> 2020  5 15 23 57 24.0000000  0 13       0.000000000000
G 2  23683127.580   124455701.789          50.000                                                  
G 5  21102303.900   110893353.527          50.000                                                  
G12  21734480.020   114215455.473          50.000                                                  
G18  22599967.200   118763626.797          50.000                                                  
G21  23217356.840   122008003.168          50.000                                                  
G25  20591749.000   108210315.602          50.000    20591751.220    80806404.953          50.000  
G29  20989265.000   110299329.637          50.000                                                  
G31  24498332.340   128739606.148          50.000                                                  
E 3  27632541.620   145209928.805          50.000    27632548.520   108435965.023          50.000  
E 5  27070720.880   142257558.289          50.000    27070726.480   106231278.141          50.000  
E15  23709449.280   124593967.184          50.000    23709454.140    93040938.121          50.000  
E27  24505297.100   128776182.105          50.000    24505301.140    96164020.742          50.000  
E30  23355388.960   122733376.664          50.000    23355393.240    91651536.266          50.000  
> 2020  5 15 23 57 25.0000000  0 13       0.000000000000
G 2  23683600.160   124458185.203          50.000                                                  
G 5  21102407.880   110893899.883          50.000                                                  
G12  21735047.060   114218435.262          50.000                                                  
G18  22599495.540   118761148.152          50.000                                                  
G21  23216952.720   122005879.551          50.000                                                  
G25  20592017.540   108211726.789          50.000    20592019.760    80807458.762          50.000  
G29  20989009.180   110297985.262          50.000                                                  
G31  24498447.200   128740209.664          50.000                                                  
E 3  27632051.440   145207352.840          50.000    27632058.320   108434041.414          50.000  
E 5  27070445.100   142256109.051          50.000    27070450.700   106230195.918          50.000  
E15  23709340.960   124593397.922          50.000    23709345.820    93040513.023          50.000  
E27  24505191.180   128775625.426          50.000    24505195.220    96163605.043          50.000  
E30  23355809.020   122735584.125          50.000    23355813.320    91653184.691          50.000  
> 2020  5 15 23 57 26.0000000  0 13       0.000000000000
G 2  23684072.740   124460668.621          50.000                                                  
G 5  21102511.980   110894446.914          50.000                                                  
G12  21735614.180   114221415.457          50.000                                                  
G18  22599023.920   118758669.801          50.000                                                  
G21  23216548.660   122003756.199          50.000                                                  
G25  20592286.200   108213138.563          50.000    20592288.420    80808513.008          50.000  
G29  20988753.400   110296641.109          50.000                                                  
G31  24498562.140   128740813.691          50.000                                                  
E 3  27631561.240   145204776.855          50.000    27631568.140   108432117.793          50.000  
E 5  27070169.380   142254660.125          50.000    27070174.980   106229113.930          50.000  
E15  23709232.660   124592828.820          50.000    23709237.540    93040088.047          50.000  
E27  24505085.340   128775069.223          50.000    24505089.380    96163189.695          50.000  
E30  23356229.160   122737791.934          50.000    23356233.460    91654833.379          50.000  
> 2020  5 15 23 57 27.0000000  0 13       0.000000000000
G 2  23684545.320   124463152.051          50.000                                                  
G 5  21102616.200   110894994.637          50.000                                                  
G12  21736181.360   114224396.059          50.000                                                  
G18  22598552.360   118756191.734          50.000                                                  
G21  23216144.660   122001633.117          50.000                                                  
G25  20592554.960   108214550.953          50.000    20592557.180    80809567.715          50.000  
G29  20988497.660   110295297.180          50.000                                                  
G31  24498677.180   128741418.230          50.000                                                  
E 3  27631071.040   145202200.844          50.000    27631077.940   108430194.148          50.000  
E 5  27069893.720   142253211.531          50.000    27069899.320   106228032.191          50.000  
E15  23709124.400   124592259.883          50.000    23709129.260    93039663.191          50.000  
E27  24504979.580   128774513.484          50.000    24504983.620    96162774.695          50.000  
E30  23356649.340   122740000.066          50.000    23356653.640    91656482.309          50.000  
> 2020  5 15 23 57 28.0000000  0 13       0.000000000000
G 2  23685017.900   124465635.500          50.000                                                  
G 5  21102720.560   110895543.051          50.000                                                  
G12  21736748.640   114227377.055          50.000                                                  
G18  22598080.860   118753713.953          50.000                                                  
G21  23215740.700   121999510.301          50.000                                                  
G25  20592823.860   108215963.945          50.000    20592826.060    80810622.871          50.000  
G29  20988241.960   110293953.457          50.000                                                  
G31  24498792.320   128742023.293          50.000                                                  
E 3  27630580.840   145199624.820          50.000    27630587.740   108428270.496          50.000  
E 5  27069618.140   142251763.258          50.000    27069623.720   106226950.684          50.000  
E15  23709016.160   124591691.098          50.000    23709021.040    93039238.445          50.000  
E27  24504873.920   128773958.223          50.000    24504877.960    96162360.055          50.000  
E30  23357069.600   122742208.535          50.000    23357073.900    91658131.488          50.000  
> 2020  5 15 23 57 29.0000000  0 13       0.000000000000
G 2  23685490.500   124468118.957          50.000                                                  
G 5  21102825.060   110896092.129          50.000                                                  
G12  21737315.980   114230358.449          50.000                                                  
G18  22597609.400   118751236.457          50.000                                                  
G21  23215336.800   121997387.750          50.000                                                  
G25  20593092.860   108217377.555          50.000    20593095.080    80811678.488          50.000  
G29  20987986.300   110292609.957          50.000                                                  
G31  24498907.560   128742628.875          50.000                                                  
E 3  27630090.640   145197048.758          50.000    27630097.520   108426346.813          50.000  
E 5  27069342.600   142250315.309          50.000    27069348.200   106225869.426          50.000  
E15  23708907.960   124591122.480          50.000    23708912.840    93038813.828          50.000  
E27  24504768.360   128773403.441          50.000    24504772.400    96161945.770          50.000  
E30  23357489.940   122744417.344          50.000    23357494.240    91659780.922          50.000  
> 2020  5 15 23 57 30.0000000  0 13       0.000000000000
G 2  23685963.080   124470602.426          50.000                                                  
G 5  21102929.680   110896641.906          50.000                                                  
G12  21737883.400   114233340.250          50.000                                                  
G18  22597138.020   118748759.238          50.000                                                  
G21  23214932.940   121995265.465          50.000                                                  
G25  20593361.980   108218791.777          50.000    20593364.200    80812734.559          50.000  
G29  20987730.680   110291266.672          50.000                                                  
G31  24499022.900   128743234.988          50.000                                                  
E 3  27629600.420   145194472.672          50.000    27629607.320   108424423.117          50.000  
E 5  27069067.120   142248867.676          50.000    27069072.720   106224788.402          50.000  
E15  23708799.780   124590554.012          50.000    23708804.660    93038389.324          50.000  
E27  24504662.880   128772849.125          50.000    24504666.920    96161531.828          50.000  
E30  23357910.320   122746626.488          50.000    23357914.620    91661430.609          50.000  
> 2020  5 15 23 57 31.0000000  0 13       0.000000000000
G 2  23686435.680   124473085.902          50.000                                                  
G 5  21103034.420   110897192.379          50.000                                                  
G12  21738450.900   114236322.457          50.000                                                  
G18  22596666.660   118746282.313          50.000                                                  
G21  23214529.120   121993143.441          50.000                                                  
G25  20593631.220   108220206.605          50.000    20593633.420    80813791.086          50.000  
G29  20987475.100   110289923.613          50.000                                                  
G31  24499138.340   128743841.617          50.000                                                  
E 3  27629110.200   145191896.563          50.000    27629117.100   108422499.398          50.000  
E 5  27068791.720   142247420.375          50.000    27068797.300   106223707.625          50.000  
E15  23708691.640   124589985.703          50.000    23708696.520    93037964.938          50.000  
E27  24504557.480   128772295.293          50.000    24504561.520    96161118.254          50.000  
E30  23358330.780   122748835.973          50.000    23358335.080    91663080.547          50.000  
> 2020  5 15 23 57 32.0000000  0 13       0.000000000000
G 2  23686908.280   124475569.391          50.000                                                  
G 5  21103139.320   110897743.539          50.000                                                  
G12  21739018.460   114239305.055          50.000                                                  
G18  22596195.380   118743805.660          50.000                                                  
G21  23214125.380   121991021.695          50.000                                                  
G25  20593900.560   108221622.035          50.000    20593902.780    80814848.066          50.000  
G29  20987219.580   110288580.762          50.000                                                  
G31  24499253.880   128744448.758          50.000                                                  
E 3  27628619.980   145189320.438          50.000    27628626.880   108420575.672          50.000  
E 5  27068516.360   142245973.402          50.000    27068521.960   106222627.094          50.000  
E15  23708583.540   124589417.555          50.000    23708588.400    93037540.672          50.000  
E27  24504452.200   128771741.941          50.000    24504456.220    96160705.035          50.000  
E30  23358751.300   122751045.801          50.000    23358755.600    91664730.742          50.000  
> 2020  5 15 23 57 33.0000000  0 13       0.000000000000
G 2  23687380.880   124478052.898          50.000                                                  
G 5  21103244.320   110898295.371          50.000                                                  
G12  21739586.120   114242288.051          50.000                                                  
G18  22595724.140   118741329.301          50.000                                                  
G21  23213721.660   121988900.207          50.000                                                  
G25  20594170.020   108223038.074          50.000    20594172.240    80815905.496          50.000  
G29  20986964.080   110287238.133          50.000                                                  
G31  24499369.520   128745056.414          50.000                                                  
E 3  27628129.760   145186744.281          50.000    27628136.640   108418651.922          50.000  
E 5  27068241.080   142244526.746          50.000    27068246.660   106221546.801          50.000  
E15  23708475.440   124588849.563          50.000    23708480.320    93037116.520          50.000  
E27  24504346.980   128771189.047          50.000    24504351.020    96160292.160          50.000  
E30  23359171.880   122753255.953          50.000    23359176.180    91666381.180          50.000  
> 2020  5 15 23 57 34.0000000  0 13       0.000000000000
G 2  23687853.480   124480536.414          50.000                                                  
G 5  21103349.460   110898847.895          50.000                                                  
G12  21740153.840   114245271.441          50.000                                                  
G18  22595252.960   118738853.223          50.000                                                  
G21  23213318.020   121986778.984          50.000                                                  
G25  20594439.600   108224454.727          50.000    20594441.820    80816963.383          50.000  
G29  20986708.620   110285895.723          50.000                                                  
G31  24499485.240   128745664.578          50.000                                                  
E 3  27627639.540   145184168.102          50.000    27627646.420   108416728.148          50.000  
E 5  27067965.860   142243080.414          50.000    27067971.440   106220466.750          50.000  
E15  23708367.400   124588281.730          50.000    23708372.260    93036692.492          50.000  
E27  24504241.860   128770636.637          50.000    24504245.900    96159879.648          50.000  
E30  23359592.520   122755466.445          50.000    23359596.820    91668031.871          50.000  
> 2020  5 15 23 57 35.0000000  0 13       0.000000000000
G 2  23688326.080   124483019.938          50.000                                                  
G 5  21103454.740   110899401.090          50.000                                                  
G12  21740721.640   114248255.234          50.000                                                  
G18  22594781.840   118736377.434          50.000                                                  
G21  23212914.400   121984658.016          50.000                                                  
G25  20594709.300   108225871.988          50.000    20594711.520    80818021.730          50.000  
G29  20986453.220   110284553.531          50.000                                                  
G31  24499601.080   128746273.266          50.000                                                  
E 3  27627149.300   145181591.883          50.000    27627156.180   108414804.352          50.000  
E 5  27067690.680   142241634.406          50.000    27067696.280   106219386.938          50.000  
E15  23708259.380   124587714.066          50.000    23708264.240    93036268.586          50.000  
E27  24504136.840   128770084.703          50.000    24504140.880    96159467.488          50.000  
E30  23360013.240   122757677.285          50.000    23360017.540    91669682.820          50.000  
> 2020  5 15 23 57 36.0000000  0 13       0.000000000000
G 2  23688798.680   124485503.473          50.000                                                  
G 5  21103560.140   110899954.988          50.000                                                  
G12  21741289.520   114251239.426          50.000                                                  
G18  22594310.760   118733901.926          50.000                                                  
G21  23212510.860   121982537.328          50.000                                                  
G25  20594979.120   108227289.855          50.000    20594981.340    80819080.527          50.000  
G29  20986197.860   110283211.555          50.000                                                  
G31  24499717.000   128746882.465          50.000                                                  
E 3  27626659.060   145179015.652          50.000    27626665.940   108412880.547          50.000  
E 5  27067415.580   142240188.723          50.000    27067421.180   106218307.367          50.000  
E15  23708151.380   124587146.547          50.000    23708156.240    93035844.789          50.000  
E27  24504031.900   128769533.242          50.000    24504035.940    96159055.684          50.000  
E30  23360434.000   122759888.445          50.000    23360438.300    91671334.012          50.000  
> 2020  5 15 23 57 37.0000000  0 13       0.000000000000
G 2  23689271.280   124487987.023          50.000                                                  
G 5  21103665.680   110900509.566          50.000                                                  
G12  21741857.460   114254224.012          50.000                                                  
G18  22593839.740   118731426.703          50.000                                                  
G21  23212107.360   121980416.902          50.000                                                  
G25  20595249.060   108228708.332          50.000    20595251.260    80820139.777          50.000  
G29  20985942.520   110281869.801          50.000                                                  
G31  24499833.040   128747492.176          50.000                                                  
E 3  27626168.820   145176439.402          50.000    27626175.700   108410956.723          50.000  
E 5  27067140.540   142238743.363          50.000    27067146.140   106217228.043          50.000  
E15  23708043.420   124586579.195          50.000    23708048.280    93035421.117          50.000  
E27  24503927.040   128768982.258          50.000    24503931.080    96158644.230          50.000  
E30  23360854.840   122762099.957          50.000    23360859.140    91672985.465          50.000  
> 2020  5 15 23 57 38.0000000  0 13       0.000000000000
G 2  23689743.900   124490470.578          50.000                                                  
G 5  21103771.340   110901064.828          50.000                                                  
G12  21742425.500   114257208.992          50.000                                                  
G18  22593368.780   118728951.770          50.000                                                  
G21  23211703.900   121978296.746          50.000                                                  
G25  20595519.100   108230127.414          50.000    20595521.320    80821199.480          50.000  
G29  20985687.240   110280528.258          50.000                                                  
G31  24499949.160   128748102.402          50.000                                                  
E 3  27625678.560   145173863.121          50.000    27625685.440   108409032.879          50.000  
E 5  27066865.560   142237298.328          50.000    27066871.160   106216148.957          50.000  
E15  23707935.480   124586012.000          50.000    23707940.360    93034997.563          50.000  
E27  24503822.300   128768431.746          50.000    24503826.320    96158233.137          50.000  
E30  23361275.740   122764311.777          50.000    23361280.040    91674637.145          50.000  
> 2020  5 15 23 57 39.0000000  0 13       0.000000000000
G 2  23690216.500   124492954.148          50.000                                                  
G 5  21103877.140   110901620.777          50.000                                                  
G12  21742993.600   114260194.375          50.000                                                  
G18  22592897.880   118726477.113          50.000                                                  
G21  23211300.500   121976176.855          50.000                                                  
G25  20595789.260   108231547.105          50.000    20595791.480    80822259.641          50.000  
G29  20985432.000   110279186.934          50.000                                                  
G31  24500065.380   128748713.141          50.000                                                  
E 3  27625188.300   145171286.813          50.000    27625195.200   108407109.012          50.000  
E 5  27066590.640   142235853.602          50.000    27066596.240   106215070.105          50.000  
E15  23707827.580   124585444.953          50.000    23707832.460    93034574.121          50.000  
E27  24503717.620   128767881.715          50.000    24503721.660    96157822.398          50.000  
E30  23361696.720   122766523.965          50.000    23361701.020    91676289.105          50.000  
> 2020  5 15 23 57 40.0000000  0 13       0.000000000000
G 2  23690689.120   124495437.734          50.000                                                  
G 5  21103983.060   110902177.414          50.000                                                  
G12  21743561.780   114263180.148          50.000                                                  
G18  22592427.020   118724002.746          50.000                                                  
G21  23210897.160   121974057.230          50.000                                                  
G25  20596059.540   108232967.398          50.000    20596061.740    80823320.246          50.000  
G29  20985176.800   110277845.824          50.000                                                  
G31  24500181.700   128749324.391          50.000                                                  
E 3  27624698.060   145168710.480          50.000    27624704.940   108405185.133          50.000  
E 5  27066315.780   142234409.219          50.000    27066321.380   106213991.508          50.000  
E15  23707719.720   124584878.086          50.000    23707724.580    93034150.809          50.000  
E27  24503613.060   128767332.148          50.000    24503617.080    96157412.008          50.000  
E30  23362117.740   122768736.477          50.000    23362122.040    91677941.305          50.000  
> 2020  5 15 23 57 41.0000000  0 13       0.000000000000
G 2  23691161.720   124497921.324          50.000                                                  
G 5  21104089.120   110902734.734          50.000                                                  
G12  21744130.020   114266166.332          50.000                                                  
G18  22591956.220   118721528.664          50.000                                                  
G21  23210493.860   121971937.871          50.000                                                  
G25  20596329.920   108234388.309          50.000    20596332.140    80824381.316          50.000  
G29  20984921.640   110276504.934          50.000                                                  
G31  24500298.120   128749936.156          50.000                                                  
E 3  27624207.780   145166134.133          50.000    27624214.680   108403261.238          50.000  
E 5  27066041.000   142232965.156          50.000    27066046.580   106212913.148          50.000  
E15  23707611.880   124584311.363          50.000    23707616.740    93033727.605          50.000  
E27  24503508.560   128766783.070          50.000    24503512.600    96157001.984          50.000  
E30  23362538.840   122770949.316          50.000    23362543.140    91679593.746          50.000  
> 2020  5 15 23 57 42.0000000  0 13       0.000000000000
G 2  23691634.340   124500404.941          50.000                                                  
G 5  21104195.300   110903292.730          50.000                                                  
G12  21744698.360   114269152.914          50.000                                                  
G18  22591485.480   118719054.867          50.000                                                  
G21  23210090.600   121969818.777          50.000                                                  
G25  20596600.440   108235809.824          50.000    20596602.640    80825442.840          50.000  
G29  20984666.520   110275164.254          50.000                                                  
G31  24500414.640   128750548.445          50.000                                                  
E 3  27623717.520   145163557.758          50.000    27623724.400   108401337.320          50.000  
E 5  27065766.260   142231521.410          50.000    27065771.840   106211835.027          50.000  
E15  23707504.060   124583744.797          50.000    23707508.920    93033304.520          50.000  
E27  24503404.180   128766234.453          50.000    24503408.200    96156592.301          50.000  
E30  23362959.980   122773162.492          50.000    23362964.300    91681246.441          50.000  
> 2020  5 15 23 57 43.0000000  0 13       0.000000000000
G 2  23692106.960   124502888.555          50.000                                                  
G 5  21104301.620   110903851.430          50.000                                                  
G12  21745266.760   114272139.891          50.000                                                  
G18  22591014.780   118716581.352          50.000                                                  
G21  23209687.400   121967699.949          50.000                                                  
G25  20596871.060   108237231.949          50.000    20596873.280    80826504.813          50.000  
G29  20984411.440   110273823.797          50.000                                                  
G31  24500531.260   128751161.246          50.000                                                  
E 3  27623227.260   145160981.363          50.000    27623234.140   108399413.395          50.000  
E 5  27065491.580   142230077.984          50.000    27065497.180   106210757.148          50.000  
E15  23707396.280   124583178.398          50.000    23707401.140    93032881.563          50.000  
E27  24503299.860   128765686.313          50.000    24503303.900    96156182.973          50.000  
E30  23363381.200   122775375.996          50.000    23363385.520    91682899.387          50.000  
> 2020  5 15 23 57 44.0000000  0 13       0.000000000000
G 2  23692579.580   124505372.188          50.000                                                  
G 5  21104408.080   110904410.797          50.000                                                  
G12  21745835.240   114275127.266          50.000                                                  
G18  22590544.140   118714108.117          50.000                                                  
G21  23209284.260   121965581.383          50.000                                                  
G25  20597141.800   108238654.676          50.000    20597144.000    80827567.238          50.000  
G29  20984156.400   110272483.555          50.000                                                  
G31  24500647.960   128751774.551          50.000                                                  
E 3  27622736.980   145158404.938          50.000    27622743.860   108397489.441          50.000  
E 5  27065216.980   142228634.891          50.000    27065222.560   106209679.512          50.000  
E15  23707288.520   124582612.152          50.000    23707293.400    93032458.715          50.000  
E27  24503195.660   128765138.652          50.000    24503199.680    96155774.004          50.000  
E30  23363802.500   122777589.848          50.000    23363806.800    91684552.586          50.000  
> 2020  5 15 23 57 45.0000000  0 13       0.000000000000
G 2  23693052.220   124507855.832          50.000                                                  
G 5  21104514.640   110904970.848          50.000                                                  
G12  21746403.800   114278115.035          50.000                                                  
G18  22590073.560   118711635.168          50.000                                                  
G21  23208881.160   121963463.086          50.000                                                  
G25  20597412.640   108240078.020          50.000    20597414.860    80828630.121          50.000  
G29  20983901.400   110271143.539          50.000                                                  
G31  24500764.780   128752388.379          50.000                                                  
E 3  27622246.700   145155828.496          50.000    27622253.580   108395565.477          50.000  
E 5  27064942.420   142227192.113          50.000    27064948.020   106208602.117          50.000  
E15  23707180.800   124582046.059          50.000    23707185.680    93032035.984          50.000  
E27  24503091.520   128764591.461          50.000    24503095.560    96155365.391          50.000  
E30  23364223.840   122779804.039          50.000    23364228.140    91686206.039          50.000  
> 2020  5 15 23 57 46.0000000  0 13       0.000000000000
G 2  23693524.840   124510339.480          50.000                                                  
G 5  21104621.360   110905531.586          50.000                                                  
G12  21746972.440   114281103.195          50.000                                                  
G18  22589603.020   118709162.504          50.000                                                  
G21  23208478.120   121961345.063          50.000                                                  
G25  20597683.620   108241501.965          50.000    20597685.840    80829693.457          50.000  
G29  20983646.440   110269803.723          50.000                                                  
G31  24500881.680   128753002.711          50.000                                                  
E 3  27621756.400   145153252.023          50.000    27621763.300   108393641.488          50.000  
E 5  27064667.940   142225749.668          50.000    27064673.520   106207524.965          50.000  
E15  23707073.120   124581480.133          50.000    23707077.980    93031613.375          50.000  
E27  24502987.500   128764044.750          50.000    24502991.520    96154957.129          50.000  
E30  23364645.260   122782018.563          50.000    23364649.560    91687859.738          50.000  
> 2020  5 15 23 57 47.0000000  0 13       0.000000000000
G 2  23693997.460   124512823.148          50.000                                                  
G 5  21104728.200   110906093.027          50.000                                                  
G12  21747541.140   114284091.758          50.000                                                  
G18  22589132.540   118706690.121          50.000                                                  
G21  23208075.120   121959227.285          50.000                                                  
G25  20597954.700   108242926.520          50.000    20597956.920    80830757.246          50.000  
G29  20983391.540   110268464.137          50.000                                                  
G31  24500998.680   128753617.559          50.000                                                  
E 3  27621266.120   145150675.527          50.000    27621273.000   108391717.480          50.000  
E 5  27064393.520   142224307.547          50.000    27064399.100   106206448.059          50.000  
E15  23706965.460   124580914.359          50.000    23706970.320    93031190.883          50.000  
E27  24502883.560   128763498.516          50.000    24502887.580    96154549.230          50.000  
E30  23365066.720   122784233.418          50.000    23365071.040    91689513.688          50.000  
> 2020  5 15 23 57 48.0000000  0 13       0.000000000000
G 2  23694470.100   124515306.824          50.000                                                  
G 5  21104835.160   110906655.141          50.000                                                  
G12  21748109.920   114287080.719          50.000                                                  
G18  22588662.120   118704218.035          50.000                                                  
G21  23207672.180   121957109.793          50.000                                                  
G25  20598225.900   108244351.684          50.000    20598228.120    80831821.492          50.000  
G29  20983136.660   110267124.766          50.000                                                  
G31  24501115.780   128754232.926          50.000                                                  
E 3  27620775.820   145148099.004          50.000    27620782.700   108389793.457          50.000  
E 5  27064119.160   142222865.750          50.000    27064124.740   106205371.391          50.000  
E15  23706857.820   124580348.750          50.000    23706862.700    93030768.512          50.000  
E27  24502779.700   128762952.746          50.000    24502783.740    96154141.672          50.000  
E30  23365488.260   122786448.609          50.000    23365492.580    91691167.887          50.000  
> 2020  5 15 23 57 49.0000000  0 13       0.000000000000
G 2  23694942.720   124517790.504          50.000                                                  
G 5  21104942.260   110907217.945          50.000                                                  
G12  21748678.780   114290070.082          50.000                                                  
G18  22588191.760   118701746.227          50.000                                                  
G21  23207269.280   121954992.555          50.000                                                  
G25  20598497.220   108245777.449          50.000    20598499.440    80832886.191          50.000  
G29  20982881.840   110265785.621          50.000                                                  
G31  24501232.980   128754848.805          50.000                                                  
E 3  27620285.520   145145522.457          50.000    27620292.400   108387869.414          50.000  
E 5  27063844.840   142221424.273          50.000    27063850.440   106204294.965          50.000  
E15  23706750.220   124579783.289          50.000    23706755.100    93030346.254          50.000  
E27  24502675.940   128762407.461          50.000    24502679.980    96153734.480          50.000  
E30  23365909.880   122788664.137          50.000    23365914.180    91692822.340          50.000  
> 2020  5 15 23 57 50.0000000  0 13       0.000000000000
G 2  23695415.360   124520274.203          50.000                                                  
G 5  21105049.500   110907781.422          50.000                                                  
G12  21749247.720   114293059.836          50.000                                                  
G18  22587721.440   118699274.703          50.000                                                  
G21  23206866.440   121952875.590          50.000                                                  
G25  20598768.660   108247203.832          50.000    20598770.880    80833951.348          50.000  
G29  20982627.040   110264446.688          50.000                                                  
G31  24501350.280   128755465.195          50.000                                                  
E 3  27619795.220   145142945.891          50.000    27619802.100   108385945.355          50.000  
E 5  27063570.600   142219983.113          50.000    27063576.200   106203218.773          50.000  
E15  23706642.660   124579217.996          50.000    23706647.520    93029924.117          50.000  
E27  24502572.260   128761862.652          50.000    24502576.300    96153327.641          50.000  
E30  23366331.540   122790880.004          50.000    23366335.840    91694477.047          50.000  
> 2020  5 15 23 57 51.0000000  0 13       0.000000000000
G 2  23695888.000   124522757.914          50.000                                                  
G 5  21105156.860   110908345.594          50.000                                                  
G12  21749816.720   114296049.988          50.000                                                  
G18  22587251.180   118696803.461          50.000                                                  
G21  23206463.640   121950758.895          50.000                                                  
G25  20599040.200   108248630.816          50.000    20599042.420    80835016.949          50.000  
G29  20982372.300   110263107.973          50.000                                                  
G31  24501467.680   128756082.113          50.000                                                  
E 3  27619304.920   145140369.301          50.000    27619311.800   108384021.281          50.000  
E 5  27063296.420   142218542.281          50.000    27063302.020   106202142.828          50.000  
E15  23706535.120   124578652.848          50.000    23706539.980    93029502.094          50.000  
E27  24502468.680   128761318.313          50.000    24502472.720    96152921.152          50.000  
E30  23366753.280   122793096.203          50.000    23366757.580    91696132.000          50.000  
> 2020  5 15 23 57 52.0000000  0 13       0.000000000000
G 2  23696360.640   124525241.641          50.000                                                  
G 5  21105264.340   110908910.441          50.000                                                  
G12  21750385.800   114299040.531          50.000                                                  
G18  22586780.980   118694332.508          50.000                                                  
G21  23206060.900   121948642.457          50.000                                                  
G25  20599311.860   108250058.402          50.000    20599314.080    80836083.004          50.000  
G29  20982117.600   110261769.477          50.000                                                  
G31  24501585.180   128756699.535          50.000                                                  
E 3  27618814.600   145137792.699          50.000    27618821.480   108382097.195          50.000  
E 5  27063022.320   142217101.785          50.000    27063027.900   106201067.137          50.000  
E15  23706427.600   124578087.875          50.000    23706432.480    93029080.199          50.000  
E27  24502365.180   128760774.453          50.000    24502369.220    96152515.027          50.000  
E30  23367175.060   122795312.738          50.000    23367179.380    91697787.203          50.000  
> 2020  5 15 23 57 53.0000000  0 13       0.000000000000
G 2  23696833.280   124527725.371          50.000                                                  
G 5  21105371.960   110909475.988          50.000                                                  
G12  21750954.980   114302031.480          50.000                                                  
G18  22586310.820   118691861.836          50.000                                                  
G21  23205658.200   121946526.285          50.000                                                  
G25  20599583.640   108251486.602          50.000    20599585.860    80837149.516          50.000  
G29  20981862.920   110260431.199          50.000                                                  
G31  24501702.760   128757317.461          50.000                                                  
E 3  27618324.280   145135216.051          50.000    27618331.160   108380173.078          50.000  
E 5  27062748.260   142215661.602          50.000    27062753.840   106199991.672          50.000  
E15  23706320.120   124577523.051          50.000    23706325.000    93028658.414          50.000  
E27  24502261.780   128760231.066          50.000    24502265.820    96152109.250          50.000  
E30  23367596.920   122797529.598          50.000    23367601.220    91699442.648          50.000  
> 2020  5 15 23 57 54.0000000  0 13       0.000000000000
G 2  23697305.920   124530209.113          50.000                                                  
G 5  21105479.720   110910042.207          50.000                                                  
G12  21751524.200   114305022.828          50.000                                                  
G18  22585840.720   118689391.453          50.000                                                  
G21  23205255.560   121944410.383          50.000                                                  
G25  20599855.540   108252915.414          50.000    20599857.760    80838216.484          50.000  
G29  20981608.300   110259093.137          50.000                                                  
G31  24501820.460   128757935.914          50.000                                                  
E 3  27617833.960   145132639.391          50.000    27617840.840   108378248.949          50.000  
E 5  27062474.260   142214221.750          50.000    27062479.860   106198916.461          50.000  
E15  23706212.680   124576958.387          50.000    23706217.540    93028236.750          50.000  
E27  24502158.480   128759688.148          50.000    24502162.520    96151703.824          50.000  
E30  23368018.840   122799746.801          50.000    23368023.160    91701098.352          50.000  
> 2020  5 15 23 57 55.0000000  0 13       0.000000000000
G 2  23697778.580   124532692.867          50.000                                                  
G 5  21105587.600   110910609.117          50.000                                                  
G12  21752093.520   114308014.574          50.000                                                  
G18  22585370.680   118686921.359          50.000                                                  
G21  23204852.980   121942294.746          50.000                                                  
G25  20600127.560   108254344.828          50.000    20600129.780    80839283.906          50.000  
G29  20981353.720   110257755.301          50.000                                                  
G31  24501938.240   128758554.875          50.000                                                  
E 3  27617343.640   145130062.707          50.000    27617350.520   108376324.805          50.000  
E 5  27062200.340   142212782.219          50.000    27062205.920   106197841.484          50.000  
E15  23706105.260   124576393.883          50.000    23706110.120    93027815.203          50.000  
E27  24502055.260   128759145.711          50.000    24502059.300    96151298.758          50.000  
E30  23368440.840   122801964.336          50.000    23368445.140    91702754.305          50.000  
> 2020  5 15 23 57 56.0000000  0 13       0.000000000000
G 2  23698251.220   124535176.633          50.000                                                  
G 5  21105695.600   110911176.711          50.000                                                  
G12  21752662.900   114311006.715          50.000                                                  
G18  22584900.700   118684451.543          50.000                                                  
G21  23204450.440   121940179.371          50.000                                                  
G25  20600399.680   108255774.852          50.000    20600401.900    80840351.777          50.000  
G29  20981099.180   110256417.680          50.000                                                  
G31  24502056.120   128759174.359          50.000                                                  
E 3  27616853.300   145127486.008          50.000    27616860.180   108374400.648          50.000  
E 5  27061926.460   142211343.016          50.000    27061932.040   106196766.758          50.000  
E15  23705997.860   124575829.531          50.000    23706002.740    93027393.770          50.000  
E27  24501952.120   128758603.754          50.000    24501956.160    96150894.047          50.000  
E30  23368862.880   122804182.219          50.000    23368867.180    91704410.512          50.000  
> 2020  5 15 23 57 57.0000000  0 13       0.000000000000
G 2  23698723.860   124537660.406          50.000                                                  
G 5  21105803.740   110911744.984          50.000                                                  
G12  21753232.380   114313999.246          50.000                                                  
G18  22584430.760   118681982.016          50.000                                                  
G21  23204047.940   121938064.258          50.000                                                  
G25  20600671.920   108257205.480          50.000    20600674.140    80841420.105          50.000  
G29  20980844.680   110255080.277          50.000                                                  
G31  24502174.100   128759794.348          50.000                                                  
E 3  27616362.980   145124909.277          50.000    27616369.860   108372476.469          50.000  
E 5  27061652.660   142209904.141          50.000    27061658.240   106195692.273          50.000  
E15  23705890.500   124575265.348          50.000    23705895.380    93026972.465          50.000  
E27  24501849.080   128758062.270          50.000    24501853.120    96150489.691          50.000  
E30  23369285.000   122806400.430          50.000    23369289.300    91706066.969          50.000  
> 2020  5 15 23 57 58.0000000  0 13       0.000000000000
G 2  23699196.520   124540144.195          50.000                                                  
G 5  21105912.020   110912313.961          50.000                                                  
G12  21753801.900   114316992.172          50.000                                                  
G18  22583960.880   118679512.766          50.000                                                  
G21  23203645.500   121935949.410          50.000                                                  
G25  20600944.280   108258636.711          50.000    20600946.500    80842488.883          50.000  
G29  20980590.220   110253743.078          50.000                                                  
G31  24502292.180   128760414.855          50.000                                                  
E 3  27615872.640   145122332.527          50.000    27615879.520   108370552.273          50.000  
E 5  27061378.900   142208465.582          50.000    27061384.500   106194618.027          50.000  
E15  23705783.180   124574701.316          50.000    23705788.040    93026551.273          50.000  
E27  24501746.140   128757521.258          50.000    24501750.180    96150085.691          50.000  
E30  23369707.180   122808618.973          50.000    23369711.480    91707723.672          50.000  
> 2020  5 15 23 57 59.0000000  0 13       0.000000000000
G 2  23699669.180   124542627.992          50.000                                                  
G 5  21106020.420   110912883.605          50.000                                                  
G12  21754371.520   114319985.500          50.000                                                  
G18  22583491.060   118677043.805          50.000                                                  
G21  23203243.100   121933834.828          50.000                                                  
G25  20601216.760   108260068.559          50.000    20601218.980    80843558.117          50.000  
G29  20980335.820   110252406.109          50.000                                                  
G31  24502410.360   128761035.875          50.000                                                  
E 3  27615382.300   145119755.750          50.000    27615389.180   108368628.059          50.000  
E 5  27061105.220   142207027.344          50.000    27061110.800   106193544.016          50.000  
E15  23705675.880   124574137.441          50.000    23705680.740    93026130.199          50.000  
E27  24501643.280   128756980.723          50.000    24501647.320    96149682.043          50.000  
E30  23370129.420   122810837.855          50.000    23370133.720    91709380.625          50.000  
> 2020  5 15 23 58  0.0000000  0 13       0.000000000000
G 2  23700141.840   124545111.801          50.000                                                  
G 5  21106128.960   110913453.938          50.000                                                  
G12  21754941.220   114322979.215          50.000                                                  
G18  22583021.280   118674575.133          50.000                                                  
G21  23202840.760   121931720.512          50.000                                                  
G25  20601489.340   108261501.004          50.000    20601491.560    80844627.801          50.000  
G29  20980081.440   110251069.363          50.000                                                  
G31  24502528.640   128761657.410          50.000                                                  
E 3  27614891.940   145117178.965          50.000    27614898.820   108366703.832          50.000  
E 5  27060831.600   142205589.438          50.000    27060837.180   106192470.254          50.000  
E15  23705568.600   124573573.727          50.000    23705573.480    93025709.238          50.000  
E27  24501540.520   128756440.664          50.000    24501544.540    96149278.750          50.000  
E30  23370551.720   122813057.055          50.000    23370556.020    91711037.816          50.000  
> 2020  5 15 23 58  1.0000000  0 13       0.000000000000
G 2  23700614.480   124547595.617          50.000                                                  
G 5  21106237.620   110914024.965          50.000                                                  
G12  21755510.980   114325973.336          50.000                                                  
G18  22582551.560   118672106.746          50.000                                                  
G21  23202438.480   121929606.469          50.000                                                  
G25  20601762.040   108262934.059          50.000    20601764.260    80845697.934          50.000  
G29  20979827.100   110249732.824          50.000                                                  
G31  24502647.020   128762279.453          50.000                                                  
E 3  27614401.600   145114602.148          50.000    27614408.480   108364779.586          50.000  
E 5  27060558.040   142204151.863          50.000    27060563.620   106191396.734          50.000  
E15  23705461.360   124573010.172          50.000    23705466.240    93025288.398          50.000  
E27  24501437.840   128755901.086          50.000    24501441.880    96148875.813          50.000  
E30  23370974.080   122815276.609          50.000    23370978.400    91712695.273          50.000  
> 2020  5 15 23 58  2.0000000  0 13       0.000000000000
G 2  23701087.140   124550079.449          50.000                                                  
G 5  21106346.420   110914596.672          50.000                                                  
G12  21756080.820   114328967.852          50.000                                                  
G18  22582081.900   118669638.645          50.000                                                  
G21  23202036.240   121927492.684          50.000                                                  
G25  20602034.860   108264367.727          50.000    20602037.080    80846768.531          50.000  
G29  20979572.820   110248396.516          50.000                                                  
G31  24502765.500   128762902.016          50.000                                                  
E 3  27613911.240   145112025.316          50.000    27613918.120   108362855.324          50.000  
E 5  27060284.540   142202714.613          50.000    27060290.120   106190323.461          50.000  
E15  23705354.160   124572446.773          50.000    23705359.020    93024867.676          50.000  
E27  24501335.240   128755361.980          50.000    24501339.280    96148473.230          50.000  
E30  23371396.520   122817496.488          50.000    23371400.820    91714352.969          50.000  
> 2020  5 15 23 58  3.0000000  0 13       0.000000000000
G 2  23701559.800   124552563.289          50.000                                                  
G 5  21106455.340   110915169.055          50.000                                                  
G12  21756650.740   114331962.758          50.000                                                  
G18  22581612.300   118667170.824          50.000                                                  
G21  23201634.060   121925379.172          50.000                                                  
G25  20602307.800   108265801.992          50.000    20602310.020    80847839.574          50.000  
G29  20979318.580   110247060.422          50.000                                                  
G31  24502884.060   128763525.078          50.000                                                  
E 3  27613420.880   145109448.457          50.000    27613427.760   108360931.043          50.000  
E 5  27060011.100   142201277.680          50.000    27060016.680   106189250.422          50.000  
E15  23705246.980   124571883.543          50.000    23705251.840    93024447.074          50.000  
E27  24501232.740   128754823.352          50.000    24501236.780    96148071.004          50.000  
E30  23371819.000   122819716.719          50.000    23371823.320    91716010.930          50.000  
> 2020  5 15 23 58  4.0000000  0 13       0.000000000000
G 2  23702032.480   124555047.137          50.000                                                  
G 5  21106564.400   110915742.137          50.000                                                  
G12  21757220.720   114334958.063          50.000                                                  
G18  22581142.740   118664703.285          50.000                                                  
G21  23201231.920   121923265.922          50.000                                                  
G25  20602580.860   108267236.879          50.000    20602583.080    80848911.082          50.000  
G29  20979064.360   110245724.535          50.000                                                  
G31  24503002.720   128764148.664          50.000                                                  
E 3  27612930.520   145106871.574          50.000    27612937.400   108359006.746          50.000  
E 5  27059737.720   142199841.086          50.000    27059743.320   106188177.637          50.000  
E15  23705139.820   124571320.461          50.000    23705144.700    93024026.590          50.000  
E27  24501130.340   128754285.191          50.000    24501134.380    96147669.125          50.000  
E30  23372241.560   122821937.277          50.000    23372245.880    91717669.133          50.000  
> 2020  5 15 23 58  5.0000000  0 13       0.000000000000
G 2  23702505.140   124557531.027          50.000                                                  
G 5  21106673.580   110916315.902          50.000                                                  
G12  21757790.780   114337953.836          50.000                                                  
G18  22580673.220   118662236.160          50.000                                                  
G21  23200829.800   121921153.129          50.000                                                  
G25  20602854.020   108268672.363          50.000    20602856.240    80849983.031          50.000  
G29  20978810.200   110244388.859          50.000                                                  
G31  24503121.500   128764772.680          50.000                                                  
E 3  27612440.120   145104294.824          50.000    27612446.960   108357082.648          50.000  
E 5  27059464.400   142198404.816          50.000    27059470.000   106187105.105          50.000  
E15  23705032.700   124570757.535          50.000    23705037.580    93023606.223          50.000  
E27  24501028.040   128753747.461          50.000    24501032.080    96147267.543          50.000  
E30  23372664.200   122824158.098          50.000    23372668.520    91719327.496          50.000  
> 2020  5 15 23 58  6.0000000  0 13       0.000000000000
G 2  23702977.800   124560014.891          50.000                                                  
G 5  21106782.900   110916890.359          50.000                                                  
G12  21758360.920   114340949.926          50.000                                                  
G18  22580203.760   118659769.191          50.000                                                  
G21  23200427.760   121919040.410          50.000                                                  
G25  20603127.300   108270108.457          50.000    20603129.520    80851055.438          50.000  
G29  20978556.080   110243053.426          50.000                                                  
G31  24503240.360   128765397.285          50.000                                                  
E 3  27611949.740   145101717.898          50.000    27611956.600   108355158.320          50.000  
E 5  27059191.160   142196968.852          50.000    27059196.740   106186032.797          50.000  
E15  23704925.620   124570194.766          50.000    23704930.480    93023185.973          50.000  
E27  24500925.800   128753210.254          50.000    24500929.860    96146866.383          50.000  
E30  23373086.900   122826379.320          50.000    23373091.220    91720986.203          50.000  
> 2020  5 15 23 58  7.0000000  0 13       0.000000000000
G 2  23703450.460   124562498.770          50.000                                                  
G 5  21106892.360   110917465.516          50.000                                                  
G12  21758931.140   114343946.426          50.000                                                  
G18  22579734.380   118657302.504          50.000                                                  
G21  23200025.780   121916927.961          50.000                                                  
G25  20603400.700   108271545.152          50.000    20603402.920    80852128.297          50.000  
G29  20978302.000   110241718.199          50.000                                                  
G31  24503359.320   128766022.402          50.000                                                  
E 3  27611459.360   145099140.941          50.000    27611466.220   108353233.973          50.000  
E 5  27058917.960   142195533.227          50.000    27058923.560   106184960.738          50.000  
E15  23704818.560   124569632.156          50.000    23704823.420    93022765.844          50.000  
E27  24500823.680   128752673.523          50.000    24500827.720    96146465.578          50.000  
E30  23373509.640   122828600.859          50.000    23373513.960    91722645.145          50.000  
> 2020  5 15 23 58  8.0000000  0 13       0.000000000000
G 2  23703923.140   124564982.660          50.000                                                  
G 5  21107001.940   110918041.344          50.000                                                  
G12  21759501.420   114346943.305          50.000                                                  
G18  22579265.040   118654836.109          50.000                                                  
G21  23199623.840   121914815.773          50.000                                                  
G25  20603674.200   108272982.465          50.000    20603676.420    80853201.613          50.000  
G29  20978047.960   110240383.195          50.000                                                  
G31  24503478.380   128766648.035          50.000                                                  
E 3  27610968.980   145096563.961          50.000    27610975.840   108351309.605          50.000  
E 5  27058644.840   142194097.918          50.000    27058650.420   106183888.914          50.000  
E15  23704711.520   124569069.703          50.000    23704716.400    93022345.828          50.000  
E27  24500721.620   128752137.254          50.000    24500725.680    96146065.117          50.000  
E30  23373932.460   122830822.750          50.000    23373936.780    91724304.348          50.000  
> 2020  5 15 23 58  9.0000000  0 13       0.000000000000
G 2  23704395.820   124567466.566          50.000                                                  
G 5  21107111.640   110918617.863          50.000                                                  
G12  21760071.780   114349940.586          50.000                                                  
G18  22578795.760   118652369.992          50.000                                                  
G21  23199221.960   121912703.855          50.000                                                  
G25  20603947.840   108274420.383          50.000    20603950.060    80854275.383          50.000  
G29  20977793.960   110239048.414          50.000                                                  
G31  24503597.540   128767274.176          50.000                                                  
E 3  27610478.600   145093986.969          50.000    27610485.440   108349385.227          50.000  
E 5  27058371.760   142192662.949          50.000    27058377.360   106182817.352          50.000  
E15  23704604.520   124568507.410          50.000    23704609.400    93021925.934          50.000  
E27  24500619.680   128751601.469          50.000    24500623.720    96145665.016          50.000  
E30  23374355.320   122833044.965          50.000    23374359.660    91725963.793          50.000  
> 2020  5 15 23 58 10.0000000  0 13       0.000000000000
G 2  23704868.500   124569950.484          50.000                                                  
G 5  21107221.480   110919195.070          50.000                                                  
G12  21760642.240   114352938.270          50.000                                                  
G18  22578326.520   118649904.172          50.000                                                  
G21  23198820.120   121910592.195          50.000                                                  
G25  20604221.580   108275858.895          50.000    20604223.800    80855349.598          50.000  
G29  20977540.000   110237713.848          50.000                                                  
G31  24503716.780   128767900.832          50.000                                                  
E 3  27609988.200   145091409.945          50.000    27609995.060   108347460.828          50.000  
E 5  27058098.760   142191228.293          50.000    27058104.360   106181746.016          50.000  
E15  23704497.560   124567945.273          50.000    23704502.420    93021506.156          50.000  
E27  24500517.800   128751066.160          50.000    24500521.860    96145265.273          50.000  
E30  23374778.260   122835267.520          50.000    23374782.600    91727623.492          50.000  
> 2020  5 15 23 58 11.0000000  0 13       0.000000000000
G 2  23705341.160   124572434.406          50.000                                                  
G 5  21107331.460   110919772.957          50.000                                                  
G12  21761212.740   114355936.348          50.000                                                  
G18  22577857.340   118647438.625          50.000                                                  
G21  23198418.340   121908480.809          50.000                                                  
G25  20604495.440   108277298.027          50.000    20604497.660    80856424.270          50.000  
G29  20977286.080   110236379.504          50.000                                                  
G31  24503836.140   128768528.012          50.000                                                  
E 3  27609497.800   145088832.895          50.000    27609504.660   108345536.410          50.000  
E 5  27057825.820   142189793.953          50.000    27057831.400   106180674.918          50.000  
E15  23704390.620   124567383.285          50.000    23704395.480    93021086.492          50.000  
E27  24500416.040   128750531.336          50.000    24500420.080    96144865.891          50.000  
E30  23375201.280   122837490.410          50.000    23375205.600    91729283.441          50.000  
> 2020  5 15 23 58 12.0000000  0 13       0.000000000000
G 2  23705813.840   124574918.336          50.000                                                  
G 5  21107441.560   110920351.520          50.000                                                  
G12  21761783.340   114358934.813          50.000                                                  
G18  22577388.220   118644973.367          50.000                                                  
G21  23198016.620   121906369.688          50.000                                                  
G25  20604769.420   108278737.754          50.000    20604771.640    80857499.391          50.000  
G29  20977032.200   110235045.379          50.000                                                  
G31  24503955.580   128769155.684          50.000                                                  
E 3  27609007.420   145086255.832          50.000    27609014.260   108343611.984          50.000  
E 5  27057552.940   142188359.945          50.000    27057558.520   106179604.070          50.000  
E15  23704283.700   124566821.469          50.000    23704288.580    93020666.953          50.000  
E27  24500314.360   128749996.984          50.000    24500318.400    96144466.863          50.000  
E30  23375624.340   122839713.637          50.000    23375628.660    91730943.641          50.000  
> 2020  5 15 23 58 13.0000000  0 13       0.000000000000
G 2  23706286.520   124577402.277          50.000                                                  
G 5  21107551.780   110920930.770          50.000                                                  
G12  21762354.000   114361933.672          50.000                                                  
G18  22576919.160   118642508.391          50.000                                                  
G21  23197614.920   121904258.828          50.000                                                  
G25  20605043.500   108280178.090          50.000    20605045.720    80858574.965          50.000  
G29  20976778.380   110233711.469          50.000                                                  
G31  24504075.120   128769783.887          50.000                                                  
E 3  27608517.020   145083678.750          50.000    27608523.860   108341687.539          50.000  
E 5  27057280.120   142186926.266          50.000    27057285.720   106178533.465          50.000  
E15  23704176.820   124566259.801          50.000    23704181.700    93020247.527          50.000  
E27  24500212.760   128749463.094          50.000    24500216.820    96144068.176          50.000  
E30  23376047.480   122841937.195          50.000    23376051.800    91732604.090          50.000  
> 2020  5 15 23 58 14.0000000  0 13       0.000000000000
G 2  23706759.220   124579886.230          50.000                                                  
G 5  21107662.140   110921510.699          50.000                                                  
G12  21762924.760   114364932.926          50.000                                                  
G18  22576450.140   118640043.703          50.000                                                  
G21  23197213.300   121902148.238          50.000                                                  
G25  20605317.700   108281619.035          50.000    20605319.920    80859650.996          50.000  
G29  20976524.580   110232377.789          50.000                                                  
G31  24504194.760   128770412.594          50.000                                                  
E 3  27608026.600   145081101.637          50.000    27608033.460   108339763.074          50.000  
E 5  27057007.360   142185492.906          50.000    27057012.960   106177463.102          50.000  
E15  23704069.980   124565698.289          50.000    23704074.860    93019828.215          50.000  
E27  24500111.260   128748929.691          50.000    24500115.320    96143669.859          50.000  
E30  23376470.660   122844161.082          50.000    23376475.000    91734264.781          50.000  
> 2020  5 15 23 58 15.0000000  0 13       0.000000000000
G 2  23707231.900   124582370.195          50.000                                                  
G 5  21107772.640   110922091.313          50.000                                                  
G12  21763495.560   114367932.586          50.000                                                  
G18  22575981.180   118637579.316          50.000                                                  
G21  23196811.720   121900037.918          50.000                                                  
G25  20605592.040   108283060.594          50.000    20605594.260    80860727.484          50.000  
G29  20976270.840   110231044.328          50.000                                                  
G31  24504314.500   128771041.820          50.000                                                  
E 3  27607536.200   145078524.512          50.000    27607543.040   108337838.598          50.000  
E 5  27056734.680   142184059.883          50.000    27056740.260   106176392.988          50.000  
E15  23703963.160   124565136.941          50.000    23703968.040    93019409.027          50.000  
E27  24500009.840   128748396.758          50.000    24500013.900    96143271.887          50.000  
E30  23376893.920   122846385.305          50.000    23376898.260    91735925.727          50.000  
> 2020  5 15 23 58 16.0000000  0 13       0.000000000000
G 2  23707704.580   124584854.176          50.000                                                  
G 5  21107883.260   110922672.613          50.000                                                  
G12  21764066.460   114370932.637          50.000                                                  
G18  22575512.280   118635115.199          50.000                                                  
G21  23196410.200   121897927.871          50.000                                                  
G25  20605866.460   108284502.746          50.000    20605868.680    80861804.418          50.000  
G29  20976017.140   110229711.070          50.000                                                  
G31  24504434.340   128771671.555          50.000                                                  
E 3  27607045.780   145075947.363          50.000    27607052.640   108335914.105          50.000  
E 5  27056462.040   142182627.188          50.000    27056467.620   106175323.117          50.000  
E15  23703856.380   124564575.762          50.000    23703861.240    93018989.961          50.000  
E27  24499908.520   128747864.313          50.000    24499912.580    96142874.281          50.000  
E30  23377317.240   122848609.871          50.000    23377321.580    91737586.930          50.000  
> 2020  5 15 23 58 17.0000000  0 13       0.000000000000
G 2  23708177.280   124587338.164          50.000                                                  
G 5  21107994.000   110923254.598          50.000                                                  
G12  21764637.440   114373933.078          50.000                                                  
G18  22575043.440   118632651.367          50.000                                                  
G21  23196008.720   121895818.078          50.000                                                  
G25  20606141.020   108285945.516          50.000    20606143.240    80862881.809          50.000  
G29  20975763.460   110228378.039          50.000                                                  
G31  24504554.280   128772301.797          50.000                                                  
E 3  27606555.360   145073370.188          50.000    27606562.220   108333989.594          50.000  
E 5  27056189.460   142181194.820          50.000    27056195.060   106174253.492          50.000  
E15  23703749.600   124564014.719          50.000    23703754.480    93018571.000          50.000  
E27  24499807.300   128747332.332          50.000    24499811.360    96142477.023          50.000  
E30  23377740.640   122850834.762          50.000    23377744.960    91739248.371          50.000  
> 2020  5 15 23 58 18.0000000  0 13       0.000000000000
G 2  23708649.980   124589822.164          50.000                                                  
G 5  21108104.880   110923837.270          50.000                                                  
G12  21765208.480   114376933.914          50.000                                                  
G18  22574574.640   118630187.816          50.000                                                  
G21  23195607.280   121893708.555          50.000                                                  
G25  20606415.680   108287388.883          50.000    20606417.900    80863959.648          50.000  
G29  20975509.840   110227045.230          50.000                                                  
G31  24504674.320   128772932.559          50.000                                                  
E 3  27606064.940   145070792.992          50.000    27606071.780   108332065.066          50.000  
E 5  27055916.960   142179762.770          50.000    27055922.540   106173184.105          50.000  
E15  23703642.880   124563453.848          50.000    23703647.760    93018152.172          50.000  
E27  24499706.160   128746800.840          50.000    24499710.220    96142080.129          50.000  
E30  23378164.080   122853059.988          50.000    23378168.420    91740910.066          50.000  
> 2020  5 15 23 58 19.0000000  0 13       0.000000000000
G 2  23709122.660   124592306.176          50.000                                                  
G 5  21108215.900   110924420.621          50.000                                                  
G12  21765779.600   114379935.148          50.000                                                  
G18  22574105.900   118627724.559          50.000                                                  
G21  23195205.900   121891599.293          50.000                                                  
G25  20606690.460   108288832.855          50.000    20606692.680    80865037.938          50.000  
G29  20975256.260   110225712.633          50.000                                                  
G31  24504794.440   128773563.824          50.000                                                  
E 3  27605574.520   145068215.781          50.000    27605581.360   108330140.527          50.000  
E 5  27055644.520   142178331.047          50.000    27055650.100   106172114.961          50.000  
E15  23703536.180   124562893.121          50.000    23703541.060    93017733.445          50.000  
E27  24499605.120   128746269.809          50.000    24499609.160    96141683.582          50.000  
E30  23378587.600   122855285.543          50.000    23378591.920    91742572.008          50.000  
> 2020  5 15 23 58 20.0000000  0 13       0.000000000000
G 2  23709595.360   124594790.199          50.000                                                  
G 5  21108327.040   110925004.664          50.000                                                  
G12  21766350.780   114382936.785          50.000                                                  
G18  22573637.200   118625261.578          50.000                                                  
G21  23194804.580   121889490.301          50.000                                                  
G25  20606965.360   108290277.449          50.000    20606967.580    80866116.691          50.000  
G29  20975002.720   110224380.266          50.000                                                  
G31  24504914.660   128774195.609          50.000                                                  
E 3  27605084.080   145065638.543          50.000    27605090.920   108328215.969          50.000  
E 5  27055372.120   142176899.645          50.000    27055377.720   106171046.059          50.000  
E15  23703429.520   124562332.566          50.000    23703434.380    93017314.848          50.000  
E27  24499504.160   128745739.262          50.000    24499508.200    96141287.391          50.000  
E30  23379011.180   122857511.445          50.000    23379015.500    91744234.203          50.000  
> 2020  5 15 23 58 21.0000000  0 13       0.000000000000
G 2  23710068.060   124597274.219          50.000                                                  
G 5  21108438.300   110925589.398          50.000                                                  
G12  21766922.060   114385938.820          50.000                                                  
G18  22573168.580   118622798.891          50.000                                                  
G21  23194403.300   121887381.574          50.000                                                  
G25  20607240.380   108291722.637          50.000    20607242.600    80867195.891          50.000  
G29  20974749.220   110223048.109          50.000                                                  
G31  24505035.000   128774827.902          50.000                                                  
E 3  27604593.640   145063061.285          50.000    27604600.500   108326291.391          50.000  
E 5  27055099.800   142175468.570          50.000    27055105.400   106169977.398          50.000  
E15  23703322.880   124561772.172          50.000    23703327.740    93016896.375          50.000  
E27  24499403.280   128745209.188          50.000    24499407.340    96140891.559          50.000  
E30  23379434.820   122859737.672          50.000    23379439.140    91745896.645          50.000  
> 2020  5 15 23 58 22.0000000  0 13       0.000000000000
G 2  23710540.760   124599758.246          50.000                                                  
G 5  21108549.720   110926174.820          50.000                                                  
G12  21767493.400   114388941.242          50.000                                                  
G18  22572700.000   118620336.488          50.000                                                  
G21  23194002.080   121885273.117          50.000                                                  
G25  20607515.500   108293168.434          50.000    20607517.720    80868275.543          50.000  
G29  20974495.760   110221716.168          50.000                                                  
G31  24505155.420   128775460.719          50.000                                                  
E 3  27604103.200   145060484.000          50.000    27604110.060   108324366.797          50.000  
E 5  27054827.540   142174037.820          50.000    27054833.140   106168908.984          50.000  
E15  23703216.260   124561211.926          50.000    23703221.140    93016478.008          50.000  
E27  24499302.500   128744679.586          50.000    24499306.560    96140496.078          50.000  
E30  23379858.520   122861964.227          50.000    23379862.840    91747559.332          50.000  
> 2020  5 15 23 58 23.0000000  0 13       0.000000000000
G 2  23711013.460   124602242.289          50.000                                                  
G 5  21108661.240   110926760.910          50.000                                                  
G12  21768064.820   114391944.066          50.000                                                  
G18  22572231.480   118617874.371          50.000                                                  
G21  23193600.900   121883164.926          50.000                                                  
G25  20607790.740   108294614.832          50.000    20607792.980    80869355.645          50.000  
G29  20974242.360   110220384.457          50.000                                                  
G31  24505275.940   128776094.047          50.000                                                  
E 3  27603612.760   145057906.711          50.000    27603619.620   108322442.199          50.000  
E 5  27054555.340   142172607.398          50.000    27054560.940   106167840.813          50.000  
E15  23703109.680   124560651.828          50.000    23703114.560    93016059.754          50.000  
E27  24499201.820   128744150.457          50.000    24499205.880    96140100.949          50.000  
E30  23380282.280   122864191.117          50.000    23380286.600    91749222.266          50.000  
> 2020  5 15 23 58 24.0000000  0 13       0.000000000000
G 2  23711486.160   124604726.348          50.000                                                  
G 5  21108772.900   110927347.699          50.000                                                  
G12  21768636.320   114394947.277          50.000                                                  
G18  22571763.000   118615412.539          50.000                                                  
G21  23193199.780   121881057.000          50.000                                                  
G25  20608066.100   108296061.840          50.000    20608068.320    80870436.203          50.000  
G29  20973988.980   110219052.961          50.000                                                  
G31  24505396.560   128776727.883          50.000                                                  
E 3  27603122.320   145055329.387          50.000    27603129.160   108320517.578          50.000  
E 5  27054283.220   142171177.305          50.000    27054288.800   106166772.883          50.000  
E15  23703003.140   124560091.898          50.000    23703008.000    93015641.625          50.000  
E27  24499101.220   128743621.809          50.000    24499105.280    96139706.180          50.000  
E30  23380706.120   122866418.344          50.000    23380710.440    91750885.453          50.000  
> 2020  5 15 23 58 25.0000000  0 13       0.000000000000
G 2  23711958.860   124607210.414          50.000                                                  
G 5  21108884.700   110927935.160          50.000                                                  
G12  21769207.900   114397950.895          50.000                                                  
G18  22571294.580   118612950.992          50.000                                                  
G21  23192798.700   121878949.344          50.000                                                  
G25  20608341.580   108297509.453          50.000    20608343.800    80871517.215          50.000  
G29  20973735.640   110217721.684          50.000                                                  
G31  24505517.260   128777362.223          50.000                                                  
E 3  27602631.860   145052752.035          50.000    27602638.720   108318592.934          50.000  
E 5  27054011.140   142169747.539          50.000    27054016.720   106165705.203          50.000  
E15  23702896.620   124559532.125          50.000    23702901.500    93015223.609          50.000  
E27  24499000.720   128743093.645          50.000    24499004.780    96139311.770          50.000  
E30  23381130.000   122868645.898          50.000    23381134.340    91752548.887          50.000  
> 2020  5 15 23 58 26.0000000  0 13       0.000000000000
G 2  23712431.560   124609694.488          50.000                                                  
G 5  21108996.620   110928523.309          50.000                                                  
G12  21769779.540   114400954.895          50.000                                                  
G18  22570826.220   118610489.727          50.000                                                  
G21  23192397.680   121876841.945          50.000                                                  
G25  20608617.160   108298957.672          50.000    20608619.400    80872598.672          50.000  
G29  20973482.360   110216390.629          50.000                                                  
G31  24505638.080   128777997.094          50.000                                                  
E 3  27602141.400   145050174.676          50.000    27602148.260   108316668.281          50.000  
E 5  27053739.120   142168318.098          50.000    27053744.720   106164637.762          50.000  
E15  23702790.120   124558972.500          50.000    23702795.000    93014805.711          50.000  
E27  24498900.300   128742565.953          50.000    24498904.360    96138917.711          50.000  
E30  23381553.960   122870873.793          50.000    23381558.280    91754212.574          50.000  
> 2020  5 15 23 58 27.0000000  0 13       0.000000000000
G 2  23712904.280   124612178.578          50.000                                                  
G 5  21109108.680   110929112.145          50.000                                                  
G12  21770351.260   114403959.289          50.000                                                  
G18  22570357.920   118608028.754          50.000                                                  
G21  23191996.720   121874734.820          50.000                                                  
G25  20608892.880   108300406.496          50.000    20608895.100    80873680.590          50.000  
G29  20973229.100   110215059.789          50.000                                                  
G31  24505759.000   128778632.469          50.000                                                  
E 3  27601650.960   145047597.289          50.000    27601657.800   108314743.613          50.000  
E 5  27053467.180   142166888.980          50.000    27053472.760   106163570.566          50.000  
E15  23702683.660   124558413.043          50.000    23702688.540    93014387.934          50.000  
E27  24498799.980   128742038.723          50.000    24498804.040    96138524.000          50.000  
E30  23381977.980   122873102.023          50.000    23381982.300    91755876.512          50.000  
> 2020  5 15 23 58 28.0000000  0 13       0.000000000000
G 2  23713377.000   124614662.676          50.000                                                  
G 5  21109220.860   110929701.656          50.000                                                  
G12  21770923.060   114406964.086          50.000                                                  
G18  22569889.660   118605568.059          50.000                                                  
G21  23191595.800   121872627.953          50.000                                                  
G25  20609168.700   108301855.926          50.000    20609170.920    80874762.953          50.000  
G29  20972975.900   110213729.176          50.000                                                  
G31  24505880.000   128779268.355          50.000                                                  
E 3  27601160.480   145045019.883          50.000    27601167.340   108312818.930          50.000  
E 5  27053195.280   142165460.199          50.000    27053200.880   106162503.617          50.000  
E15  23702577.240   124557853.746          50.000    23702582.120    93013970.277          50.000  
E27  24498699.740   128741511.984          50.000    24498703.800    96138130.656          50.000  
E30  23382402.060   122875330.586          50.000    23382406.400    91757540.695          50.000  
> 2020  5 15 23 58 29.0000000  0 13       0.000000000000
G 2  23713849.700   124617146.785          50.000                                                  
G 5  21109333.180   110930291.855          50.000                                                  
G12  21771494.920   114409969.273          50.000                                                  
G18  22569421.460   118603107.645          50.000                                                  
G21  23191194.920   121870521.355          50.000                                                  
G25  20609444.620   108303305.957          50.000    20609446.860    80875845.770          50.000  
G29  20972722.740   110212398.781          50.000                                                  
G31  24506001.100   128779904.758          50.000                                                  
E 3  27600670.020   145042442.449          50.000    27600676.860   108310894.223          50.000  
E 5  27052923.460   142164031.730          50.000    27052929.040   106161436.906          50.000  
E15  23702470.840   124557294.598          50.000    23702475.720    93013552.730          50.000  
E27  24498599.600   128740985.719          50.000    24498603.660    96137737.668          50.000  
E30  23382826.200   122877559.469          50.000    23382830.540    91759205.121          50.000  
> 2020  5 15 23 58 30.0000000  0 13       0.000000000000
G 2  23714322.420   124619630.906          50.000                                                  
G 5  21109445.620   110930882.742          50.000                                                  
G12  21772066.880   114412974.855          50.000                                                  
G18  22568953.320   118600647.527          50.000                                                  
G21  23190794.100   121868415.031          50.000                                                  
G25  20609720.680   108304756.609          50.000    20609722.900    80876929.047          50.000  
G29  20972469.620   110211068.602          50.000                                                  
G31  24506122.300   128780541.668          50.000                                                  
E 3  27600179.560   145039865.012          50.000    27600186.400   108308969.516          50.000  
E 5  27052651.700   142162603.598          50.000    27052657.280   106160370.441          50.000  
E15  23702364.460   124556735.605          50.000    23702369.340    93013135.301          50.000  
E27  24498499.540   128740459.910          50.000    24498503.600    96137345.020          50.000  
E30  23383250.420   122879788.695          50.000    23383254.740    91760869.805          50.000  
> 2020  5 15 23 58 31.0000000  0 13       0.000000000000
G 2  23714795.140   124622115.035          50.000                                                  
G 5  21109558.200   110931474.309          50.000                                                  
G12  21772638.880   114415980.820          50.000                                                  
G18  22568485.240   118598187.688          50.000                                                  
G21  23190393.340   121866308.961          50.000                                                  
G25  20609996.840   108306207.855          50.000    20609999.060    80878012.770          50.000  
G29  20972216.540   110209738.645          50.000                                                  
G31  24506243.600   128781179.090          50.000                                                  
E 3  27599689.080   145037287.535          50.000    27599695.920   108307044.777          50.000  
E 5  27052380.000   142161175.785          50.000    27052385.580   106159304.219          50.000  
E15  23702258.120   124556176.785          50.000    23702263.000    93012718.000          50.000  
E27  24498399.580   128739934.594          50.000    24498403.640    96136952.738          50.000  
E30  23383674.700   122882018.246          50.000    23383679.020    91762534.727          50.000  
> 2020  5 15 23 58 32.0000000  0 13       0.000000000000
G 2  23715267.860   124624599.180          50.000                                                  
G 5  21109670.900   110932066.563          50.000                                                  
G12  21773210.980   114418987.191          50.000                                                  
G18  22568017.200   118595728.137          50.000                                                  
G21  23189992.620   121864203.160          50.000                                                  
G25  20610273.120   108307659.711          50.000    20610275.360    80879096.945          50.000  
G29  20971963.500   110208408.906          50.000                                                  
G31  24506365.000   128781817.023          50.000                                                  
E 3  27599198.600   145034710.051          50.000    27599205.440   108305120.035          50.000  
E 5  27052108.360   142159748.305          50.000    27052113.940   106158238.246          50.000  
E15  23702151.820   124555618.113          50.000    23702156.700    93012300.809          50.000  
E27  24498299.720   128739409.750          50.000    24498303.760    96136560.809          50.000  
E30  23384099.020   122884248.133          50.000    23384103.360    91764199.902          50.000  
> 2020  5 15 23 58 33.0000000  0 13       0.000000000000
G 2  23715740.580   124627083.336          50.000                                                  
G 5  21109783.740   110932659.496          50.000                                                  
G12  21773783.160   114421993.941          50.000                                                  
G18  22567549.220   118593268.871          50.000                                                  
G21  23189591.940   121862097.625          50.000                                                  
G25  20610549.520   108309112.168          50.000    20610551.740    80880181.570          50.000  
G29  20971710.500   110207079.383          50.000                                                  
G31  24506486.500   128782455.477          50.000                                                  
E 3  27598708.120   145032132.539          50.000    27598714.960   108303195.270          50.000  
E 5  27051836.780   142158321.137          50.000    27051842.360   106157172.504          50.000  
E15  23702045.540   124555059.594          50.000    23702050.420    93011883.734          50.000  
E27  24498199.940   128738885.387          50.000    24498203.980    96136169.234          50.000  
E30  23384523.440   122886478.371          50.000    23384527.760    91765865.336          50.000  
> 2020  5 15 23 58 34.0000000  0 13       0.000000000000
G 2  23716213.300   124629567.496          50.000                                                  
G 5  21109896.700   110933253.117          50.000                                                  
G12  21774355.400   114425001.094          50.000                                                  
G18  22567081.280   118590809.883          50.000                                                  
G21  23189191.320   121859992.359          50.000                                                  
G25  20610826.040   108310565.230          50.000    20610828.260    80881266.652          50.000  
G29  20971457.540   110205750.082          50.000                                                  
G31  24506608.100   128783094.438          50.000                                                  
E 3  27598217.620   145029555.016          50.000    27598224.480   108301270.500          50.000  
E 5  27051565.260   142156894.316          50.000    27051570.860   106156107.023          50.000  
E15  23701939.280   124554501.234          50.000    23701944.160    93011466.777          50.000  
E27  24498100.240   128738361.496          50.000    24498104.300    96135778.020          50.000  
E30  23384947.900   122888708.914          50.000    23384952.220    91767531.000          50.000  
> 2020  5 15 23 58 35.0000000  0 13       0.000000000000
G 2  23716686.020   124632051.672          50.000                                                  
G 5  21110009.780   110933847.418          50.000                                                  
G12  21774927.720   114428008.637          50.000                                                  
G18  22566613.420   118588351.184          50.000                                                  
G21  23188790.760   121857887.367          50.000                                                  
G25  20611102.660   108312018.902          50.000    20611104.880    80882352.184          50.000  
G29  20971204.620   110204420.988          50.000                                                  
G31  24506729.780   128783733.906          50.000                                                  
E 3  27597727.140   145026977.465          50.000    27597733.980   108299345.707          50.000  
E 5  27051293.820   142155467.816          50.000    27051299.400   106155041.781          50.000  
E15  23701833.060   124553943.031          50.000    23701837.940    93011049.938          50.000  
E27  24498000.640   128737838.086          50.000    24498004.700    96135387.164          50.000  
E30  23385372.420   122890939.805          50.000    23385376.740    91769196.926          50.000  
> 2020  5 15 23 58 36.0000000  0 13       0.000000000000
G 2  23717158.760   124634535.855          50.000                                                  
G 5  21110123.020   110934442.406          50.000                                                  
G12  21775500.120   114431016.590          50.000                                                  
G18  22566145.600   118585892.773          50.000                                                  
G21  23188390.240   121855782.633          50.000                                                  
G25  20611379.400   108313473.176          50.000    20611381.620    80883438.168          50.000  
G29  20970951.760   110203092.125          50.000                                                  
G31  24506851.560   128784373.887          50.000                                                  
E 3  27597236.640   145024399.895          50.000    27597243.480   108297420.898          50.000  
E 5  27051022.420   142154041.637          50.000    27051028.000   106153976.777          50.000  
E15  23701726.880   124553384.988          50.000    23701731.760    93010633.215          50.000  
E27  24497901.140   128737315.148          50.000    24497905.180    96134996.656          50.000  
E30  23385797.000   122893171.023          50.000    23385801.340    91770863.094          50.000  
> 2020  5 15 23 58 37.0000000  0 13       0.000000000000
G 2  23717631.480   124637020.047          50.000                                                  
G 5  21110236.360   110935038.082          50.000                                                  
G12  21776072.580   114434024.930          50.000                                                  
G18  22565677.820   118583434.648          50.000                                                  
G21  23187989.780   121853678.160          50.000                                                  
G25  20611656.260   108314928.055          50.000    20611658.480    80884524.605          50.000  
G29  20970698.920   110201763.484          50.000                                                  
G31  24506973.460   128785014.383          50.000                                                  
E 3  27596746.140   145021822.305          50.000    27596752.980   108295496.074          50.000  
E 5  27050751.100   142152615.789          50.000    27050756.680   106152912.020          50.000  
E15  23701620.720   124552827.102          50.000    23701625.600    93010216.613          50.000  
E27  24497801.720   128736792.688          50.000    24497805.760    96134606.508          50.000  
E30  23386221.660   122895402.586          50.000    23386226.000    91772529.520          50.000  
> 2020  5 15 23 58 38.0000000  0 13       0.000000000000
G 2  23718104.220   124639504.258          50.000                                                  
G 5  21110349.860   110935634.430          50.000                                                  
G12  21776645.140   114437033.672          50.000                                                  
G18  22565210.120   118580976.805          50.000                                                  
G21  23187589.360   121851573.953          50.000                                                  
G25  20611933.240   108316383.547          50.000    20611935.460    80885611.496          50.000  
G29  20970446.140   110200435.055          50.000                                                  
G31  24507095.440   128785655.395          50.000                                                  
E 3  27596255.640   145019244.703          50.000    27596262.480   108293571.246          50.000  
E 5  27050479.820   142151190.270          50.000    27050485.420   106151847.512          50.000  
E15  23701514.580   124552269.367          50.000    23701519.460    93009800.125          50.000  
E27  24497702.380   128736270.699          50.000    24497706.440    96134216.711          50.000  
E30  23386646.380   122897634.465          50.000    23386650.700    91774196.184          50.000  
> 2020  5 15 23 58 39.0000000  0 13       0.000000000000
G 2  23718576.940   124641988.465          50.000                                                  
G 5  21110463.460   110936231.469          50.000                                                  
G12  21777217.760   114440042.793          50.000                                                  
G18  22564742.460   118578519.250          50.000                                                  
G21  23187189.000   121849470.000          50.000                                                  
G25  20612210.320   108317839.629          50.000    20612212.540    80886698.828          50.000  
G29  20970193.380   110199106.844          50.000                                                  
G31  24507217.520   128786296.906          50.000                                                  
E 3  27595765.140   145016667.074          50.000    27595771.980   108291646.391          50.000  
E 5  27050208.620   142149765.078          50.000    27050214.200   106150783.242          50.000  
E15  23701408.480   124551711.801          50.000    23701413.360    93009383.758          50.000  
E27  24497603.140   128735749.199          50.000    24497607.200    96133827.273          50.000  
E30  23387071.160   122899866.691          50.000    23387075.480    91775863.102          50.000  
> 2020  5 15 23 58 40.0000000  0 13       0.000000000000
G 2  23719049.680   124644472.691          50.000                                                  
G 5  21110577.220   110936829.184          50.000                                                  
G12  21777790.440   114443052.320          50.000                                                  
G18  22564274.860   118576061.984          50.000                                                  
G21  23186788.680   121847366.332          50.000                                                  
G25  20612487.520   108319296.336          50.000    20612489.740    80887786.629          50.000  
G29  20969940.680   110197778.863          50.000                                                  
G31  24507339.680   128786938.930          50.000                                                  
E 3  27595274.620   145014089.422          50.000    27595281.460   108289721.520          50.000  
E 5  27049937.480   142148340.223          50.000    27049943.060   106149719.219          50.000  
E15  23701302.420   124551154.387          50.000    23701307.280    93008967.500          50.000  
E27  24497504.000   128735228.168          50.000    24497508.060    96133438.188          50.000  
E30  23387496.000   122902099.234          50.000    23387500.340    91777530.254          50.000  
> 2020  5 15 23 58 41.0000000  0 13       0.000000000000
G 2  23719522.420   124646956.922          50.000                                                  
G 5  21110691.080   110937427.594          50.000                                                  
G12  21778363.220   114446062.254          50.000                                                  
G18  22563807.320   118573605.000          50.000                                                  
G21  23186388.420   121845262.918          50.000                                                  
G25  20612764.840   108320753.633          50.000    20612767.060    80888874.867          50.000  
G29  20969688.020   110196451.105          50.000                                                  
G31  24507461.960   128787581.469          50.000                                                  
E 3  27594784.120   145011511.766          50.000    27594790.960   108287796.641          50.000  
E 5  27049666.400   142146915.680          50.000    27049671.980   106148655.438          50.000  
E15  23701196.360   124550597.129          50.000    23701201.240    93008551.363          50.000  
E27  24497404.940   128734707.613          50.000    24497409.000    96133049.457          50.000  
E30  23387920.900   122904332.125          50.000    23387925.240    91779197.668          50.000  
> 2020  5 15 23 58 42.0000000  0 13       0.000000000000
G 2  23719995.160   124649441.160          50.000                                                  
G 5  21110805.100   110938026.680          50.000                                                  
G12  21778936.060   114449072.563          50.000                                                  
G18  22563339.820   118571148.297          50.000                                                  
G21  23185988.200   121843159.770          50.000                                                  
G25  20613042.280   108322211.555          50.000    20613044.500    80889963.574          50.000  
G29  20969435.400   110195123.559          50.000                                                  
G31  24507584.340   128788224.523          50.000                                                  
E 3  27594293.600   145008934.090          50.000    27594300.440   108285871.754          50.000  
E 5  27049395.380   142145491.480          50.000    27049400.980   106147591.906          50.000  
E15  23701090.360   124550040.031          50.000    23701095.240    93008135.344          50.000  
E27  24497305.980   128734187.535          50.000    24497310.020    96132661.086          50.000  
E30  23388345.860   122906565.340          50.000    23388350.200    91780865.324          50.000  
> 2020  5 15 23 58 43.0000000  0 13       0.000000000000
G 2  23720467.900   124651925.414          50.000                                                  
G 5  21110919.220   110938626.465          50.000                                                  
G12  21779508.980   114452083.266          50.000                                                  
G18  22562872.380   118568691.887          50.000                                                  
G21  23185588.040   121841056.891          50.000                                                  
G25  20613319.820   108323670.066          50.000    20613322.040    80891052.727          50.000  
G29  20969182.820   110193796.227          50.000                                                  
G31  24507706.800   128788868.078          50.000                                                  
E 3  27593803.060   145006356.367          50.000    27593809.920   108283946.828          50.000  
E 5  27049124.420   142144067.598          50.000    27049130.020   106146528.613          50.000  
E15  23700984.380   124549483.094          50.000    23700989.260    93007719.445          50.000  
E27  24497207.100   128733667.941          50.000    24497211.160    96132273.074          50.000  
E30  23388770.900   122908798.891          50.000    23388775.240    91782533.230          50.000  
> 2020  5 15 23 58 44.0000000  0 13       0.000000000000
G 2  23720940.640   124654409.672          50.000                                                  
G 5  21111033.500   110939226.926          50.000                                                  
G12  21780081.980   114455094.359          50.000                                                  
G18  22562405.000   118566235.758          50.000                                                  
G21  23185187.920   121838954.281          50.000                                                  
G25  20613597.480   108325129.188          50.000    20613599.720    80892142.328          50.000  
G29  20968930.280   110192469.121          50.000                                                  
G31  24507829.360   128789512.148          50.000                                                  
E 3  27593312.540   145003778.656          50.000    27593319.400   108282021.910          50.000  
E 5  27048853.540   142142644.051          50.000    27048859.120   106145465.574          50.000  
E15  23700878.420   124548926.305          50.000    23700883.300    93007303.656          50.000  
E27  24497108.320   128733148.816          50.000    24497112.360    96131885.410          50.000  
E30  23389196.000   122911032.781          50.000    23389200.340    91784201.387          50.000  
> 2020  5 15 23 58 45.0000000  0 13       0.000000000000
G 2  23721413.380   124656893.941          50.000                                                  
G 5  21111147.880   110939828.070          50.000                                                  
G12  21780655.060   114458105.852          50.000                                                  
G18  22561937.660   118563779.914          50.000                                                  
G21  23184787.860   121836851.926          50.000                                                  
G25  20613875.260   108326588.898          50.000    20613877.480    80893232.371          50.000  
G29  20968677.780   110191142.230          50.000                                                  
G31  24507952.020   128790156.727          50.000                                                  
E 3  27592822.020   145001200.902          50.000    27592828.860   108280096.965          50.000  
E 5  27048582.700   142141220.816          50.000    27048588.300   106144402.766          50.000  
E15  23700772.500   124548369.684          50.000    23700777.380    93006887.996          50.000  
E27  24497009.620   128732630.176          50.000    24497013.680    96131498.109          50.000  
E30  23389621.160   122913267.004          50.000    23389625.500    91785869.797          50.000  
> 2020  5 15 23 58 46.0000000  0 13       0.000000000000
G 2  23721886.120   124659378.230          50.000                                                  
G 5  21111262.420   110940429.902          50.000                                                  
G12  21781228.200   114461117.730          50.000                                                  
G18  22561470.400   118561324.355          50.000                                                  
G21  23184387.840   121834749.844          50.000                                                  
G25  20614153.160   108328049.234          50.000    20614155.380    80894322.879          50.000  
G29  20968425.320   110189815.570          50.000                                                  
G31  24508074.780   128790801.816          50.000                                                  
E 3  27592331.480   144998623.141          50.000    27592338.340   108278172.008          50.000  
E 5  27048311.940   142139797.918          50.000    27048317.520   106143340.207          50.000  
E15  23700666.600   124547813.215          50.000    23700671.480    93006472.445          50.000  
E27  24496911.020   128732112.004          50.000    24496915.080    96131111.160          50.000  
E30  23390046.380   122915501.551          50.000    23390050.720    91787538.449          50.000  
> 2020  5 15 23 58 47.0000000  0 13       0.000000000000
G 2  23722358.880   124661862.516          50.000                                                  
G 5  21111377.080   110941032.414          50.000                                                  
G12  21781801.420   114464130.004          50.000                                                  
G18  22561003.180   118558869.090          50.000                                                  
G21  23183987.900   121832648.035          50.000                                                  
G25  20614431.160   108329510.164          50.000    20614433.400    80895413.832          50.000  
G29  20968172.920   110188489.129          50.000                                                  
G31  24508197.640   128791447.414          50.000                                                  
E 3  27591840.940   144996045.375          50.000    27591847.800   108276247.051          50.000  
E 5  27048041.220   142138375.355          50.000    27048046.820   106142277.898          50.000  
E15  23700560.740   124547256.902          50.000    23700565.620    93006057.016          50.000  
E27  24496812.500   128731594.305          50.000    24496816.560    96130724.563          50.000  
E30  23390471.660   122917736.434          50.000    23390476.000    91789207.348          50.000  
> 2020  5 15 23 58 48.0000000  0 13       0.000000000000
G 2  23722831.620   124664346.813          50.000                                                  
G 5  21111491.860   110941635.617          50.000                                                  
G12  21782374.720   114467142.672          50.000                                                  
G18  22560536.000   118556414.109          50.000                                                  
G21  23183587.980   121830546.496          50.000                                                  
G25  20614709.280   108330971.699          50.000    20614711.520    80896505.242          50.000  
G29  20967920.540   110187162.902          50.000                                                  
G31  24508320.600   128792093.527          50.000                                                  
E 3  27591350.400   144993467.570          50.000    27591357.260   108274322.063          50.000  
E 5  27047770.580   142136953.113          50.000    27047776.180   106141215.836          50.000  
E15  23700454.920   124546700.746          50.000    23700459.800    93005641.699          50.000  
E27  24496714.080   128731077.090          50.000    24496718.140    96130338.324          50.000  
E30  23390897.000   122919971.641          50.000    23390901.360    91790876.492          50.000  
> 2020  5 15 23 58 49.0000000  0 13       0.000000000000
G 2  23723304.380   124666831.125          50.000                                                  
G 5  21111606.780   110942239.508          50.000                                                  
G12  21782948.080   114470155.730          50.000                                                  
G18  22560068.900   118553959.410          50.000                                                  
G21  23183188.120   121828445.219          50.000                                                  
G25  20614987.520   108332433.840          50.000    20614989.760    80897597.098          50.000  
G29  20967668.220   110185836.902          50.000                                                  
G31  24508443.640   128792740.152          50.000                                                  
E 3  27590859.860   144990889.750          50.000    27590866.720   108272397.066          50.000  
E 5  27047500.000   142135531.195          50.000    27047505.600   106140154.008          50.000  
E15  23700349.100   124546144.742          50.000    23700354.000    93005226.496          50.000  
E27  24496615.740   128730560.355          50.000    24496619.800    96129952.449          50.000  
E30  23391322.420   122922207.191          50.000    23391326.760    91792545.895          50.000  
> 2020  5 15 23 58 50.0000000  0 13       0.000000000000
G 2  23723777.120   124669315.438          50.000                                                  
G 5  21111721.820   110942844.078          50.000                                                  
G12  21783521.520   114473169.184          50.000                                                  
G18  22559601.840   118551505.000          50.000                                                  
G21  23182788.320   121826344.211          50.000                                                  
G25  20615265.880   108333896.586          50.000    20615268.100    80898689.406          50.000  
G29  20967415.940   110184511.125          50.000                                                  
G31  24508566.800   128793387.285          50.000                                                  
E 3  27590369.320   144988311.910          50.000    27590376.160   108270472.051          50.000  
E 5  27047229.480   142134109.605          50.000    27047235.080   106139092.430          50.000  
E15  23700243.340   124545588.902          50.000    23700248.220    93004811.418          50.000  
E27  24496517.500   128730044.082          50.000    24496521.560    96129566.914          50.000  
E30  23391747.880   122924443.055          50.000    23391752.240    91794215.523          50.000  
> 2020  5 15 23 58 51.0000000  0 13       0.000000000000
G 2  23724249.880   124671799.766          50.000                                                  
G 5  21111837.000   110943449.344          50.000                                                  
G12  21784095.040   114476183.031          50.000                                                  
G18  22559134.840   118549050.867          50.000                                                  
G21  23182388.560   121824243.457          50.000                                                  
G25  20615544.360   108335359.941          50.000    20615546.580    80899782.172          50.000  
G29  20967163.700   110183185.566          50.000                                                  
G31  24508690.040   128794034.930          50.000                                                  
E 3  27589878.760   144985734.051          50.000    27589885.620   108268547.027          50.000  
E 5  27046959.020   142132688.348          50.000    27046964.620   106138031.098          50.000  
E15  23700137.600   124545033.215          50.000    23700142.480    93004396.453          50.000  
E27  24496419.340   128729528.293          50.000    24496423.420    96129181.742          50.000  
E30  23392173.420   122926679.262          50.000    23392177.780    91795885.414          50.000  
> 2020  5 15 23 58 52.0000000  0 13       0.000000000000
G 2  23724722.640   124674284.098          50.000                                                  
G 5  21111952.320   110944055.281          50.000                                                  
G12  21784668.640   114479197.266          50.000                                                  
G18  22558667.880   118546597.031          50.000                                                  
G21  23181988.860   121822142.980          50.000                                                  
G25  20615822.940   108336823.902          50.000    20615825.160    80900875.387          50.000  
G29  20966911.480   110181860.219          50.000                                                  
G31  24508813.380   128794683.090          50.000                                                  
E 3  27589388.220   144983156.176          50.000    27589395.060   108266621.984          50.000  
E 5  27046688.620   142131267.414          50.000    27046694.220   106136970.008          50.000  
E15  23700031.880   124544477.691          50.000    23700036.760    93003981.613          50.000  
E27  24496321.280   128729012.980          50.000    24496325.360    96128796.930          50.000  
E30  23392599.020   122928915.813          50.000    23392603.380    91797555.563          50.000  
> 2020  5 15 23 58 53.0000000  0 13       0.000000000000
G 2  23725195.400   124676768.430          50.000                                                  
G 5  21112067.760   110944661.895          50.000                                                  
G12  21785242.300   114482211.898          50.000                                                  
G18  22558200.980   118544143.469          50.000                                                  
G21  23181589.200   121820042.766          50.000                                                  
G25  20616101.640   108338288.465          50.000    20616103.860    80901969.055          50.000  
G29  20966659.320   110180535.102          50.000                                                  
G31  24508936.820   128795331.750          50.000                                                  
E 3  27588897.660   144980578.277          50.000    27588904.500   108264696.934          50.000  
E 5  27046418.300   142129846.813          50.000    27046423.900   106135909.164          50.000  
E15  23699926.200   124543922.320          50.000    23699931.080    93003566.883          50.000  
E27  24496223.320   128728498.148          50.000    24496227.380    96128412.473          50.000  
E30  23393024.700   122931152.680          50.000    23393029.040    91799225.945          50.000  
> 2020  5 15 23 58 54.0000000  0 13       0.000000000000
G 2  23725668.160   124679252.785          50.000                                                  
G 5  21112183.320   110945269.188          50.000                                                  
G12  21785816.040   114485226.914          50.000                                                  
G18  22557734.140   118541690.195          50.000                                                  
G21  23181189.580   121817942.813          50.000                                                  
G25  20616380.440   108339753.625          50.000    20616382.680    80903063.168          50.000  
G29  20966407.200   110179210.195          50.000                                                  
G31  24509060.360   128795980.930          50.000                                                  
E 3  27588407.080   144978000.359          50.000    27588413.940   108262771.859          50.000  
E 5  27046148.020   142128426.539          50.000    27046153.620   106134848.566          50.000  
E15  23699820.540   124543367.105          50.000    23699825.440    93003152.270          50.000  
E27  24496125.440   128727983.781          50.000    24496129.500    96128028.363          50.000  
E30  23393450.420   122933389.867          50.000    23393454.760    91800896.566          50.000  
> 2020  5 15 23 58 55.0000000  0 13       0.000000000000
G 2  23726140.920   124681737.141          50.000                                                  
G 5  21112299.020   110945877.164          50.000                                                  
G12  21786389.860   114488242.336          50.000                                                  
G18  22557267.360   118539237.211          50.000                                                  
G21  23180790.040   121815843.133          50.000                                                  
G25  20616659.380   108341219.402          50.000    20616661.600    80904157.742          50.000  
G29  20966155.140   110177885.523          50.000                                                  
G31  24509184.000   128796630.625          50.000                                                  
E 3  27587916.520   144975422.426          50.000    27587923.380   108260846.777          50.000  
E 5  27045877.820   142127006.594          50.000    27045883.420   106133788.215          50.000  
E15  23699714.920   124542812.051          50.000    23699719.800    93002737.773          50.000  
E27  24496027.660   128727469.898          50.000    24496031.720    96127644.613          50.000  
E30  23393876.200   122935627.402          50.000    23393880.560    91802567.449          50.000  
> 2020  5 15 23 58 56.0000000  0 13       0.000000000000
G 2  23726613.680   124684221.512          50.000                                                  
G 5  21112414.840   110946485.824          50.000                                                  
G12  21786963.760   114491258.133          50.000                                                  
G18  22556800.620   118536784.516          50.000                                                  
G21  23180390.520   121813743.711          50.000                                                  
G25  20616938.420   108342685.785          50.000    20616940.660    80905252.766          50.000  
G29  20965903.100   110176561.082          50.000                                                  
G31  24509307.720   128797280.824          50.000                                                  
E 3  27587425.960   144972844.484          50.000    27587432.820   108258921.691          50.000  
E 5  27045607.680   142125586.969          50.000    27045613.280   106132728.102          50.000  
E15  23699609.320   124542257.145          50.000    23699614.220    93002323.395          50.000  
E27  24495929.960   128726956.496          50.000    24495934.020    96127261.227          50.000  
E30  23394302.060   122937865.277          50.000    23394306.420    91804238.586          50.000  
> 2020  5 15 23 58 57.0000000  0 13       0.000000000000
G 2  23727086.440   124686705.891          50.000                                                  
G 5  21112530.800   110947095.172          50.000                                                  
G12  21787537.720   114494274.324          50.000                                                  
G18  22556333.960   118534332.109          50.000                                                  
G21  23179991.080   121811644.566          50.000                                                  
G25  20617217.580   108344152.758          50.000    20617219.800    80906348.234          50.000  
G29  20965651.100   110175236.840          50.000                                                  
G31  24509431.560   128797931.539          50.000                                                  
E 3  27586935.380   144970266.508          50.000    27586942.240   108256996.574          50.000  
E 5  27045337.600   142124167.680          50.000    27045343.200   106131668.238          50.000  
E15  23699503.760   124541702.406          50.000    23699508.660    93001909.137          50.000  
E27  24495832.340   128726443.563          50.000    24495836.420    96126878.188          50.000  
E30  23394727.980   122940103.477          50.000    23394732.320    91805909.961          50.000  
> 2020  5 15 23 58 58.0000000  0 13       0.000000000000
G 2  23727559.200   124689190.273          50.000                                                  
G 5  21112646.880   110947705.207          50.000                                                  
G12  21788111.760   114497290.906          50.000                                                  
G18  22555867.320   118531879.980          50.000                                                  
G21  23179591.680   121809545.680          50.000                                                  
G25  20617496.860   108345620.348          50.000    20617499.080    80907444.160          50.000  
G29  20965399.160   110173912.832          50.000                                                  
G31  24509555.480   128798582.762          50.000                                                  
E 3  27586444.800   144967688.520          50.000    27586451.660   108255071.453          50.000  
E 5  27045067.580   142122748.723          50.000    27045073.180   106130608.625          50.000  
E15  23699398.220   124541147.820          50.000    23699403.120    93001494.996          50.000  
E27  24495734.820   128725931.117          50.000    24495738.900    96126495.512          50.000  
E30  23395153.960   122942342.012          50.000    23395158.300    91807581.590          50.000  
> 2020  5 15 23 58 59.0000000  0 13       0.000000000000
G 2  23728031.980   124691674.668          50.000                                                  
G 5  21112763.100   110948315.922          50.000                                                  
G12  21788685.880   114500307.883          50.000                                                  
G18  22555400.760   118529428.141          50.000                                                  
G21  23179192.320   121807447.059          50.000                                                  
G25  20617776.240   108347088.547          50.000    20617778.480    80908540.543          50.000  
G29  20965147.260   110172589.039          50.000                                                  
G31  24509679.500   128799234.500          50.000                                                  
E 3  27585954.220   144965110.516          50.000    27585961.080   108253146.316          50.000  
E 5  27044797.620   142121330.098          50.000    27044803.220   106129549.258          50.000  
E15  23699292.720   124540593.383          50.000    23699297.620    93001080.965          50.000  
E27  24495637.400   128725419.133          50.000    24495641.480    96126113.184          50.000  
E30  23395580.000   122944580.871          50.000    23395584.360    91809253.461          50.000  
> 2020  5 15 23 59  0.0000000  0 13       0.000000000000
G 2  23728504.740   124694159.066          50.000                                                  
G 5  21112879.460   110948927.324          50.000                                                  
G12  21789260.060   114503325.254          50.000                                                  
G18  22554934.240   118526976.582          50.000                                                  
G21  23178793.020   121805348.703          50.000                                                  
G25  20618055.760   108348557.340          50.000    20618057.980    80909637.367          50.000  
G29  20964895.380   110171265.469          50.000                                                  
G31  24509803.620   128799886.746          50.000                                                  
E 3  27585463.640   144962532.492          50.000    27585470.500   108251221.164          50.000  
E 5  27044527.720   142119911.781          50.000    27044533.320   106128490.125          50.000  
E15  23699187.240   124540039.117          50.000    23699192.140    93000667.059          50.000  
E27  24495540.060   128724907.633          50.000    24495544.140    96125731.215          50.000  
E30  23396006.100   122946820.059          50.000    23396010.460    91810925.578          50.000  
> 2020  5 15 23 59  1.0000000  0 13       0.000000000000
G 2  23728977.500   124696643.520          50.000                                                  
G 5  21112995.920   110949539.418          50.000                                                  
G12  21789834.320   114506343.016          50.000                                                  
G18  22554467.780   118524525.336          50.000                                                  
G21  23178393.760   121803250.664          50.000                                                  
G25  20618335.360   108350026.750          50.000    20618337.600    80910734.664          50.000  
G29  20964643.560   110169942.145          50.000                                                  
G31  24509927.840   128800539.520          50.000                                                  
E 3  27584973.060   144959954.465          50.000    27584979.900   108249296.027          50.000  
E 5  27044257.880   142118493.836          50.000    27044263.480   106127431.281          50.000  
E15  23699081.800   124539485.016          50.000    23699086.700    93000253.285          50.000  
E27  24495442.820   128724396.637          50.000    24495446.900    96125349.633          50.000  
E30  23396432.260   122949059.582          50.000    23396436.620    91812597.949          50.000  
> 2020  5 15 23 59  2.0000000  0 13       0.000000000000
G 2  23729450.280   124699127.945          50.000                                                  
G 5  21113112.540   110950152.188          50.000                                                  
G12  21790408.660   114509361.168          50.000                                                  
G18  22554001.380   118522074.355          50.000                                                  
G21  23177994.560   121801152.844          50.000                                                  
G25  20618615.100   108351496.762          50.000    20618617.320    80911832.398          50.000  
G29  20964391.780   110168619.012          50.000                                                  
G31  24510052.160   128801192.797          50.000                                                  
E 3  27584482.460   144957376.402          50.000    27584489.320   108247370.844          50.000  
E 5  27043988.120   142117076.184          50.000    27043993.720   106126372.641          50.000  
E15  23698976.380   124538931.055          50.000    23698981.280    92999839.613          50.000  
E27  24495345.660   128723886.090          50.000    24495349.740    96124968.379          50.000  
E30  23396858.500   122951299.441          50.000    23396862.860    91814270.566          50.000  
> 2020  5 15 23 59  3.0000000  0 13       0.000000000000
G 2  23729923.060   124701612.383          50.000                                                  
G 5  21113229.260   110950765.633          50.000                                                  
G12  21790983.060   114512379.715          50.000                                                  
G18  22553535.020   118519623.668          50.000                                                  
G21  23177595.400   121799055.289          50.000                                                  
G25  20618894.960   108352967.383          50.000    20618897.180    80912930.582          50.000  
G29  20964140.040   110167296.113          50.000                                                  
G31  24510176.560   128801846.578          50.000                                                  
E 3  27583991.880   144954798.320          50.000    27583998.720   108245445.652          50.000  
E 5  27043718.400   142115658.863          50.000    27043724.000   106125314.246          50.000  
E15  23698871.000   124538377.250          50.000    23698875.900    92999426.055          50.000  
E27  24495248.600   128723376.020          50.000    24495252.680    96124587.477          50.000  
E30  23397284.780   122953539.625          50.000    23397289.140    91815943.426          50.000  
> 2020  5 15 23 59  4.0000000  0 13       0.000000000000
G 2  23730395.820   124704096.828          50.000                                                  
G 5  21113346.140   110951379.777          50.000                                                  
G12  21791557.560   114515398.645          50.000                                                  
G18  22553068.720   118517173.262          50.000                                                  
G21  23177196.300   121796958.000          50.000                                                  
G25  20619174.920   108354438.598          50.000    20619177.140    80914029.215          50.000  
G29  20963888.340   110165973.422          50.000                                                  
G31  24510301.080   128802500.867          50.000                                                  
E 3  27583501.280   144952220.227          50.000    27583508.140   108243520.449          50.000  
E 5  27043448.760   142114241.883          50.000    27043454.360   106124256.109          50.000  
E15  23698765.640   124537823.598          50.000    23698770.540    92999012.605          50.000  
E27  24495151.620   128722866.418          50.000    24495155.700    96124206.926          50.000  
E30  23397711.140   122955780.137          50.000    23397715.500    91817616.531          50.000  
> 2020  5 15 23 59  5.0000000  0 13       0.000000000000
G 2  23730868.600   124706581.285          50.000                                                  
G 5  21113463.140   110951994.605          50.000                                                  
G12  21792132.120   114518417.973          50.000                                                  
G18  22552602.480   118514723.141          50.000                                                  
G21  23176797.260   121794860.977          50.000                                                  
G25  20619455.000   108355910.426          50.000    20619457.220    80915128.301          50.000  
G29  20963636.680   110164650.969          50.000                                                  
G31  24510425.680   128803155.672          50.000                                                  
E 3  27583010.680   144949642.109          50.000    27583017.540   108241595.230          50.000  
E 5  27043179.180   142112825.207          50.000    27043184.780   106123198.203          50.000  
E15  23698660.320   124537270.117          50.000    23698665.220    92998599.289          50.000  
E27  24495054.740   128722357.305          50.000    24495058.820    96123826.742          50.000  
E30  23398137.560   122958020.984          50.000    23398141.920    91819289.887          50.000  
> 2020  5 15 23 59  6.0000000  0 13       0.000000000000
G 2  23731341.380   124709065.750          50.000                                                  
G 5  21113580.260   110952610.102          50.000                                                  
G12  21792706.740   114521437.691          50.000                                                  
G18  22552136.300   118512273.301          50.000                                                  
G21  23176398.260   121792764.227          50.000                                                  
G25  20619735.180   108357382.852          50.000    20619737.420    80916227.836          50.000  
G29  20963385.060   110163328.715          50.000                                                  
G31  24510550.380   128803810.984          50.000                                                  
E 3  27582520.080   144947063.977          50.000    27582526.920   108239670.000          50.000  
E 5  27042909.660   142111408.883          50.000    27042915.260   106122140.551          50.000  
E15  23698555.020   124536716.781          50.000    23698559.920    92998186.082          50.000  
E27  24494957.960   128721848.664          50.000    24494962.040    96123446.910          50.000  
E30  23398564.040   122960262.160          50.000    23398568.420    91820963.484          50.000  
> 2020  5 15 23 59  7.0000000  0 13       0.000000000000
G 2  23731814.160   124711550.219          50.000                                                  
G 5  21113697.520   110953226.289          50.000                                                  
G12  21793281.460   114524457.801          50.000                                                  
G18  22551670.160   118509823.758          50.000                                                  
G21  23175999.300   121790667.738          50.000                                                  
G25  20620015.500   108358855.887          50.000    20620017.740    80917327.824          50.000  
G29  20963133.500   110162006.691          50.000                                                  
G31  24510675.180   128804466.805          50.000                                                  
E 3  27582029.460   144944485.820          50.000    27582036.320   108237744.750          50.000  
E 5  27042640.200   142109992.875          50.000    27042645.800   106121083.141          50.000  
E15  23698449.760   124536163.598          50.000    23698454.660    92997772.984          50.000  
E27  24494861.260   128721340.504          50.000    24494865.340    96123067.434          50.000  
E30  23398990.600   122962503.668          50.000    23398994.960    91822637.336          50.000  
> 2020  5 15 23 59  8.0000000  0 13       0.000000000000
G 2  23732286.940   124714034.699          50.000                                                  
G 5  21113814.900   110953843.152          50.000                                                  
G12  21793856.240   114527478.305          50.000                                                  
G18  22551204.080   118507374.492          50.000                                                  
G21  23175600.400   121788571.512          50.000                                                  
G25  20620295.920   108360329.516          50.000    20620298.160    80918428.258          50.000  
G29  20962881.960   110160684.887          50.000                                                  
G31  24510800.080   128805123.148          50.000                                                  
E 3  27581538.860   144941907.660          50.000    27581545.720   108235819.500          50.000  
E 5  27042370.820   142108577.207          50.000    27042376.420   106120025.984          50.000  
E15  23698344.520   124535610.578          50.000    23698349.420    92997360.012          50.000  
E27  24494764.640   128720832.820          50.000    24494768.720    96122688.313          50.000  
E30  23399417.200   122964745.504          50.000    23399421.560    91824311.430          50.000  
> 2020  5 15 23 59  9.0000000  0 13       0.000000000000
G 2  23732759.720   124716519.188          50.000                                                  
G 5  21113932.420   110954460.699          50.000                                                  
G12  21794431.100   114530499.191          50.000                                                  
G18  22550738.060   118504925.516          50.000                                                  
G21  23175201.560   121786475.559          50.000                                                  
G25  20620576.460   108361803.758          50.000    20620578.700    80919529.145          50.000  
G29  20962630.480   110159363.309          50.000                                                  
G31  24510925.080   128805779.988          50.000                                                  
E 3  27581048.240   144939329.465          50.000    27581055.100   108233894.223          50.000  
E 5  27042101.480   142107161.852          50.000    27042107.080   106118969.059          50.000  
E15  23698239.320   124535057.719          50.000    23698244.220    92996947.160          50.000  
E27  24494668.140   128720325.609          50.000    24494672.220    96122309.551          50.000  
E30  23399843.860   122966987.668          50.000    23399848.240    91825985.766          50.000  
> 2020  5 15 23 59 10.0000000  0 13       0.000000000000
G 2  23733232.520   124719003.688          50.000                                                  
G 5  21114050.060   110955078.934          50.000                                                  
G12  21795006.020   114533520.473          50.000                                                  
G18  22550272.080   118502476.820          50.000                                                  
G21  23174802.760   121784379.859          50.000                                                  
G25  20620857.120   108363278.602          50.000    20620859.340    80920630.484          50.000  
G29  20962379.020   110158041.941          50.000                                                  
G31  24511050.160   128806437.340          50.000                                                  
E 3  27580557.620   144936751.258          50.000    27580564.480   108231968.934          50.000  
E 5  27041832.200   142105746.832          50.000    27041837.820   106117912.387          50.000  
E15  23698134.140   124534505.012          50.000    23698139.040    92996534.418          50.000  
E27  24494571.700   128719818.879          50.000    24494575.780    96121931.141          50.000  
E30  23400270.600   122969230.168          50.000    23400274.980    91827660.355          50.000  
> 2020  5 15 23 59 11.0000000  0 13       0.000000000000
G 2  23733705.300   124721488.191          50.000                                                  
G 5  21114167.840   110955697.848          50.000                                                  
G12  21795581.040   114536542.141          50.000                                                  
G18  22549806.160   118500028.426          50.000                                                  
G21  23174404.000   121782284.438          50.000                                                  
G25  20621137.880   108364754.043          50.000    20621140.120    80921732.273          50.000  
G29  20962127.620   110156720.809          50.000                                                  
G31  24511175.340   128807095.203          50.000                                                  
E 3  27580067.000   144934173.039          50.000    27580073.860   108230043.637          50.000  
E 5  27041563.000   142104332.152          50.000    27041568.620   106116855.965          50.000  
E15  23698028.980   124533952.461          50.000    23698033.900    92996121.793          50.000  
E27  24494475.360   128719312.625          50.000    24494479.440    96121553.090          50.000  
E30  23400697.400   122971473.004          50.000    23400701.780    91829335.195          50.000  
> 2020  5 15 23 59 12.0000000  0 13       0.000000000000
G 2  23734178.080   124723972.707          50.000                                                  
G 5  21114285.740   110956317.441          50.000                                                  
G12  21796156.120   114539564.203          50.000                                                  
G18  22549340.300   118497580.301          50.000                                                  
G21  23174005.320   121780189.273          50.000                                                  
G25  20621418.760   108366230.094          50.000    20621421.000    80922834.516          50.000  
G29  20961876.260   110155399.891          50.000                                                  
G31  24511300.640   128807753.578          50.000                                                  
E 3  27579576.380   144931594.797          50.000    27579583.240   108228118.324          50.000  
E 5  27041293.860   142102917.789          50.000    27041299.460   106115799.781          50.000  
E15  23697923.880   124533400.066          50.000    23697928.780    92995709.289          50.000  
E27  24494379.120   128718806.848          50.000    24494383.200    96121175.398          50.000  
E30  23401124.260   122973716.160          50.000    23401128.640    91831010.277          50.000  
> 2020  5 15 23 59 13.0000000  0 13       0.000000000000
G 2  23734650.880   124726457.230          50.000                                                  
G 5  21114403.780   110956937.723          50.000                                                  
G12  21796731.260   114542586.648          50.000                                                  
G18  22548874.500   118495132.465          50.000                                                  
G21  23173606.660   121778094.375          50.000                                                  
G25  20621699.760   108367706.758          50.000    20621702.000    80923937.215          50.000  
G29  20961624.940   110154079.199          50.000                                                  
G31  24511426.020   128808412.461          50.000                                                  
E 3  27579085.740   144929016.523          50.000    27579092.600   108226192.988          50.000  
E 5  27041024.780   142101503.762          50.000    27041030.380   106114743.848          50.000  
E15  23697818.780   124532847.832          50.000    23697823.700    92995296.902          50.000  
E27  24494282.960   128718301.551          50.000    24494287.060    96120798.063          50.000  
E30  23401551.180   122975959.660          50.000    23401555.560    91832685.609          50.000  
> 2020  5 15 23 59 14.0000000  0 13       0.000000000000
G 2  23735123.660   124728941.762          50.000                                                  
G 5  21114521.940   110957558.688          50.000                                                  
G12  21797306.500   114545609.480          50.000                                                  
G18  22548408.740   118492684.914          50.000                                                  
G21  23173208.060   121775999.738          50.000                                                  
G25  20621980.880   108369183.996          50.000    20621983.120    80925040.344          50.000  
G29  20961373.660   110152758.730          50.000                                                  
G31  24511551.500   128809071.855          50.000                                                  
E 3  27578595.120   144926438.266          50.000    27578601.980   108224267.664          50.000  
E 5  27040755.760   142100090.055          50.000    27040761.360   106113688.156          50.000  
E15  23697713.720   124532295.738          50.000    23697718.640    92994884.621          50.000  
E27  24494186.900   128717796.719          50.000    24494190.980    96120421.070          50.000  
E30  23401978.160   122978203.477          50.000    23401982.540    91834361.184          50.000  
> 2020  5 15 23 59 15.0000000  0 13       0.000000000000
G 2  23735596.460   124731426.305          50.000                                                  
G 5  21114640.240   110958180.352          50.000                                                  
G12  21797881.800   114548632.707          50.000                                                  
G18  22547943.040   118490237.652          50.000                                                  
G21  23172809.520   121773905.383          50.000                                                  
G25  20622262.100   108370661.863          50.000    20622264.340    80926143.941          50.000  
G29  20961122.440   110151438.480          50.000                                                  
G31  24511677.060   128809731.754          50.000                                                  
E 3  27578104.480   144923859.949          50.000    27578111.340   108222342.293          50.000  
E 5  27040486.800   142098676.676          50.000    27040492.420   106112632.707          50.000  
E15  23697608.700   124531743.813          50.000    23697613.600    92994472.465          50.000  
E27  24494090.920   128717292.367          50.000    24494095.020    96120044.441          50.000  
E30  23402405.220   122980447.621          50.000    23402409.600    91836037.000          50.000  
> 2020  5 15 23 59 16.0000000  0 13       0.000000000000
G 2  23736069.260   124733910.859          50.000                                                  
G 5  21114758.680   110958802.695          50.000                                                  
G12  21798457.180   114551656.332          50.000                                                  
G18  22547477.400   118487790.688          50.000                                                  
G21  23172411.040   121771811.297          50.000                                                  
G25  20622543.440   108372140.340          50.000    20622545.700    80927247.992          50.000  
G29  20960871.240   110150118.453          50.000                                                  
G31  24511802.740   128810392.176          50.000                                                  
E 3  27577613.840   144921281.652          50.000    27577620.720   108220416.941          50.000  
E 5  27040217.900   142097263.641          50.000    27040223.520   106111577.512          50.000  
E15  23697503.700   124531192.043          50.000    23697508.600    92994060.422          50.000  
E27  24493995.040   128716788.488          50.000    24493999.120    96119668.164          50.000  
E30  23402832.320   122982692.102          50.000    23402836.700    91837713.070          50.000  
> 2020  5 15 23 59 17.0000000  0 13       0.000000000000
G 2  23736542.060   124736395.414          50.000                                                  
G 5  21114877.220   110959425.723          50.000                                                  
G12  21799032.620   114554680.352          50.000                                                  
G18  22547011.800   118485343.992          50.000                                                  
G21  23172012.580   121769717.465          50.000                                                  
G25  20622824.900   108373619.406          50.000    20622827.140    80928352.484          50.000  
G29  20960620.080   110148798.637          50.000                                                  
G31  24511928.520   128811053.098          50.000                                                  
E 3  27577123.200   144918703.320          50.000    27577130.080   108218491.559          50.000  
E 5  27039949.080   142095850.926          50.000    27039954.700   106110522.563          50.000  
E15  23697398.720   124530640.426          50.000    23697403.640    92993648.500          50.000  
E27  24493899.240   128716285.098          50.000    24493903.340    96119292.250          50.000  
E30  23403259.500   122984936.918          50.000    23403263.880    91839389.387          50.000  
> 2020  5 15 23 59 18.0000000  0 13       0.000000000000
G 2  23737014.860   124738879.984          50.000                                                  
G 5  21114995.920   110960049.434          50.000                                                  
G12  21799608.140   114557704.754          50.000                                                  
G18  22546546.280   118482897.590          50.000                                                  
G21  23171614.200   121767623.906          50.000                                                  
G25  20623106.480   108375099.082          50.000    20623108.720    80929457.434          50.000  
G29  20960368.980   110147479.043          50.000                                                  
G31  24512054.380   128811714.516          50.000                                                  
E 3  27576632.560   144916124.965          50.000    27576639.420   108216566.164          50.000  
E 5  27039680.300   142094438.539          50.000    27039685.920   106109467.852          50.000  
E15  23697293.800   124530088.969          50.000    23697298.700    92993236.691          50.000  
E27  24493803.540   128715782.176          50.000    24493807.640    96118916.688          50.000  
E30  23403686.740   122987182.055          50.000    23403691.120    91841065.945          50.000  
> 2020  5 15 23 59 19.0000000  0 13       0.000000000000
G 2  23737487.660   124741364.563          50.000                                                  
G 5  21115114.740   110960673.828          50.000                                                  
G12  21800183.760   114560729.559          50.000                                                  
G18  22546080.800   118480451.477          50.000                                                  
G21  23171215.860   121765530.613          50.000                                                  
G25  20623388.160   108376579.367          50.000    20623390.420    80930562.836          50.000  
G29  20960117.920   110146159.684          50.000                                                  
G31  24512180.340   128812376.457          50.000                                                  
E 3  27576141.920   144913546.602          50.000    27576148.780   108214640.762          50.000  
E 5  27039411.600   142093026.480          50.000    27039417.220   106108413.391          50.000  
E15  23697188.880   124529537.664          50.000    23697193.800    92992825.000          50.000  
E27  24493707.940   128715279.734          50.000    24493712.020    96118541.484          50.000  
E30  23404114.040   122989427.527          50.000    23404118.420    91842742.758          50.000  
> 2020  5 15 23 59 20.0000000  0 13       0.000000000000
G 2  23737960.460   124743849.152          50.000                                                  
G 5  21115233.680   110961298.898          50.000                                                  
G12  21800759.420   114563754.742          50.000                                                  
G18  22545615.360   118478005.641          50.000                                                  
G21  23170817.560   121763437.578          50.000                                                  
G25  20623669.960   108378060.234          50.000    20623672.220    80931668.676          50.000  
G29  20959866.880   110144840.531          50.000                                                  
G31  24512306.400   128813038.898          50.000                                                  
E 3  27575651.260   144910968.219          50.000    27575658.120   108212715.340          50.000  
E 5  27039142.960   142091614.754          50.000    27039148.580   106107359.176          50.000  
E15  23697084.000   124528986.516          50.000    23697088.920    92992413.422          50.000  
E27  24493612.420   128714777.770          50.000    24493616.500    96118166.637          50.000  
E30  23404541.400   122991673.332          50.000    23404545.780    91844419.813          50.000  
> 2020  5 15 23 59 21.0000000  0 13       0.000000000000
G 2  23738433.260   124746333.738          50.000                                                  
G 5  21115352.760   110961924.660          50.000                                                  
G12  21801335.180   114566780.324          50.000                                                  
G18  22545150.000   118475560.102          50.000                                                  
G21  23170419.320   121761344.813          50.000                                                  
G25  20623951.880   108379541.715          50.000    20623954.140    80932774.969          50.000  
G29  20959615.900   110143521.609          50.000                                                  
G31  24512432.560   128813701.859          50.000                                                  
E 3  27575160.620   144908389.820          50.000    27575167.480   108210789.914          50.000  
E 5  27038874.380   142090203.359          50.000    27038880.000   106106305.207          50.000  
E15  23696979.160   124528435.523          50.000    23696984.060    92992001.965          50.000  
E27  24493516.980   128714276.285          50.000    24493521.080    96117792.148          50.000  
E30  23404968.820   122993919.465          50.000    23404973.200    91846097.113          50.000  
> 2020  5 15 23 59 22.0000000  0 13       0.000000000000
G 2  23738906.060   124748818.344          50.000                                                  
G 5  21115471.960   110962551.098          50.000                                                  
G12  21801911.000   114569806.285          50.000                                                  
G18  22544684.680   118473114.836          50.000                                                  
G21  23170021.140   121759252.324          50.000                                                  
G25  20624233.920   108381023.801          50.000    20624236.160    80933881.719          50.000  
G29  20959364.960   110142202.906          50.000                                                  
G31  24512558.800   128814365.324          50.000                                                  
E 3  27574669.960   144905811.410          50.000    27574676.820   108208864.473          50.000  
E 5  27038605.860   142088792.297          50.000    27038611.480   106105251.488          50.000  
E15  23696874.340   124527884.695          50.000    23696879.240    92991590.629          50.000  
E27  24493421.640   128713775.273          50.000    24493425.740    96117418.012          50.000  
E30  23405396.320   122996165.926          50.000    23405400.700    91847774.660          50.000  
> 2020  5 15 23 59 23.0000000  0 13       0.000000000000
G 2  23739378.860   124751302.953          50.000                                                  
G 5  21115591.300   110963178.223          50.000                                                  
G12  21802486.900   114572832.645          50.000                                                  
G18  22544219.420   118470669.867          50.000                                                  
G21  23169623.000   121757160.090          50.000                                                  
G25  20624516.060   108382506.488          50.000    20624518.320    80934988.918          50.000  
G29  20959114.060   110140884.418          50.000                                                  
G31  24512685.160   128815029.285          50.000                                                  
E 3  27574179.300   144903232.980          50.000    27574186.160   108206939.020          50.000  
E 5  27038337.400   142087381.559          50.000    27038343.020   106104198.012          50.000  
E15  23696769.540   124527334.016          50.000    23696774.460    92991179.402          50.000  
E27  24493326.400   128713274.734          50.000    24493330.500    96117044.227          50.000  
E30  23405823.860   122998412.719          50.000    23405828.260    91849452.457          50.000  
> 2020  5 15 23 59 24.0000000  0 13       0.000000000000
G 2  23739851.680   124753787.563          50.000                                                  
G 5  21115710.780   110963806.020          50.000                                                  
G12  21803062.860   114575859.387          50.000                                                  
G18  22543754.200   118468225.180          50.000                                                  
G21  23169224.900   121755068.117          50.000                                                  
G25  20624798.320   108383989.789          50.000    20624800.580    80936096.570          50.000  
G29  20958863.200   110139566.152          50.000                                                  
G31  24512811.600   128815693.773          50.000                                                  
E 3  27573688.640   144900654.551          50.000    27573695.500   108205013.566          50.000  
E 5  27038069.020   142085971.148          50.000    27038074.640   106103144.781          50.000  
E15  23696664.780   124526783.492          50.000    23696669.700    92990768.293          50.000  
E27  24493231.240   128712774.680          50.000    24493235.340    96116670.805          50.000  
E30  23406251.480   123000659.836          50.000    23406255.860    91851130.496          50.000  
> 2020  5 15 23 59 25.0000000  0 13       0.000000000000
G 2  23740324.480   124756272.191          50.000                                                  
G 5  21115830.360   110964434.504          50.000                                                  
G12  21803638.920   114578886.516          50.000                                                  
G18  22543289.040   118465780.781          50.000                                                  
G21  23168826.860   121752976.414          50.000                                                  
G25  20625080.700   108385473.676          50.000    20625082.960    80937204.664          50.000  
G29  20958612.380   110138248.109          50.000                                                  
G31  24512938.140   128816358.762          50.000                                                  
E 3  27573197.960   144898076.078          50.000    27573204.840   108203088.082          50.000  
E 5  27037800.680   142084561.074          50.000    27037806.300   106102091.801          50.000  
E15  23696560.040   124526233.129          50.000    23696564.960    92990357.305          50.000  
E27  24493136.180   128712275.105          50.000    24493140.280    96116297.742          50.000  
E30  23406679.160   123002907.297          50.000    23406683.540    91852808.789          50.000  
> 2020  5 15 23 59 26.0000000  0 13       0.000000000000
G 2  23740797.300   124758756.824          50.000                                                  
G 5  21115950.100   110965063.668          50.000                                                  
G12  21804215.040   114581914.047          50.000                                                  
G18  22542823.940   118463336.660          50.000                                                  
G21  23168428.880   121750884.969          50.000                                                  
G25  20625363.200   108386958.176          50.000    20625365.440    80938313.215          50.000  
G29  20958361.620   110136930.293          50.000                                                  
G31  24513064.780   128817024.262          50.000                                                  
E 3  27572707.300   144895497.594          50.000    27572714.160   108201162.590          50.000  
E 5  27037532.420   142083151.324          50.000    27037538.040   106101039.063          50.000  
E15  23696455.340   124525682.914          50.000    23696460.260    92989946.426          50.000  
E27  24493041.200   128711775.996          50.000    24493045.300    96115925.027          50.000  
E30  23407106.900   123005155.086          50.000    23407111.280    91854487.324          50.000  
> 2020  5 15 23 59 27.0000000  0 13       0.000000000000
G 2  23741270.100   124761241.469          50.000                                                  
G 5  21116069.960   110965693.516          50.000                                                  
G12  21804791.220   114584941.957          50.000                                                  
G18  22542358.900   118460892.836          50.000                                                  
G21  23168030.940   121748793.797          50.000                                                  
G25  20625645.800   108388443.285          50.000    20625648.060    80939422.219          50.000  
G29  20958110.880   110135612.688          50.000                                                  
G31  24513191.520   128817690.273          50.000                                                  
E 3  27572216.620   144892919.090          50.000    27572223.500   108199237.078          50.000  
E 5  27037264.220   142081741.902          50.000    27037269.840   106099986.570          50.000  
E15  23696350.680   124525132.871          50.000    23696355.600    92989535.676          50.000  
E27  24492946.320   128711277.383          50.000    24492950.420    96115552.684          50.000  
E30  23407534.700   123007403.199          50.000    23407539.100    91856166.109          50.000  
> 2020  5 15 23 59 28.0000000  0 13       0.000000000000
G 2  23741742.920   124763726.117          50.000                                                  
G 5  21116189.940   110966324.043          50.000                                                  
G12  21805367.500   114587970.254          50.000                                                  
G18  22541893.920   118458449.301          50.000                                                  
G21  23167633.060   121746702.891          50.000                                                  
G25  20625928.520   108389928.984          50.000    20625930.780    80940531.664          50.000  
G29  20957860.200   110134295.309          50.000                                                  
G31  24513318.360   128818356.785          50.000                                                  
E 3  27571725.940   144890340.582          50.000    27571732.820   108197311.570          50.000  
E 5  27036996.080   142080332.824          50.000    27037001.700   106098934.332          50.000  
E15  23696246.040   124524582.973          50.000    23696250.960    92989125.031          50.000  
E27  24492851.520   128710779.227          50.000    24492855.620    96115180.680          50.000  
E30  23407962.560   123009651.645          50.000    23407966.960    91857845.137          50.000  
> 2020  5 15 23 59 29.0000000  0 13       0.000000000000
G 2  23742215.740   124766210.770          50.000                                                  
G 5  21116310.060   110966955.266          50.000                                                  
G12  21805943.840   114590998.945          50.000                                                  
G18  22541428.980   118456006.047          50.000                                                  
G21  23167235.220   121744612.254          50.000                                                  
G25  20626211.360   108391415.301          50.000    20626213.620    80941641.574          50.000  
G29  20957609.540   110132978.152          50.000                                                  
G31  24513445.300   128819023.816          50.000                                                  
E 3  27571235.260   144887762.055          50.000    27571242.140   108195386.043          50.000  
E 5  27036728.000   142078924.070          50.000    27036733.620   106097882.336          50.000  
E15  23696141.420   124524033.230          50.000    23696146.340    92988714.508          50.000  
E27  24492756.820   128710281.559          50.000    24492760.920    96114809.039          50.000  
E30  23408390.500   123011900.414          50.000    23408394.880    91859524.410          50.000  
> 2020  5 15 23 59 30.0000000  0 13       0.000000000000
G 2  23742688.560   124768695.438          50.000                                                  
G 5  21116430.300   110967587.160          50.000                                                  
G12  21806520.240   114594028.027          50.000                                                  
G18  22540964.100   118453563.070          50.000                                                  
G21  23166837.440   121742521.883          50.000                                                  
G25  20626494.300   108392902.211          50.000    20626496.560    80942751.922          50.000  
G29  20957358.940   110131661.223          50.000                                                  
G31  24513572.320   128819691.355          50.000                                                  
E 3  27570744.580   144885183.516          50.000    27570751.460   108193460.508          50.000  
E 5  27036459.980   142077515.633          50.000    27036465.600   106096830.578          50.000  
E15  23696036.840   124523483.645          50.000    23696041.760    92988304.098          50.000  
E27  24492662.200   128709784.367          50.000    24492666.300    96114437.754          50.000  
E30  23408818.480   123014149.516          50.000    23408822.880    91861203.926          50.000  
> 2020  5 15 23 59 31.0000000  0 13       0.000000000000
G 2  23743161.380   124771180.109          50.000                                                  
G 5  21116550.680   110968219.742          50.000                                                  
G12  21807096.740   114597057.492          50.000                                                  
G18  22540499.260   118451120.395          50.000                                                  
G21  23166439.700   121740431.785          50.000                                                  
G25  20626777.380   108394389.723          50.000    20626779.640    80943862.727          50.000  
G29  20957108.380   110130344.516          50.000                                                  
G31  24513699.440   128820359.398          50.000                                                  
E 3  27570253.900   144882604.949          50.000    27570260.780   108191534.953          50.000  
E 5  27036192.020   142076107.535          50.000    27036197.660   106095779.070          50.000  
E15  23695932.280   124522934.219          50.000    23695937.220    92987893.809          50.000  
E27  24492567.680   128709287.652          50.000    24492571.780    96114066.828          50.000  
E30  23409246.540   123016398.941          50.000    23409250.940    91862883.688          50.000  
> 2020  5 15 23 59 32.0000000  0 13       0.000000000000
G 2  23743634.200   124773664.793          50.000                                                  
G 5  21116671.180   110968853.004          50.000                                                  
G12  21807673.300   114600087.352          50.000                                                  
G18  22540034.500   118448678.000          50.000                                                  
G21  23166042.020   121738341.941          50.000                                                  
G25  20627060.560   108395877.840          50.000    20627062.820    80944973.977          50.000  
G29  20956857.860   110129028.031          50.000                                                  
G31  24513826.680   128821027.957          50.000                                                  
E 3  27569763.220   144880026.379          50.000    27569770.080   108189609.395          50.000  
E 5  27035924.140   142074699.770          50.000    27035929.760   106094727.816          50.000  
E15  23695827.760   124522384.938          50.000    23695832.680    92987483.629          50.000  
E27  24492473.240   128708791.414          50.000    24492477.360    96113696.258          50.000  
E30  23409674.660   123018648.703          50.000    23409679.040    91864563.699          50.000  
> 2020  5 15 23 59 33.0000000  0 13       0.000000000000
G 2  23744107.020   124776149.480          50.000                                                  
G 5  21116791.820   110969486.945          50.000                                                  
G12  21808249.940   114603117.598          50.000                                                  
G18  22539569.780   118446235.887          50.000                                                  
G21  23165644.380   121736252.379          50.000                                                  
G25  20627343.840   108397366.566          50.000    20627346.100    80946085.684          50.000  
G29  20956607.380   110127711.766          50.000                                                  
G31  24513953.980   128821697.020          50.000                                                  
E 3  27569272.520   144877447.785          50.000    27569279.400   108187683.820          50.000  
E 5  27035656.320   142073292.340          50.000    27035661.940   106093676.809          50.000  
E15  23695723.280   124521835.832          50.000    23695728.200    92987073.578          50.000  
E27  24492378.900   128708295.652          50.000    24492383.020    96113326.043          50.000  
E30  23410102.840   123020898.797          50.000    23410107.220    91866243.957          50.000  
> 2020  5 15 23 59 34.0000000  0 13       0.000000000000
G 2  23744579.840   124778634.180          50.000                                                  
G 5  21116912.580   110970121.570          50.000                                                  
G12  21808826.640   114606148.230          50.000                                                  
G18  22539105.100   118443794.063          50.000                                                  
G21  23165246.800   121734163.070          50.000                                                  
G25  20627627.260   108398855.887          50.000    20627629.520    80947197.836          50.000  
G29  20956356.960   110126395.723          50.000                                                  
G31  24514081.400   128822366.598          50.000                                                  
E 3  27568781.840   144874869.180          50.000    27568788.700   108185758.234          50.000  
E 5  27035388.540   142071885.230          50.000    27035394.180   106092626.043          50.000  
E15  23695618.800   124521286.867          50.000    23695623.740    92986663.633          50.000  
E27  24492284.660   128707800.375          50.000    24492288.760    96112956.188          50.000  
E30  23410531.080   123023149.215          50.000    23410535.480    91867924.461          50.000  
> 2020  5 15 23 59 35.0000000  0 13       0.000000000000
G 2  23745052.660   124781118.883          50.000                                                  
G 5  21117033.480   110970756.875          50.000                                                  
G12  21809403.440   114609179.254          50.000                                                  
G18  22538640.500   118441352.527          50.000                                                  
G21  23164849.260   121732074.027          50.000                                                  
G25  20627910.780   108400345.816          50.000    20627913.040    80948310.438          50.000  
G29  20956106.560   110125079.898          50.000                                                  
G31  24514208.920   128823036.684          50.000                                                  
E 3  27568291.140   144872290.551          50.000    27568298.000   108183832.633          50.000  
E 5  27035120.840   142070478.453          50.000    27035126.480   106091575.523          50.000  
E15  23695514.380   124520738.059          50.000    23695519.300    92986253.805          50.000  
E27  24492190.500   128707305.566          50.000    24492194.600    96112586.684          50.000  
E30  23410959.380   123025399.957          50.000    23410963.780    91869605.207          50.000  
> 2020  5 15 23 59 36.0000000  0 13       0.000000000000
G 2  23745525.480   124783603.602          50.000                                                  
G 5  21117154.500   110971392.863          50.000                                                  
G12  21809980.300   114612210.664          50.000                                                  
G18  22538175.940   118438911.262          50.000                                                  
G21  23164451.780   121729985.250          50.000                                                  
G25  20628194.420   108401836.344          50.000    20628196.680    80949423.488          50.000  
G29  20955856.200   110123764.293          50.000                                                  
G31  24514336.520   128823707.277          50.000                                                  
E 3  27567800.440   144869711.910          50.000    27567807.300   108181907.020          50.000  
E 5  27034853.220   142069072.004          50.000    27034858.840   106090525.250          50.000  
E15  23695409.960   124520189.406          50.000    23695414.900    92985844.094          50.000  
E27  24492096.440   128706811.230          50.000    24492100.540    96112217.535          50.000  
E30  23411387.740   123027651.031          50.000    23411392.140    91871286.199          50.000  
> 2020  5 15 23 59 37.0000000  0 13       0.000000000000
G 2  23745998.320   124786088.320          50.000                                                  
G 5  21117275.660   110972029.547          50.000                                                  
G12  21810557.220   114615242.465          50.000                                                  
G18  22537711.440   118436470.297          50.000                                                  
G21  23164054.360   121727896.738          50.000                                                  
G25  20628478.180   108403327.488          50.000    20628480.440    80950537.000          50.000  
G29  20955605.900   110122448.922          50.000                                                  
G31  24514464.240   128824378.391          50.000                                                  
E 3  27567309.720   144867133.250          50.000    27567316.600   108179981.398          50.000  
E 5  27034585.640   142067665.895          50.000    27034591.260   106089475.230          50.000  
E15  23695305.600   124519640.918          50.000    23695310.520    92985434.500          50.000  
E27  24492002.460   128706317.387          50.000    24492006.560    96111848.746          50.000  
E30  23411816.160   123029902.445          50.000    23411820.580    91872967.441          50.000  
> 2020  5 15 23 59 38.0000000  0 13       0.000000000000
G 2  23746471.140   124788573.047          50.000                                                  
G 5  21117396.940   110972666.895          50.000                                                  
G12  21811134.240   114618274.652          50.000                                                  
G18  22537247.000   118434029.617          50.000                                                  
G21  23163656.980   121725808.488          50.000                                                  
G25  20628762.040   108404819.211          50.000    20628764.300    80951650.949          50.000  
G29  20955355.640   110121133.762          50.000                                                  
G31  24514592.040   128825050.016          50.000                                                  
E 3  27566819.020   144864554.578          50.000    27566825.900   108178055.762          50.000  
E 5  27034318.120   142066260.113          50.000    27034323.760   106088425.453          50.000  
E15  23695201.240   124519092.578          50.000    23695206.180    92985025.023          50.000  
E27  24491908.580   128705824.012          50.000    24491912.680    96111480.316          50.000  
E30  23412244.660   123032154.180          50.000    23412249.060    91874648.930          50.000  
> 2020  5 15 23 59 39.0000000  0 13       0.000000000000
G 2  23746943.980   124791057.777          50.000                                                  
G 5  21117518.360   110973304.945          50.000                                                  
G12  21811711.320   114621307.230          50.000                                                  
G18  22536782.600   118431589.219          50.000                                                  
G21  23163259.640   121723720.508          50.000                                                  
G25  20629046.020   108406311.551          50.000    20629048.300    80952765.352          50.000  
G29  20955105.420   110119818.828          50.000                                                  
G31  24514719.940   128825722.145          50.000                                                  
E 3  27566328.320   144861975.895          50.000    27566335.200   108176130.121          50.000  
E 5  27034050.680   142064854.648          50.000    27034056.300   106087375.918          50.000  
E15  23695096.920   124518544.387          50.000    23695101.860    92984615.656          50.000  
E27  24491814.780   128705331.109          50.000    24491818.880    96111112.234          50.000  
E30  23412673.220   123034406.230          50.000    23412677.620    91876330.652          50.000  
> 2020  5 15 23 59 40.0000000  0 13       0.000000000000
G 2  23747416.800   124793542.520          50.000                                                  
G 5  21117639.900   110973943.664          50.000                                                  
G12  21812288.460   114624340.180          50.000                                                  
G18  22536318.260   118429149.133          50.000                                                  
G21  23162862.360   121721632.797          50.000                                                  
G25  20629330.120   108407804.488          50.000    20629332.380    80953880.203          50.000  
G29  20954855.240   110118504.117          50.000                                                  
G31  24514847.940   128826394.781          50.000                                                  
E 3  27565837.600   144859397.184          50.000    27565844.480   108174204.457          50.000  
E 5  27033783.280   142063449.531          50.000    27033788.920   106086326.637          50.000  
E15  23694992.640   124517996.367          50.000    23694997.580    92984206.418          50.000  
E27  24491721.080   128704838.688          50.000    24491725.180    96110744.512          50.000  
E30  23413101.820   123036658.621          50.000    23413106.240    91878012.625          50.000  
> 2020  5 15 23 59 41.0000000  0 13       0.000000000000
G 2  23747889.640   124796027.266          50.000                                                  
G 5  21117761.580   110974583.063          50.000                                                  
G12  21812865.700   114627373.535          50.000                                                  
G18  22535853.980   118426709.316          50.000                                                  
G21  23162465.140   121719545.344          50.000                                                  
G25  20629614.340   108409298.035          50.000    20629616.600    80954995.508          50.000  
G29  20954605.100   110117189.629          50.000                                                  
G31  24514976.040   128827067.926          50.000                                                  
E 3  27565346.880   144856818.465          50.000    27565353.760   108172278.789          50.000  
E 5  27033515.960   142062044.738          50.000    27033521.600   106085277.605          50.000  
E15  23694888.380   124517448.496          50.000    23694893.320    92983797.289          50.000  
E27  24491627.460   128704346.746          50.000    24491631.580    96110377.152          50.000  
E30  23413530.500   123038911.344          50.000    23413534.920    91879694.852          50.000  
> 2020  5 15 23 59 42.0000000  0 13       0.000000000000
G 2  23748362.480   124798512.027          50.000                                                  
G 5  21117883.380   110975223.145          50.000                                                  
G12  21813443.000   114630407.273          50.000                                                  
G18  22535389.760   118424269.793          50.000                                                  
G21  23162067.960   121717458.152          50.000                                                  
G25  20629898.660   108410792.180          50.000    20629900.940    80956111.262          50.000  
G29  20954355.000   110115875.363          50.000                                                  
G31  24515104.240   128827741.570          50.000                                                  
E 3  27564856.180   144854239.738          50.000    27564863.040   108170353.121          50.000  
E 5  27033248.700   142060640.273          50.000    27033254.340   106084228.816          50.000  
E15  23694784.160   124516900.781          50.000    23694789.100    92983388.281          50.000  
E27  24491533.940   128703855.281          50.000    24491538.040    96110010.148          50.000  
E30  23413959.260   123041164.391          50.000    23413963.660    91881377.320          50.000  
> 2020  5 15 23 59 43.0000000  0 13       0.000000000000
G 2  23748835.300   124800996.789          50.000                                                  
G 5  21118005.320   110975863.914          50.000                                                  
G12  21814020.380   114633441.402          50.000                                                  
G18  22534925.580   118421830.547          50.000                                                  
G21  23161670.820   121715371.238          50.000                                                  
G25  20630183.100   108412286.918          50.000    20630185.380    80957227.461          50.000  
G29  20954104.940   110114561.324          50.000                                                  
G31  24515232.520   128828415.730          50.000                                                  
E 3  27564365.460   144851660.992          50.000    27564372.320   108168427.434          50.000  
E 5  27032981.500   142059236.152          50.000    27032987.140   106083180.285          50.000  
E15  23694679.960   124516353.223          50.000    23694684.900    92982979.391          50.000  
E27  24491440.500   128703364.293          50.000    24491444.620    96109643.500          50.000  
E30  23414388.060   123043417.777          50.000    23414392.460    91883060.043          50.000  
> 2020  5 15 23 59 44.0000000  0 13       0.000000000000
G 2  23749308.140   124803481.555          50.000                                                  
G 5  21118127.380   110976505.359          50.000                                                  
G12  21814597.820   114636475.922          50.000                                                  
G18  22534461.460   118419391.586          50.000                                                  
G21  23161273.760   121713284.590          50.000                                                  
G25  20630467.660   108413782.277          50.000    20630469.940    80958344.117          50.000  
G29  20953854.920   110113247.500          50.000                                                  
G31  24515360.900   128829090.395          50.000                                                  
E 3  27563874.720   144849082.219          50.000    27563881.600   108166501.730          50.000  
E 5  27032714.380   142057832.348          50.000    27032720.000   106082131.988          50.000  
E15  23694575.800   124515805.824          50.000    23694580.740    92982570.621          50.000  
E27  24491347.160   128702873.785          50.000    24491351.280    96109277.215          50.000  
E30  23414816.920   123045671.477          50.000    23414821.320    91884743.000          50.000  
> 2020  5 15 23 59 45.0000000  0 13       0.000000000000
G 2  23749780.980   124805966.328          50.000                                                  
G 5  21118249.580   110977147.488          50.000                                                  
G12  21815175.340   114639510.828          50.000                                                  
G18  22533997.400   118416952.922          50.000                                                  
G21  23160876.720   121711198.215          50.000                                                  
G25  20630752.320   108415278.230          50.000    20630754.600    80959461.223          50.000  
G29  20953604.960   110111933.898          50.000                                                  
G31  24515489.380   128829765.563          50.000                                                  
E 3  27563384.000   144846503.438          50.000    27563390.880   108164576.020          50.000  
E 5  27032447.300   142056428.879          50.000    27032452.940   106081083.945          50.000  
E15  23694471.660   124515258.570          50.000    23694476.600    92982161.957          50.000  
E27  24491253.920   128702383.754          50.000    24491258.020    96108911.281          50.000  
E30  23415245.860   123047925.516          50.000    23415250.260    91886426.207          50.000  
> 2020  5 15 23 59 46.0000000  0 13       0.000000000000
G 2  23750253.820   124808451.117          50.000                                                  
G 5  21118371.900   110977790.297          50.000                                                  
G12  21815752.940   114642546.117          50.000                                                  
G18  22533533.380   118414514.523          50.000                                                  
G21  23160479.740   121709112.094          50.000                                                  
G25  20631037.120   108416774.773          50.000    20631039.380    80960578.766          50.000  
G29  20953355.040   110110620.520          50.000                                                  
G31  24515617.960   128830441.234          50.000                                                  
E 3  27562893.280   144843924.652          50.000    27562900.140   108162650.301          50.000  
E 5  27032180.300   142055025.746          50.000    27032185.920   106080036.148          50.000  
E15  23694367.560   124514711.477          50.000    23694372.480    92981753.414          50.000  
E27  24491160.760   128701894.203          50.000    24491164.860    96108545.707          50.000  
E30  23415674.840   123050179.883          50.000    23415679.260    91888109.664          50.000  
> 2020  5 15 23 59 47.0000000  0 13       0.000000000000
G 2  23750726.660   124810935.914          50.000                                                  
G 5  21118494.340   110978433.793          50.000                                                  
G12  21816330.620   114645581.801          50.000                                                  
G18  22533069.440   118412076.426          50.000                                                  
G21  23160082.820   121707026.238          50.000                                                  
G25  20631322.000   108418271.930          50.000    20631324.280    80961696.770          50.000  
G29  20953105.140   110109307.371          50.000                                                  
G31  24515746.640   128831117.418          50.000                                                  
E 3  27562402.540   144841345.832          50.000    27562409.420   108160724.563          50.000  
E 5  27031913.340   142053622.941          50.000    27031918.980   106078988.602          50.000  
E15  23694263.480   124514164.543          50.000    23694268.400    92981344.988          50.000  
E27  24491067.680   128701405.121          50.000    24491071.800    96108180.484          50.000  
E30  23416103.900   123052434.578          50.000    23416108.300    91889793.363          50.000  
> 2020  5 15 23 59 48.0000000  0 13       0.000000000000
G 2  23751199.500   124813420.711          50.000                                                  
G 5  21118616.920   110979077.961          50.000                                                  
G12  21816908.360   114648617.859          50.000                                                  
G18  22532605.520   118409638.602          50.000                                                  
G21  23159685.940   121704940.660          50.000                                                  
G25  20631607.020   108419769.680          50.000    20631609.300    80962815.215          50.000  
G29  20952855.300   110107994.430          50.000                                                  
G31  24515875.400   128831794.105          50.000                                                  
E 3  27561911.800   144838767.012          50.000    27561918.680   108158798.820          50.000  
E 5  27031646.460   142052220.477          50.000    27031652.100   106077941.305          50.000  
E15  23694159.420   124513617.762          50.000    23694164.360    92980936.676          50.000  
E27  24490974.700   128700916.523          50.000    24490978.820    96107815.621          50.000  
E30  23416533.020   123054689.586          50.000    23416537.420    91891477.297          50.000  
> 2020  5 15 23 59 49.0000000  0 13       0.000000000000
G 2  23751672.360   124815905.527          50.000                                                  
G 5  21118739.640   110979722.813          50.000                                                  
G12  21817486.180   114651654.313          50.000                                                  
G18  22532141.680   118407201.078          50.000                                                  
G21  23159289.120   121702855.336          50.000                                                  
G25  20631892.160   108421268.043          50.000    20631894.440    80963934.113          50.000  
G29  20952605.500   110106681.723          50.000                                                  
G31  24516004.280   128832471.301          50.000                                                  
E 3  27561421.060   144836188.172          50.000    27561427.940   108156873.066          50.000  
E 5  27031379.640   142050818.332          50.000    27031385.280   106076894.254          50.000  
E15  23694055.400   124513071.137          50.000    23694060.340    92980528.484          50.000  
E27  24490881.820   128700428.402          50.000    24490885.940    96107451.117          50.000  
E30  23416962.200   123056944.934          50.000    23416966.600    91893161.484          50.000  
> 2020  5 15 23 59 50.0000000  0 13       0.000000000000
G 2  23752145.200   124818390.340          50.000                                                  
G 5  21118862.480   110980368.363          50.000                                                  
G12  21818064.080   114654691.152          50.000                                                  
G18  22531677.900   118404763.836          50.000                                                  
G21  23158892.360   121700770.285          50.000                                                  
G25  20632177.400   108422767.012          50.000    20632179.680    80965053.473          50.000  
G29  20952355.740   110105369.230          50.000                                                  
G31  24516133.240   128833149.000          50.000                                                  
E 3  27560930.320   144833609.316          50.000    27560937.200   108154947.297          50.000  
E 5  27031112.880   142049416.516          50.000    27031118.520   106075847.441          50.000  
E15  23693951.420   124512524.656          50.000    23693956.340    92980120.398          50.000  
E27  24490789.020   128699940.754          50.000    24490793.140    96107086.961          50.000  
E30  23417391.440   123059200.617          50.000    23417395.840    91894845.926          50.000  
> 2020  5 15 23 59 51.0000000  0 13       0.000000000000
G 2  23752618.040   124820875.168          50.000                                                  
G 5  21118985.460   110981014.590          50.000                                                  
G12  21818642.040   114657728.383          50.000                                                  
G18  22531214.160   118402326.906          50.000                                                  
G21  23158495.620   121698685.492          50.000                                                  
G25  20632462.760   108424266.582          50.000    20632465.040    80966173.277          50.000  
G29  20952106.020   110104056.961          50.000                                                  
G31  24516262.300   128833827.215          50.000                                                  
E 3  27560439.580   144831030.461          50.000    27560446.460   108153021.531          50.000  
E 5  27030846.200   142048015.031          50.000    27030851.820   106074800.879          50.000  
E15  23693847.460   124511978.340          50.000    23693852.380    92979712.434          50.000  
E27  24490696.320   128699453.598          50.000    24490700.440    96106723.176          50.000  
E30  23417820.740   123061456.621          50.000    23417825.140    91896530.602          50.000  
