     3.03           OBSERVATION DATA    M: Mixed            RINEX VERSION / TYPE
sbp2rinex v2.2 (RTKL                    20210504 171528 UTC PGM / RUN BY / DATE 
log: 2020-09-04-US-SF-1.sbp                                 COMMENT             
format: Swift Navigation SBP, option: CONVBASE,EPHALL,OBSALLCOMMENT             
                                                            MARKER NAME         
                                                            MARKER NUMBER       
                                                            MARKER TYPE         
                                                            OBSERVER / AGENCY   
                                                            REC # / TYPE / VERS 
                                                            ANT # / TYPE        
 -2725767.0261 -4348279.3430  3774573.3012                  APPROX POSITION XYZ 
        0.0000        0.0000        0.0000                  ANTENNA: DELTA H/E/N
G    6 C1C L1C S1C C5I L5I S5I                              SYS / # / OBS TYPES 
E    6 C1B L1B S1B C5I L5I S5I                              SYS / # / OBS TYPES 
  2020     9     4    17     9   51.0000000     GPS         TIME OF FIRST OBS   
  2020     9     4    17    40   20.0000000     GPS         TIME OF LAST OBS    
G                                                           SYS / PHASE SHIFT   
E                                                           SYS / PHASE SHIFT   
  0                                                         GLONASS SLOT / FRQ #
 C1C    0.000 C1P    0.000 C2C    0.000 C2P    0.000        GLONASS COD/PHS/BIS 
                                                            END OF HEADER       
> 2020  9  4 17  9 51.0000000  0 15       0.000000000000
G 2  24841957.880   130545370.457          50.000                                                  
G 5  21884463.180   115003547.164          50.000                                                  
G12  23725595.260   124678834.738          50.000                                                  
G15  24182114.380   127077665.184          50.000                                                  
G20  23673003.020   124402458.051          50.000                                                  
G25  21671218.140   113882954.348          50.000    21671220.360    85042455.746          50.000  
G26  23477372.480   123374338.809          50.000    23477373.660    92130172.215          50.000  
G29  20472936.940   107586008.172          50.000                                                  
E 1  26725124.340   140441428.246          50.000    26725130.480   104875079.156          50.000  
E 7  26918787.180   141459143.633          50.000    26918794.600   105635065.605          50.000  
E19  27585686.940   144963701.742          50.000    27585693.020   108252095.281          50.000  
E24  24683363.180   129711756.527          50.000    24683381.020    96862643.348          50.000  
E26  24943858.460   131080820.027          50.000    24943865.660    97885019.129          50.000  
E31  24716657.280   129886864.309          50.000    24716663.780    96993426.313          50.000  
E33  23852804.740   125347333.602          50.000    23852808.760    93603525.898          50.000  
> 2020  9  4 17  9 52.0000000  0 15       0.000000000000
G 2  24842409.900   130547745.840          50.000                                                  
G 5  21884907.820   115005883.707          50.000                                                  
G12  23726313.260   124682607.875          50.000                                                  
G15  24181538.940   127074641.227          50.000                                                  
G20  23672335.880   124398952.203          50.000                                                  
G25  21671744.580   113885720.770          50.000    21671746.800    85044521.578          50.000  
G26  23476908.960   123371902.984          50.000    23476910.140    92128353.258          50.000  
G29  20472832.640   107585460.090          50.000                                                  
E 1  26725703.040   140444469.277          50.000    26725709.160   104877350.055          50.000  
E 7  26918800.580   141459214.039          50.000    26918808.000   105635118.180          50.000  
E19  27585147.640   144960867.738          50.000    27585153.720   108249978.980          50.000  
E24  24683112.860   129710441.055          50.000    24683130.700    96861661.016          50.000  
E26  24944175.880   131082488.094          50.000    24944183.080    97886264.762          50.000  
E31  24716896.700   129888122.441          50.000    24716903.200    96994365.828          50.000  
E33  23852835.140   125347493.410          50.000    23852839.180    93603645.238          50.000  
> 2020  9  4 17  9 53.0000000  0 15       0.000000000000
G 2  24842861.920   130550121.184          50.000                                                  
G 5  21885352.540   115008220.750          50.000                                                  
G12  23727031.300   124686381.137          50.000                                                  
G15  24180963.500   127071617.313          50.000                                                  
G20  23671668.760   124395446.496          50.000                                                  
G25  21672271.080   113888487.609          50.000    21672273.300    85046587.723          50.000  
G26  23476445.520   123369467.605          50.000    23476446.700    92126534.629          50.000  
G29  20472728.420   107584912.352          50.000                                                  
E 1  26726281.740   140447510.398          50.000    26726287.880   104879621.023          50.000  
E 7  26918814.060   141459284.910          50.000    26918821.500   105635171.105          50.000  
E19  27584608.340   144958033.695          50.000    27584614.420   108247862.652          50.000  
E24  24682862.620   129709126.020          50.000    24682880.460    96860679.008          50.000  
E26  24944493.300   131084156.188          50.000    24944500.520    97887510.414          50.000  
E31  24717136.200   129889381.023          50.000    24717142.700    96995305.680          50.000  
E33  23852865.580   125347653.328          50.000    23852869.620    93603764.656          50.000  
> 2020  9  4 17  9 54.0000000  0 15       0.000000000000
G 2  24843313.920   130552496.488          50.000                                                  
G 5  21885797.360   115010558.289          50.000                                                  
G12  23727749.340   124690154.516          50.000                                                  
G15  24180388.080   127068593.430          50.000                                                  
G20  23671001.680   124391940.938          50.000                                                  
G25  21672797.680   113891254.871          50.000    21672799.900    85048654.184          50.000  
G26  23475982.180   123367032.672          50.000    23475983.340    92124716.336          50.000  
G29  20472624.240   107584364.961          50.000                                                  
E 1  26726860.460   140450551.594          50.000    26726866.600   104881892.043          50.000  
E 7  26918827.640   141459356.227          50.000    26918835.060   105635224.359          50.000  
E19  27584069.020   144955199.574          50.000    27584075.100   108245746.266          50.000  
E24  24682612.440   129707811.395          50.000    24682630.280    96859697.309          50.000  
E26  24944810.740   131085824.289          50.000    24944817.940    97888756.074          50.000  
E31  24717375.780   129890640.027          50.000    24717382.280    96996245.840          50.000  
E33  23852896.020   125347813.340          50.000    23852900.060    93603884.145          50.000  
> 2020  9  4 17  9 55.0000000  0 15       0.000000000000
G 2  24843765.920   130554871.758          50.000                                                  
G 5  21886242.280   115012896.332          50.000                                                  
G12  23728467.420   124693928.020          50.000                                                  
G15  24179812.660   127065569.602          50.000                                                  
G20  23670334.620   124388435.527          50.000                                                  
G25  21673324.360   113894022.543          50.000    21673326.580    85050720.953          50.000  
G26  23475518.900   123364598.172          50.000    23475520.080    92122898.367          50.000  
G29  20472520.160   107583817.934          50.000                                                  
E 1  26727439.200   140453592.867          50.000    26727445.320   104884163.125          50.000  
E 7  26918841.300   141459428.004          50.000    26918848.720   105635277.961          50.000  
E19  27583529.700   144952365.383          50.000    27583535.780   108243629.824          50.000  
E24  24682362.360   129706497.223          50.000    24682380.200    96858715.949          50.000  
E26  24945128.180   131087492.418          50.000    24945135.380    97890001.758          50.000  
E31  24717615.440   129891899.484          50.000    24717621.960    96997186.344          50.000  
E33  23852926.500   125347973.461          50.000    23852930.520    93604003.715          50.000  
> 2020  9  4 17  9 56.0000000  0 15       0.000000000000
G 2  24844217.920   130557246.984          50.000                                                  
G 5  21886687.280   115015234.863          50.000                                                  
G12  23729185.520   124697701.648          50.000                                                  
G15  24179237.260   127062545.813          50.000                                                  
G20  23669667.600   124384930.289          50.000                                                  
G25  21673851.100   113896790.633          50.000    21673853.320    85052788.031          50.000  
G26  23475055.720   123362164.125          50.000    23475056.880    92121080.734          50.000  
G29  20472416.120   107583271.246          50.000                                                  
E 1  26728017.940   140456634.219          50.000    26728024.080   104886434.262          50.000  
E 7  26918855.040   141459500.223          50.000    26918862.460   105635331.891          50.000  
E19  27582990.340   144949531.102          50.000    27582996.420   108241513.316          50.000  
E24  24682112.360   129705183.465          50.000    24682130.200    96857734.895          50.000  
E26  24945445.600   131089160.563          50.000    24945452.820    97891247.449          50.000  
E31  24717855.180   129893159.371          50.000    24717861.700    96998127.168          50.000  
E33  23852956.980   125348133.672          50.000    23852961.020    93604123.355          50.000  
> 2020  9  4 17  9 57.0000000  0 15       0.000000000000
G 2  24844669.900   130559622.172          50.000                                                  
G 5  21887132.380   115017573.895          50.000                                                  
G12  23729903.640   124701475.375          50.000                                                  
G15  24178661.860   127059522.063          50.000                                                  
G20  23669000.600   124381425.195          50.000                                                  
G25  21674377.920   113899559.043          50.000    21674380.160    85054855.324          50.000  
G26  23474592.620   123359730.520          50.000    23474593.780    92119263.434          50.000  
G29  20472312.160   107582724.938          50.000                                                  
E 1  26728596.720   140459675.676          50.000    26728602.840   104888705.477          50.000  
E 7  26918868.860   141459572.898          50.000    26918876.300   105635386.164          50.000  
E19  27582450.980   144946696.754          50.000    27582457.060   108239396.758          50.000  
E24  24681862.460   129703870.145          50.000    24681880.300    96856754.168          50.000  
E26  24945763.060   131090828.727          50.000    24945770.260    97892493.152          50.000  
E31  24718095.020   129894419.684          50.000    24718101.520    96999068.313          50.000  
E33  23852987.480   125348293.980          50.000    23852991.520    93604243.066          50.000  
> 2020  9  4 17  9 58.0000000  0 15       0.000000000000
G 2  24845121.880   130561997.336          50.000                                                  
G 5  21887577.580   115019913.430          50.000                                                  
G12  23730621.780   124705249.230          50.000                                                  
G15  24178086.460   127056498.352          50.000                                                  
G20  23668333.640   124377920.258          50.000                                                  
G25  21674904.840   113902327.984          50.000    21674907.060    85056923.039          50.000  
G26  23474129.600   123357297.340          50.000    23474130.760    92117446.449          50.000  
G29  20472208.260   107582178.965          50.000                                                  
E 1  26729175.500   140462717.195          50.000    26729181.640   104890976.738          50.000  
E 7  26918882.780   141459646.031          50.000    26918890.220   105635440.773          50.000  
E19  27581911.600   144943862.301          50.000    27581917.680   108237280.125          50.000  
E24  24681612.620   129702557.238          50.000    24681630.460    96855773.750          50.000  
E26  24946080.500   131092496.910          50.000    24946087.700    97893738.875          50.000  
E31  24718334.940   129895680.445          50.000    24718341.440    97000009.789          50.000  
E33  23853018.020   125348454.398          50.000    23853022.040    93604362.859          50.000  
> 2020  9  4 17  9 59.0000000  0 15       0.000000000000
G 2  24845573.860   130564372.473          50.000                                                  
G 5  21888022.880   115022253.457          50.000                                                  
G12  23731339.940   124709023.215          50.000                                                  
G15  24177511.080   127053474.688          50.000                                                  
G20  23667666.700   124374415.473          50.000                                                  
G25  21675431.840   113905097.324          50.000    21675434.060    85058991.055          50.000  
G26  23473666.660   123354864.617          50.000    23473667.840    92115629.805          50.000  
G29  20472104.440   107581633.336          50.000                                                  
E 1  26729754.300   140465758.809          50.000    26729760.440   104893248.074          50.000  
E 7  26918896.780   141459719.613          50.000    26918904.220   105635495.723          50.000  
E19  27581372.220   144941027.797          50.000    27581378.300   108235163.449          50.000  
E24  24681362.860   129701244.770          50.000    24681380.700    96854793.660          50.000  
E26  24946397.940   131094165.109          50.000    24946405.160    97894984.605          50.000  
E31  24718574.940   129896941.645          50.000    24718581.440    97000951.594          50.000  
E33  23853048.560   125348614.918          50.000    23853052.600    93604482.727          50.000  
> 2020  9  4 17 10  0.0000000  0 15       0.000000000000
G 2  24846025.820   130566747.559          50.000                                                  
G 5  21888468.260   115024593.980          50.000                                                  
G12  23732058.140   124712797.309          50.000                                                  
G15  24176935.700   127050451.074          50.000                                                  
G20  23666999.780   124370910.859          50.000                                                  
G25  21675958.900   113907867.094          50.000    21675961.120    85061059.387          50.000  
G26  23473203.820   123352432.320          50.000    23473204.980    92113813.480          50.000  
G29  20472000.660   107581088.055          50.000                                                  
E 1  26730333.120   140468800.500          50.000    26730339.240   104895519.465          50.000  
E 7  26918910.880   141459793.648          50.000    26918918.300   105635551.008          50.000  
E19  27580832.820   144938193.215          50.000    27580838.900   108233046.719          50.000  
E24  24681113.180   129699932.734          50.000    24681131.020    96853813.895          50.000  
E26  24946715.400   131095833.320          50.000    24946722.600    97896230.348          50.000  
E31  24718815.020   129898203.285          50.000    24718821.520    97001893.727          50.000  
E33  23853079.120   125348775.527          50.000    23853083.160    93604602.664          50.000  
> 2020  9  4 17 10  1.0000000  0 15       0.000000000000
G 2  24846477.780   130569122.613          50.000                                                  
G 5  21888913.740   115026934.992          50.000                                                  
G12  23732776.340   124716571.508          50.000                                                  
G15  24176360.340   127047427.500          50.000                                                  
G20  23666332.900   124367406.391          50.000                                                  
G25  21676486.040   113910637.266          50.000    21676488.260    85063128.020          50.000  
G26  23472741.040   123350000.453          50.000    23472742.220    92111997.477          50.000  
G29  20471896.980   107580543.125          50.000                                                  
E 1  26730911.940   140471842.270          50.000    26730918.080   104897790.914          50.000  
E 7  26918925.040   141459868.125          50.000    26918932.480   105635606.621          50.000  
E19  27580293.400   144935358.563          50.000    27580299.480   108230929.934          50.000  
E24  24680863.600   129698621.121          50.000    24680881.440    96852834.441          50.000  
E26  24947032.840   131097501.547          50.000    24947040.060    97897476.102          50.000  
E31  24719055.180   129899465.348          50.000    24719061.680    97002836.176          50.000  
E33  23853109.700   125348936.234          50.000    23853113.740    93604722.672          50.000  
> 2020  9  4 17 10  2.0000000  0 15       0.000000000000
G 2  24846929.740   130571497.633          50.000                                                  
G 5  21889359.320   115029276.516          50.000                                                  
G12  23733494.580   124720345.848          50.000                                                  
G15  24175784.980   127044403.965          50.000                                                  
G20  23665666.060   124363902.086          50.000                                                  
G25  21677013.280   113913407.871          50.000    21677015.500    85065196.977          50.000  
G26  23472278.360   123347569.051          50.000    23472279.540    92110181.820          50.000  
G29  20471793.340   107579998.547          50.000                                                  
E 1  26731490.800   140474884.129          50.000    26731496.920   104900062.434          50.000  
E 7  26918939.300   141459943.063          50.000    26918946.740   105635662.582          50.000  
E19  27579753.960   144932523.816          50.000    27579760.040   108228813.078          50.000  
E24  24680614.080   129697309.926          50.000    24680631.920    96851855.305          50.000  
E26  24947350.300   131099169.801          50.000    24947357.520    97898721.875          50.000  
E31  24719295.420   129900727.844          50.000    24719301.940    97003778.949          50.000  
E33  23853140.300   125349097.043          50.000    23853144.340    93604842.758          50.000  
> 2020  9  4 17 10  3.0000000  0 15       0.000000000000
G 2  24847381.680   130573872.613          50.000                                                  
G 5  21889804.980   115031618.523          50.000                                                  
G12  23734212.820   124724120.297          50.000                                                  
G15  24175209.620   127041380.473          50.000                                                  
G20  23664999.240   124360397.918          50.000                                                  
G25  21677540.580   113916178.871          50.000    21677542.800    85067266.230          50.000  
G26  23471815.760   123345138.078          50.000    23471816.940    92108366.484          50.000  
G29  20471689.780   107579454.320          50.000                                                  
E 1  26732069.660   140477926.059          50.000    26732075.780   104902334.004          50.000  
E 7  26918953.640   141460018.449          50.000    26918961.080   105635718.875          50.000  
E19  27579214.520   144929688.992          50.000    27579220.580   108226696.168          50.000  
E24  24680364.660   129695999.160          50.000    24680382.500    96850876.488          50.000  
E26  24947667.760   131100838.059          50.000    24947674.980    97899967.652          50.000  
E31  24719535.760   129901990.785          50.000    24719542.260    97004722.055          50.000  
E33  23853170.920   125349257.953          50.000    23853174.960    93604962.918          50.000  
> 2020  9  4 17 10  4.0000000  0 15       0.000000000000
G 2  24847833.620   130576247.559          50.000                                                  
G 5  21890250.760   115033961.031          50.000                                                  
G12  23734931.100   124727894.883          50.000                                                  
G15  24174634.280   127038357.047          50.000                                                  
G20  23664332.440   124356893.930          50.000                                                  
G25  21678067.980   113918950.320          50.000    21678070.200    85069335.816          50.000  
G26  23471353.240   123342707.551          50.000    23471354.420    92106551.480          50.000  
G29  20471586.280   107578910.445          50.000                                                  
E 1  26732648.540   140480968.070          50.000    26732654.660   104904605.633          50.000  
E 7  26918968.080   141460094.289          50.000    26918975.520   105635775.512          50.000  
E19  27578675.060   144926854.117          50.000    27578681.120   108224579.215          50.000  
E24  24680115.300   129694688.840          50.000    24680133.140    96849898.000          50.000  
E26  24947985.240   131102506.355          50.000    24947992.440    97901213.457          50.000  
E31  24719776.160   129903254.160          50.000    24719782.680    97005665.484          50.000  
E33  23853201.560   125349418.973          50.000    23853205.600    93605083.156          50.000  
> 2020  9  4 17 10  5.0000000  0 15       0.000000000000
G 2  24848285.540   130578622.465          50.000                                                  
G 5  21890696.620   115036304.031          50.000                                                  
G12  23735649.400   124731669.570          50.000                                                  
G15  24174058.940   127035333.652          50.000                                                  
G20  23663665.680   124353390.074          50.000                                                  
G25  21678595.440   113921722.172          50.000    21678597.660    85071405.707          50.000  
G26  23470890.820   123340277.461          50.000    23470891.980    92104736.805          50.000  
G29  20471482.860   107578366.922          50.000                                                  
E 1  26733227.420   140484010.172          50.000    26733233.560   104906877.332          50.000  
E 7  26918982.600   141460170.586          50.000    26918990.040   105635832.488          50.000  
E19  27578135.580   144924019.141          50.000    27578141.640   108222462.188          50.000  
E24  24679866.040   129693378.934          50.000    24679883.880    96848919.824          50.000  
E26  24948302.700   131104174.664          50.000    24948309.920    97902459.270          50.000  
E31  24720016.660   129904517.965          50.000    24720023.180    97006609.234          50.000  
E33  23853232.220   125349580.078          50.000    23853236.260    93605203.461          50.000  
> 2020  9  4 17 10  6.0000000  0 15       0.000000000000
G 2  24848737.480   130580997.336          50.000                                                  
G 5  21891142.560   115038647.523          50.000                                                  
G12  23736367.740   124735444.371          50.000                                                  
G15  24173483.620   127032310.301          50.000                                                  
G20  23662998.960   124349886.414          50.000                                                  
G25  21679122.980   113924494.441          50.000    21679125.200    85073475.910          50.000  
G26  23470428.480   123337847.809          50.000    23470429.640    92102922.453          50.000  
G29  20471379.500   107577823.754          50.000                                                  
E 1  26733806.340   140487052.363          50.000    26733812.460   104909149.098          50.000  
E 7  26918997.200   141460247.332          50.000    26919004.640   105635889.797          50.000  
E19  27577596.080   144921184.105          50.000    27577602.160   108220345.117          50.000  
E24  24679616.860   129692069.465          50.000    24679634.700    96847941.973          50.000  
E26  24948620.180   131105842.996          50.000    24948627.380    97903705.102          50.000  
E31  24720257.240   129905782.207          50.000    24720263.740    97007553.309          50.000  
E33  23853262.900   125349741.293          50.000    23853266.940    93605323.852          50.000  
> 2020  9  4 17 10  7.0000000  0 15       0.000000000000
G 2  24849189.380   130583372.168          50.000                                                  
G 5  21891588.620   115040991.523          50.000                                                  
G12  23737086.080   124739219.305          50.000                                                  
G15  24172908.300   127029287.004          50.000                                                  
G20  23662332.260   124346382.887          50.000                                                  
G25  21679650.600   113927267.125          50.000    21679652.820    85075546.418          50.000  
G26  23469966.200   123335418.598          50.000    23469967.380    92101108.434          50.000  
G29  20471276.200   107577280.941          50.000                                                  
E 1  26734385.260   140490094.633          50.000    26734391.400   104911420.922          50.000  
E 7  26919011.900   141460324.543          50.000    26919019.320   105635947.453          50.000  
E19  27577056.580   144918348.984          50.000    27577062.660   108218227.984          50.000  
E24  24679367.760   129690760.422          50.000    24679385.600    96846964.441          50.000  
E26  24948937.660   131107511.340          50.000    24948944.860    97904950.941          50.000  
E31  24720497.900   129907046.902          50.000    24720504.420    97008497.727          50.000  
E33  23853293.600   125349902.605          50.000    23853297.640    93605444.313          50.000  
> 2020  9  4 17 10  8.0000000  0 15       0.000000000000
G 2  24849641.300   130585746.957          50.000                                                  
G 5  21892034.760   115043336.016          50.000                                                  
G12  23737804.440   124742994.344          50.000                                                  
G15  24172333.000   127026263.734          50.000                                                  
G20  23661665.600   124342879.512          50.000                                                  
G25  21680178.300   113930040.219          50.000    21680180.540    85077617.234          50.000  
G26  23469504.020   123332989.828          50.000    23469505.200    92099294.742          50.000  
G29  20471172.960   107576738.473          50.000                                                  
E 1  26734964.200   140493136.969          50.000    26734970.340   104913692.793          50.000  
E 7  26919026.680   141460402.195          50.000    26919034.100   105636005.441          50.000  
E19  27576517.060   144915513.789          50.000    27576523.140   108216110.789          50.000  
E24  24679118.740   129689451.809          50.000    24679136.580    96845987.230          50.000  
E26  24949255.140   131109179.703          50.000    24949262.340    97906196.801          50.000  
E31  24720738.640   129908312.027          50.000    24720745.160    97009442.461          50.000  
E33  23853324.320   125350064.023          50.000    23853328.340    93605564.852          50.000  
> 2020  9  4 17 10  9.0000000  0 15       0.000000000000
G 2  24850093.200   130588121.711          50.000                                                  
G 5  21892481.000   115045681.012          50.000                                                  
G12  23738522.840   124746769.508          50.000                                                  
G15  24171757.700   127023240.527          50.000                                                  
G20  23660998.960   124339376.305          50.000                                                  
G25  21680706.100   113932813.746          50.000    21680708.320    85079688.375          50.000  
G26  23469041.940   123330561.512          50.000    23469043.100    92097481.387          50.000  
G29  20471069.800   107576196.359          50.000                                                  
E 1  26735543.160   140496179.406          50.000    26735549.300   104915964.742          50.000  
E 7  26919041.540   141460480.297          50.000    26919048.960   105636063.766          50.000  
E19  27575977.520   144912678.523          50.000    27575983.600   108213993.547          50.000  
E24  24678869.800   129688143.621          50.000    24678887.620    96845010.340          50.000  
E26  24949572.620   131110848.086          50.000    24949579.820    97907442.668          50.000  
E31  24720979.480   129909577.566          50.000    24720985.980    97010387.508          50.000  
E33  23853355.040   125350225.531          50.000    23853359.080    93605685.457          50.000  
> 2020  9  4 17 10 10.0000000  0 15       0.000000000000
G 2  24850545.100   130590496.430          50.000                                                  
G 5  21892927.320   115048026.492          50.000                                                  
G12  23739241.240   124750544.785          50.000                                                  
G15  24171182.400   127020217.352          50.000                                                  
G20  23660332.340   124335873.234          50.000                                                  
G25  21681233.960   113935587.676          50.000    21681236.180    85081759.813          50.000  
G26  23468579.920   123328133.629          50.000    23468581.100    92095668.359          50.000  
G29  20470966.720   107575654.602          50.000                                                  
E 1  26736122.120   140499221.918          50.000    26736128.260   104918236.746          50.000  
E 7  26919056.480   141460558.859          50.000    26919063.920   105636122.430          50.000  
E19  27575437.980   144909843.160          50.000    27575444.040   108211876.234          50.000  
E24  24678620.940   129686835.863          50.000    24678638.780    96844033.766          50.000  
E26  24949890.100   131112516.488          50.000    24949897.320    97908688.551          50.000  
E31  24721220.380   129910843.555          50.000    24721226.900    97011332.883          50.000  
E33  23853385.800   125350387.148          50.000    23853389.840    93605806.145          50.000  
> 2020  9  4 17 10 11.0000000  0 15       0.000000000000
G 2  24850996.980   130592871.102          50.000                                                  
G 5  21893373.740   115050372.469          50.000                                                  
G12  23739959.680   124754320.172          50.000                                                  
G15  24170607.120   127017194.227          50.000                                                  
G20  23659665.760   124332370.316          50.000                                                  
G25  21681761.900   113938362.027          50.000    21681764.120    85083831.570          50.000  
G26  23468118.000   123325706.188          50.000    23468119.160    92093855.660          50.000  
G29  20470863.680   107575113.195          50.000                                                  
E 1  26736701.120   140502264.508          50.000    26736707.260   104920508.813          50.000  
E 7  26919071.520   141460637.879          50.000    26919078.960   105636181.441          50.000  
E19  27574898.420   144907007.746          50.000    27574904.480   108209758.879          50.000  
E24  24678372.160   129685528.539          50.000    24678390.000    96843057.516          50.000  
E26  24950207.580   131114184.906          50.000    24950214.800    97909934.445          50.000  
E31  24721461.380   129912109.980          50.000    24721467.880    97012278.594          50.000  
E33  23853416.580   125350548.848          50.000    23853420.600    93605926.895          50.000  
> 2020  9  4 17 10 12.0000000  0 15       0.000000000000
G 2  24851448.860   130595245.742          50.000                                                  
G 5  21893820.260   115052718.941          50.000                                                  
G12  23740678.140   124758095.684          50.000                                                  
G15  24170031.840   127014171.148          50.000                                                  
G20  23658999.200   124328867.582          50.000                                                  
G25  21682289.920   113941136.797          50.000    21682292.140    85085903.637          50.000  
G26  23467656.160   123323279.191          50.000    23467657.320    92092043.293          50.000  
G29  20470760.720   107574572.137          50.000                                                  
E 1  26737280.120   140505307.180          50.000    26737286.260   104922780.934          50.000  
E 7  26919086.640   141460717.344          50.000    26919094.080   105636240.777          50.000  
E19  27574358.840   144904172.254          50.000    27574364.900   108207641.469          50.000  
E24  24678123.460   129684221.641          50.000    24678141.300    96842081.590          50.000  
E26  24950525.080   131115853.344          50.000    24950532.300    97911180.355          50.000  
E31  24721702.460   129913376.859          50.000    24721708.960    97013224.637          50.000  
E33  23853447.360   125350710.656          50.000    23853451.400    93606047.727          50.000  
> 2020  9  4 17 10 13.0000000  0 15       0.000000000000
G 2  24851900.740   130597620.352          50.000                                                  
G 5  21894266.880   115055065.910          50.000                                                  
G12  23741396.620   124761871.313          50.000                                                  
G15  24169456.580   127011148.117          50.000                                                  
G20  23658332.680   124325365.004          50.000                                                  
G25  21682818.020   113943911.992          50.000    21682820.240    85087976.023          50.000  
G26  23467194.400   123320852.621          50.000    23467195.560    92090231.246          50.000  
G29  20470657.840   107574031.438          50.000                                                  
E 1  26737859.140   140508349.930          50.000    26737865.260   104925053.117          50.000  
E 7  26919101.860   141460797.262          50.000    26919109.280   105636300.461          50.000  
E19  27573819.240   144901336.688          50.000    27573825.320   108205524.000          50.000  
E24  24677874.840   129682915.168          50.000    24677892.680    96841105.977          50.000  
E26  24950842.580   131117521.801          50.000    24950849.800    97912426.285          50.000  
E31  24721943.600   129914644.133          50.000    24721950.120    97014170.980          50.000  
E33  23853478.180   125350872.574          50.000    23853482.220    93606168.641          50.000  
> 2020  9  4 17 10 14.0000000  0 15       0.000000000000
G 2  24852352.600   130599994.922          50.000                                                  
G 5  21894713.580   115057413.375          50.000                                                  
G12  23742115.120   124765647.051          50.000                                                  
G15  24168881.320   127008125.129          50.000                                                  
G20  23657666.200   124321862.574          50.000                                                  
G25  21683346.200   113946687.574          50.000    21683348.420    85090048.695          50.000  
G26  23466732.720   123318426.504          50.000    23466733.880    92088419.535          50.000  
G29  20470555.000   107573491.070          50.000                                                  
E 1  26738438.160   140511392.770          50.000    26738444.300   104927325.367          50.000  
E 7  26919117.140   141460877.633          50.000    26919124.580   105636360.477          50.000  
E19  27573279.640   144898501.047          50.000    27573285.700   108203406.480          50.000  
E24  24677626.320   129681609.129          50.000    24677644.160    96840130.688          50.000  
E26  24951160.080   131119190.273          50.000    24951167.300    97913672.223          50.000  
E31  24722184.860   129915911.875          50.000    24722191.360    97015117.668          50.000  
E33  23853509.000   125351034.586          50.000    23853513.040    93606289.621          50.000  
> 2020  9  4 17 10 15.0000000  0 15       0.000000000000
G 2  24852804.460   130602369.445          50.000                                                  
G 5  21895160.380   115059761.324          50.000                                                  
G12  23742833.640   124769422.898          50.000                                                  
G15  24168306.080   127005102.188          50.000                                                  
G20  23656999.740   124318360.309          50.000                                                  
G25  21683874.460   113949463.586          50.000    21683876.680    85092121.691          50.000  
G26  23466271.120   123316000.832          50.000    23466272.300    92086608.156          50.000  
G29  20470452.240   107572951.066          50.000                                                  
E 1  26739017.220   140514435.676          50.000    26739023.360   104929597.664          50.000  
E 7  26919132.520   141460958.453          50.000    26919139.960   105636420.828          50.000  
E19  27572740.020   144895665.316          50.000    27572746.080   108201288.891          50.000  
E24  24677377.860   129680303.516          50.000    24677395.700    96839155.715          50.000  
E26  24951477.580   131120858.766          50.000    24951484.800    97914918.172          50.000  
E31  24722426.180   129917180.039          50.000    24722432.680    97016064.672          50.000  
E33  23853539.860   125351196.691          50.000    23853543.880    93606410.676          50.000  
> 2020  9  4 17 10 16.0000000  0 15       0.000000000000
G 2  24853256.320   130604743.945          50.000                                                  
G 5  21895607.280   115062109.785          50.000                                                  
G12  23743552.180   124773198.887          50.000                                                  
G15  24167730.840   127002079.293          50.000                                                  
G20  23656333.300   124314858.203          50.000                                                  
G25  21684402.800   113952240.016          50.000    21684405.020    85094195.000          50.000  
G26  23465809.620   123313575.605          50.000    23465810.780    92084797.113          50.000  
G29  20470349.560   107572411.422          50.000                                                  
E 1  26739596.280   140517478.691          50.000    26739602.420   104931870.047          50.000  
E 7  26919148.000   141461039.734          50.000    26919155.420   105636481.527          50.000  
E19  27572200.380   144892829.527          50.000    27572206.460   108199171.258          50.000  
E24  24677129.500   129678998.336          50.000    24677147.340    96838181.070          50.000  
E26  24951795.100   131122527.281          50.000    24951802.300    97916164.137          50.000  
E31  24722667.580   129918448.645          50.000    24722674.100    97017012.012          50.000  
E33  23853570.720   125351358.898          50.000    23853574.760    93606531.805          50.000  
> 2020  9  4 17 10 17.0000000  0 15       0.000000000000
G 2  24853708.160   130607118.395          50.000                                                  
G 5  21896054.280   115064458.734          50.000                                                  
G12  23744270.760   124776974.988          50.000                                                  
G15  24167155.620   126999056.441          50.000                                                  
G20  23655666.900   124311356.230          50.000                                                  
G25  21684931.220   113955016.863          50.000    21684933.440    85096268.617          50.000  
G26  23465348.200   123311150.801          50.000    23465349.360    92082986.383          50.000  
G29  20470246.940   107571872.121          50.000                                                  
E 1  26740175.360   140520521.773          50.000    26740181.500   104934142.477          50.000  
E 7  26919163.540   141461121.461          50.000    26919170.980   105636542.555          50.000  
E19  27571660.740   144889993.645          50.000    27571666.800   108197053.555          50.000  
E24  24676881.220   129677693.590          50.000    24676899.060    96837206.746          50.000  
E26  24952112.600   131124195.813          50.000    24952119.820    97917410.121          50.000  
E31  24722909.080   129919717.680          50.000    24722915.580    97017959.664          50.000  
E33  23853601.620   125351521.219          50.000    23853605.640    93606653.016          50.000  
> 2020  9  4 17 10 18.0000000  0 15       0.000000000000
G 2  24854160.000   130609492.805          50.000                                                  
G 5  21896501.360   115066808.164          50.000                                                  
G12  23744989.340   124780751.191          50.000                                                  
G15  24166580.380   126996033.629          50.000                                                  
G20  23655000.540   124307854.430          50.000                                                  
G25  21685459.700   113957794.129          50.000    21685461.940    85098342.551          50.000  
G26  23464886.860   123308726.453          50.000    23464888.020    92081175.992          50.000  
G29  20470144.380   107571333.168          50.000                                                  
E 1  26740754.460   140523564.926          50.000    26740760.600   104936414.957          50.000  
E 7  26919179.180   141461203.641          50.000    26919186.620   105636603.922          50.000  
E19  27571121.080   144887157.711          50.000    27571127.140   108194935.809          50.000  
E24  24676633.000   129676389.266          50.000    24676650.840    96836232.738          50.000  
E26  24952430.120   131125864.355          50.000    24952437.320    97918656.109          50.000  
E31  24723150.640   129920987.152          50.000    24723157.160    97018907.645          50.000  
E33  23853632.520   125351683.621          50.000    23853636.540    93606774.293          50.000  
> 2020  9  4 17 10 19.0000000  0 15       0.000000000000
G 2  24854611.820   130611867.184          50.000                                                  
G 5  21896948.540   115069158.098          50.000                                                  
G12  23745707.960   124784527.520          50.000                                                  
G15  24166005.180   126993010.875          50.000                                                  
G20  23654334.180   124304352.777          50.000                                                  
G25  21685988.280   113960571.809          50.000    21685990.500    85100416.789          50.000  
G26  23464425.600   123306302.547          50.000    23464426.760    92079365.934          50.000  
G29  20470041.880   107570794.570          50.000                                                  
E 1  26741333.560   140526608.168          50.000    26741339.700   104938687.508          50.000  
E 7  26919194.900   141461286.273          50.000    26919202.340   105636665.629          50.000  
E19  27570581.400   144884321.688          50.000    27570587.460   108192818.004          50.000  
E24  24676384.880   129675085.371          50.000    24676402.720    96835259.051          50.000  
E26  24952747.640   131127532.922          50.000    24952754.840    97919902.117          50.000  
E31  24723392.300   129922257.063          50.000    24723398.820    97019855.957          50.000  
E33  23853663.440   125351846.129          50.000    23853667.480    93606895.645          50.000  
> 2020  9  4 17 10 20.0000000  0 15       0.000000000000
G 2  24855063.640   130614241.516          50.000                                                  
G 5  21897395.800   115071508.520          50.000                                                  
G12  23746426.600   124788303.965          50.000                                                  
G15  24165429.980   126989988.156          50.000                                                  
G20  23653667.880   124300851.309          50.000                                                  
G25  21686516.940   113963349.910          50.000    21686519.160    85102491.348          50.000  
G26  23463964.440   123303879.086          50.000    23463965.600    92077556.207          50.000  
G29  20469939.460   107570256.332          50.000                                                  
E 1  26741912.700   140529651.488          50.000    26741918.820   104940960.113          50.000  
E 7  26919210.720   141461369.367          50.000    26919218.160   105636727.680          50.000  
E19  27570041.700   144881485.582          50.000    27570047.760   108190700.133          50.000  
E24  24676136.840   129673781.898          50.000    24676154.680    96834285.680          50.000  
E26  24953065.160   131129201.512          50.000    24953072.380    97921148.141          50.000  
E31  24723634.040   129923527.398          50.000    24723640.560    97020804.582          50.000  
E33  23853694.380   125352008.738          50.000    23853698.420    93607017.074          50.000  
> 2020  9  4 17 10 21.0000000  0 15       0.000000000000
G 2  24855515.460   130616615.813          50.000                                                  
G 5  21897843.180   115073859.441          50.000                                                  
G12  23747145.260   124792080.535          50.000                                                  
G15  24164854.780   126986965.496          50.000                                                  
G20  23653001.600   124297349.988          50.000                                                  
G25  21687045.680   113966128.434          50.000    21687047.900    85104566.219          50.000  
G26  23463503.340   123301456.066          50.000    23463504.520    92075746.809          50.000  
G29  20469837.100   107569718.441          50.000                                                  
E 1  26742491.840   140532694.891          50.000    26742497.980   104943232.785          50.000  
E 7  26919226.620   141461452.902          50.000    26919234.040   105636790.063          50.000  
E19  27569502.000   144878649.414          50.000    27569508.060   108188582.219          50.000  
E24  24675888.880   129672478.859          50.000    24675906.720    96833312.629          50.000  
E26  24953382.680   131130870.113          50.000    24953389.900    97922394.172          50.000  
E31  24723875.860   129924798.188          50.000    24723882.380    97021753.547          50.000  
E33  23853725.340   125352171.449          50.000    23853729.380    93607138.578          50.000  
> 2020  9  4 17 10 22.0000000  0 15       0.000000000000
G 2  24855967.260   130618990.070          50.000                                                  
G 5  21898290.640   115076210.859          50.000                                                  
G12  23747863.920   124795857.211          50.000                                                  
G15  24164279.600   126983942.875          50.000                                                  
G20  23652335.340   124293848.813          50.000                                                  
G25  21687574.480   113968907.355          50.000    21687576.720    85106641.387          50.000  
G26  23463042.340   123299033.480          50.000    23463043.520    92073937.738          50.000  
G29  20469734.820   107569180.902          50.000                                                  
E 1  26743070.980   140535738.379          50.000    26743077.120   104945505.520          50.000  
E 7  26919242.600   141461536.898          50.000    26919250.040   105636852.785          50.000  
E19  27568962.280   144875813.176          50.000    27568968.340   108186464.246          50.000  
E24  24675641.000   129671176.250          50.000    24675658.840    96832339.902          50.000  
E26  24953700.220   131132538.734          50.000    24953707.420    97923640.223          50.000  
E31  24724117.760   129926069.406          50.000    24724124.280    97022702.836          50.000  
E33  23853756.320   125352334.258          50.000    23853760.360    93607260.156          50.000  
> 2020  9  4 17 10 23.0000000  0 15       0.000000000000
G 2  24856419.060   130621364.289          50.000                                                  
G 5  21898738.180   115078562.754          50.000                                                  
G12  23748582.620   124799633.996          50.000                                                  
G15  24163704.420   126980920.297          50.000                                                  
G20  23651669.120   124290347.801          50.000                                                  
G25  21688103.380   113971686.695          50.000    21688105.600    85108716.867          50.000  
G26  23462581.420   123296611.340          50.000    23462582.600    92072129.000          50.000  
G29  20469632.580   107568643.715          50.000                                                  
E 1  26743650.160   140538781.945          50.000    26743656.300   104947778.313          50.000  
E 7  26919258.660   141461621.340          50.000    26919266.100   105636915.840          50.000  
E19  27568422.540   144872976.840          50.000    27568428.600   108184346.207          50.000  
E24  24675393.200   129669874.074          50.000    24675411.040    96831367.500          50.000  
E26  24954017.740   131134207.375          50.000    24954024.960    97924886.281          50.000  
E31  24724359.760   129927341.059          50.000    24724366.260    97023652.445          50.000  
E33  23853787.320   125352497.164          50.000    23853791.360    93607381.809          50.000  
> 2020  9  4 17 10 24.0000000  0 15       0.000000000000
G 2  24856870.860   130623738.469          50.000                                                  
G 5  21899185.840   115080915.152          50.000                                                  
G12  23749301.360   124803410.926          50.000                                                  
G15  24163129.240   126977897.773          50.000                                                  
G20  23651002.940   124286846.949          50.000                                                  
G25  21688632.340   113974466.453          50.000    21688634.580    85110792.656          50.000  
G26  23462120.600   123294189.645          50.000    23462121.760    92070320.590          50.000  
G29  20469530.440   107568106.879          50.000                                                  
E 1  26744229.340   140541825.582          50.000    26744235.480   104950051.152          50.000  
E 7  26919274.820   141461706.230          50.000    26919282.260   105636979.234          50.000  
E19  27567882.800   144870140.461          50.000    27567888.860   108182228.129          50.000  
E24  24675145.500   129668572.320          50.000    24675163.340    96830395.410          50.000  
E26  24954335.280   131135876.027          50.000    24954342.500    97926132.352          50.000  
E31  24724601.820   129928613.145          50.000    24724608.340    97024602.379          50.000  
E33  23853818.340   125352660.172          50.000    23853822.380    93607503.531          50.000  
> 2020  9  4 17 10 25.0000000  0 15       0.000000000000
G 2  24857322.640   130626112.613          50.000                                                  
G 5  21899633.580   115083268.051          50.000                                                  
G12  23750020.100   124807187.949          50.000                                                  
G15  24162554.080   126974875.301          50.000                                                  
G20  23650336.780   124283346.254          50.000                                                  
G25  21689161.400   113977246.621          50.000    21689163.620    85112868.758          50.000  
G26  23461659.840   123291768.391          50.000    23461661.000    92068512.508          50.000  
G29  20469428.340   107567570.402          50.000                                                  
E 1  26744808.540   140544869.313          50.000    26744814.680   104952324.066          50.000  
E 7  26919291.060   141461791.586          50.000    26919298.500   105637042.973          50.000  
E19  27567343.020   144867303.977          50.000    27567349.100   108180109.977          50.000  
E24  24674897.860   129667270.996          50.000    24674915.700    96829423.645          50.000  
E26  24954652.820   131137544.711          50.000    24954660.040    97927378.449          50.000  
E31  24724843.980   129929885.672          50.000    24724850.500    97025552.645          50.000  
E33  23853849.380   125352823.281          50.000    23853853.420    93607625.336          50.000  
> 2020  9  4 17 10 26.0000000  0 15       0.000000000000
G 2  24857774.420   130628486.723          50.000                                                  
G 5  21900081.400   115085621.434          50.000                                                  
G12  23750738.860   124810965.098          50.000                                                  
G15  24161978.940   126971852.871          50.000                                                  
G20  23649670.640   124279845.719          50.000                                                  
G25  21689690.520   113980027.211          50.000    21689692.760    85114945.172          50.000  
G26  23461199.180   123289347.582          50.000    23461200.340    92066704.766          50.000  
G29  20469326.320   107567034.270          50.000                                                  
E 1  26745387.760   140547913.109          50.000    26745393.900   104954597.031          50.000  
E 7  26919307.400   141461877.391          50.000    26919314.820   105637107.051          50.000  
E19  27566803.240   144864467.434          50.000    27566809.320   108177991.781          50.000  
E24  24674650.300   129665970.098          50.000    24674668.140    96828452.191          50.000  
E26  24954970.360   131139213.398          50.000    24954977.580    97928624.543          50.000  
E31  24725086.220   129931158.625          50.000    24725092.720    97026503.223          50.000  
E33  23853880.440   125352986.484          50.000    23853884.480    93607747.207          50.000  
> 2020  9  4 17 10 27.0000000  0 15       0.000000000000
G 2  24858226.200   130630860.793          50.000                                                  
G 5  21900529.340   115087975.309          50.000                                                  
G12  23751457.660   124814742.363          50.000                                                  
G15  24161403.800   126968830.496          50.000                                                  
G20  23649004.540   124276345.348          50.000                                                  
G25  21690219.740   113982808.215          50.000    21690221.960    85117021.895          50.000  
G26  23460738.600   123286927.207          50.000    23460739.760    92064897.340          50.000  
G29  20469224.360   107566498.492          50.000                                                  
E 1  26745967.000   140550957.004          50.000    26745973.140   104956870.070          50.000  
E 7  26919323.800   141461963.645          50.000    26919331.240   105637171.461          50.000  
E19  27566263.460   144861630.809          50.000    27566269.520   108175873.523          50.000  
E24  24674402.840   129664669.648          50.000    24674420.680    96827481.078          50.000  
E26  24955287.900   131140882.113          50.000    24955295.120    97929870.660          50.000  
E31  24725328.540   129932432.027          50.000    24725335.040    97027454.145          50.000  
E33  23853911.520   125353149.781          50.000    23853915.560    93607869.152          50.000  
> 2020  9  4 17 10 28.0000000  0 15       0.000000000000
G 2  24858677.960   130633234.824          50.000                                                  
G 5  21900977.360   115090329.688          50.000                                                  
G12  23752176.480   124818519.750          50.000                                                  
G15  24160828.660   126965808.156          50.000                                                  
G20  23648338.480   124272845.133          50.000                                                  
G25  21690749.020   113985589.621          50.000    21690751.240    85119098.918          50.000  
G26  23460278.100   123284507.289          50.000    23460279.260    92063090.262          50.000  
G29  20469122.480   107565963.066          50.000                                                  
E 1  26746546.240   140554000.969          50.000    26746552.380   104959143.160          50.000  
E 7  26919340.300   141462050.352          50.000    26919347.740   105637236.211          50.000  
E19  27565723.660   144858794.133          50.000    27565729.720   108173755.227          50.000  
E24  24674155.460   129663369.613          50.000    24674173.280    96826510.273          50.000  
E26  24955605.460   131142550.840          50.000    24955612.660    97931116.789          50.000  
E31  24725570.940   129933705.855          50.000    24725577.440    97028405.375          50.000  
E33  23853942.620   125353313.188          50.000    23853946.640    93607991.176          50.000  
> 2020  9  4 17 10 29.0000000  0 15       0.000000000000
G 2  24859129.720   130635608.824          50.000                                                  
G 5  21901425.480   115092684.559          50.000                                                  
G12  23752895.300   124822297.238          50.000                                                  
G15  24160253.540   126962785.875          50.000                                                  
G20  23647672.440   124269345.066          50.000                                                  
G25  21691278.380   113988371.453          50.000    21691280.600    85121176.258          50.000  
G26  23459817.680   123282087.805          50.000    23459818.860    92061283.504          50.000  
G29  20469020.660   107565428.004          50.000                                                  
E 1  26747125.520   140557045.020          50.000    26747131.660   104961416.313          50.000  
E 7  26919356.900   141462137.523          50.000    26919364.320   105637301.305          50.000  
E19  27565183.840   144855957.363          50.000    27565189.900   108171636.863          50.000  
E24  24673908.140   129662070.012          50.000    24673925.980    96825539.789          50.000  
E26  24955923.000   131144219.590          50.000    24955930.220    97932362.934          50.000  
E31  24725813.420   129934980.121          50.000    24725819.940    97029356.938          50.000  
E33  23853973.720   125353476.695          50.000    23853977.760    93608113.273          50.000  
> 2020  9  4 17 10 30.0000000  0 15       0.000000000000
G 2  24859581.480   130637982.789          50.000                                                  
G 5  21901873.680   115095039.922          50.000                                                  
G12  23753614.160   124826074.836          50.000                                                  
G15  24159678.420   126959763.621          50.000                                                  
G20  23647006.420   124265845.156          50.000                                                  
G25  21691807.820   113991153.703          50.000    21691810.060    85123253.914          50.000  
G26  23459357.360   123279668.770          50.000    23459358.520    92059477.082          50.000  
G29  20468918.900   107564893.281          50.000                                                  
E 1  26747704.800   140560089.145          50.000    26747710.940   104963689.523          50.000  
E 7  26919373.560   141462225.141          50.000    26919381.000   105637366.730          50.000  
E19  27564644.000   144853120.508          50.000    27564650.060   108169518.434          50.000  
E24  24673660.920   129660770.844          50.000    24673678.760    96824569.637          50.000  
E26  24956240.560   131145888.363          50.000    24956247.780    97933609.094          50.000  
E31  24726055.980   129936254.816          50.000    24726062.500    97030308.820          50.000  
E33  23854004.860   125353640.297          50.000    23854008.900    93608235.445          50.000  
> 2020  9  4 17 10 31.0000000  0 15       0.000000000000
G 2  24860033.220   130640356.707          50.000                                                  
G 5  21902322.000   115097395.777          50.000                                                  
G12  23754333.040   124829852.570          50.000                                                  
G15  24159103.320   126956741.438          50.000                                                  
G20  23646340.440   124262345.406          50.000                                                  
G25  21692337.360   113993936.367          50.000    21692339.580    85125331.875          50.000  
G26  23458897.120   123277250.172          50.000    23458898.280    92057670.984          50.000  
G29  20468817.220   107564358.926          50.000                                                  
E 1  26748284.080   140563133.355          50.000    26748290.220   104965962.797          50.000  
E 7  26919390.320   141462313.211          50.000    26919397.760   105637432.500          50.000  
E19  27564104.140   144850283.586          50.000    27564110.220   108167399.953          50.000  
E24  24673413.780   129659472.094          50.000    24673431.620    96823599.789          50.000  
E26  24956558.120   131147557.148          50.000    24956565.340    97934855.266          50.000  
E31  24726298.640   129937529.945          50.000    24726305.160    97031261.027          50.000  
E33  23854036.000   125353804.000          50.000    23854040.040    93608357.691          50.000  
> 2020  9  4 17 10 32.0000000  0 15       0.000000000000
G 2  24860484.960   130642730.598          50.000                                                  
G 5  21902770.400   115099752.121          50.000                                                  
G12  23755051.940   124833630.418          50.000                                                  
G15  24158528.220   126953719.289          50.000                                                  
G20  23645674.480   124258845.809          50.000                                                  
G25  21692866.960   113996719.441          50.000    21692869.180    85127410.145          50.000  
G26  23458436.960   123274832.020          50.000    23458438.120    92055865.223          50.000  
G29  20468715.600   107563824.914          50.000                                                  
E 1  26748863.400   140566177.648          50.000    26748869.540   104968236.129          50.000  
E 7  26919407.180   141462401.727          50.000    26919414.600   105637498.602          50.000  
E19  27563564.280   144847446.598          50.000    27563570.360   108165281.422          50.000  
E24  24673166.720   129658173.785          50.000    24673184.560    96822630.273          50.000  
E26  24956875.680   131149225.961          50.000    24956882.900    97936101.453          50.000  
E31  24726541.380   129938805.523          50.000    24726547.880    97032213.566          50.000  
E33  23854067.180   125353967.801          50.000    23854071.220    93608480.008          50.000  
> 2020  9  4 17 10 33.0000000  0 15       0.000000000000
G 2  24860936.680   130645104.453          50.000                                                  
G 5  21903218.880   115102108.961          50.000                                                  
G12  23755770.860   124837408.379          50.000                                                  
G15  24157953.140   126950697.203          50.000                                                  
G20  23645008.560   124255346.383          50.000                                                  
G25  21693396.640   113999502.930          50.000    21693398.860    85129488.723          50.000  
G26  23457976.880   123272414.309          50.000    23457978.040    92054059.793          50.000  
G29  20468614.040   107563291.254          50.000                                                  
E 1  26749442.720   140569222.023          50.000    26749448.860   104970509.523          50.000  
E 7  26919424.100   141462490.699          50.000    26919431.540   105637565.039          50.000  
E19  27563024.400   144844609.520          50.000    27563030.480   108163162.828          50.000  
E24  24672919.740   129656875.906          50.000    24672937.580    96821661.074          50.000  
E26  24957193.260   131150894.777          50.000    24957200.460    97937347.648          50.000  
E31  24726784.180   129940081.523          50.000    24726790.700    97033166.426          50.000  
E33  23854098.360   125354131.703          50.000    23854102.400    93608602.402          50.000  
> 2020  9  4 17 10 34.0000000  0 15       0.000000000000
G 2  24861388.400   130647478.273          50.000                                                  
G 5  21903667.460   115104466.289          50.000                                                  
G12  23756489.820   124841186.457          50.000                                                  
G15  24157378.060   126947675.160          50.000                                                  
G20  23644342.680   124251847.102          50.000                                                  
G25  21693926.400   114002286.828          50.000    21693928.620    85131567.605          50.000  
G26  23457516.880   123269997.047          50.000    23457518.060    92052254.695          50.000  
G29  20468512.560   107562757.945          50.000                                                  
E 1  26750022.060   140572266.465          50.000    26750028.200   104972782.973          50.000  
E 7  26919441.120   141462580.129          50.000    26919448.560   105637631.820          50.000  
E19  27562484.520   144841772.406          50.000    27562490.580   108161044.203          50.000  
E24  24672672.840   129655578.445          50.000    24672690.680    96820692.195          50.000  
E26  24957510.820   131152563.617          50.000    24957518.040    97938593.859          50.000  
E31  24727027.080   129941357.957          50.000    24727033.600    97034119.605          50.000  
E33  23854129.580   125354295.707          50.000    23854133.620    93608724.875          50.000  
> 2020  9  4 17 10 35.0000000  0 15       0.000000000000
G 2  24861840.120   130649852.043          50.000                                                  
G 5  21904116.140   115106824.117          50.000                                                  
G12  23757208.780   124844964.652          50.000                                                  
G15  24156803.000   126944653.168          50.000                                                  
G20  23643676.820   124248347.984          50.000                                                  
G25  21694456.240   114005071.145          50.000    21694458.460    85133646.805          50.000  
G26  23457056.980   123267580.227          50.000    23457058.140    92050449.926          50.000  
G29  20468411.140   107562224.992          50.000                                                  
E 1  26750601.420   140575310.988          50.000    26750607.560   104975056.477          50.000  
E 7  26919458.220   141462670.008          50.000    26919465.660   105637698.938          50.000  
E19  27561944.620   144838935.195          50.000    27561950.680   108158925.512          50.000  
E24  24672426.020   129654281.422          50.000    24672443.860    96819723.641          50.000  
E26  24957828.400   131154232.480          50.000    24957835.620    97939840.086          50.000  
E31  24727270.060   129942634.840          50.000    24727276.580    97035073.121          50.000  
E33  23854160.800   125354459.813          50.000    23854164.840    93608847.418          50.000  
> 2020  9  4 17 10 36.0000000  0 15       0.000000000000
G 2  24862291.820   130652225.785          50.000                                                  
G 5  21904564.920   115109182.434          50.000                                                  
G12  23757927.760   124848742.953          50.000                                                  
G15  24156227.940   126941631.215          50.000                                                  
G20  23643010.980   124244849.023          50.000                                                  
G25  21694986.160   114007855.883          50.000    21694988.380    85135726.316          50.000  
G26  23456597.160   123265163.852          50.000    23456598.320    92048645.488          50.000  
G29  20468309.800   107561692.379          50.000                                                  
E 1  26751180.780   140578355.598          50.000    26751186.920   104977330.051          50.000  
E 7  26919475.420   141462760.340          50.000    26919482.840   105637766.395          50.000  
E19  27561404.700   144836097.898          50.000    27561410.760   108156806.750          50.000  
E24  24672179.300   129652984.832          50.000    24672197.120    96818755.406          50.000  
E26  24958145.980   131155901.355          50.000    24958153.200    97941086.324          50.000  
E31  24727513.120   129943912.137          50.000    24727519.640    97036026.949          50.000  
E33  23854192.060   125354624.012          50.000    23854196.080    93608970.039          50.000  
> 2020  9  4 17 10 37.0000000  0 15       0.000000000000
G 2  24862743.520   130654599.480          50.000                                                  
G 5  21905013.800   115111541.246          50.000                                                  
G12  23758646.780   124852521.375          50.000                                                  
G15  24155652.900   126938609.316          50.000                                                  
G20  23642345.180   124241350.219          50.000                                                  
G25  21695516.140   114010641.031          50.000    21695518.380    85137806.133          50.000  
G26  23456137.420   123262747.914          50.000    23456138.580    92046841.383          50.000  
G29  20468208.500   107561160.129          50.000                                                  
E 1  26751760.180   140581400.285          50.000    26751766.320   104979603.676          50.000  
E 7  26919492.680   141462851.125          50.000    26919500.120   105637834.188          50.000  
E19  27560864.760   144833260.535          50.000    27560870.820   108154687.941          50.000  
E24  24671932.640   129651688.664          50.000    24671950.480    96817787.488          50.000  
E26  24958463.560   131157570.254          50.000    24958470.780    97942332.578          50.000  
E31  24727756.280   129945189.875          50.000    24727762.780    97036981.102          50.000  
E33  23854223.320   125354788.313          50.000    23854227.360    93609092.727          50.000  
> 2020  9  4 17 10 38.0000000  0 15       0.000000000000
G 2  24863195.220   130656973.141          50.000                                                  
G 5  21905462.760   115113900.547          50.000                                                  
G12  23759365.820   124856299.914          50.000                                                  
G15  24155077.860   126935587.473          50.000                                                  
G20  23641679.420   124237851.574          50.000                                                  
G25  21696046.220   114013426.586          50.000    21696048.440    85139886.254          50.000  
G26  23455677.760   123260332.414          50.000    23455678.940    92045037.602          50.000  
G29  20468107.280   107560628.219          50.000                                                  
E 1  26752339.580   140584445.047          50.000    26752345.720   104981877.363          50.000  
E 7  26919510.040   141462942.359          50.000    26919517.480   105637902.320          50.000  
E19  27560324.820   144830423.102          50.000    27560330.880   108152569.078          50.000  
E24  24671686.060   129650392.926          50.000    24671703.900    96816819.891          50.000  
E26  24958781.140   131159239.160          50.000    24958788.360    97943578.840          50.000  
E31  24727999.500   129946468.051          50.000    24728006.020    97037935.582          50.000  
E33  23854254.600   125354952.699          50.000    23854258.640    93609215.484          50.000  
> 2020  9  4 17 10 39.0000000  0 15       0.000000000000
G 2  24863646.920   130659346.770          50.000                                                  
G 5  21905911.800   115116260.344          50.000                                                  
G12  23760084.860   124860078.559          50.000                                                  
G15  24154502.820   126932565.680          50.000                                                  
G20  23641013.680   124234353.109          50.000                                                  
G25  21696576.380   114016212.574          50.000    21696578.600    85141966.699          50.000  
G26  23455218.200   123257917.379          50.000    23455219.360    92043234.164          50.000  
G29  20468006.140   107560096.680          50.000                                                  
E 1  26752919.000   140587489.906          50.000    26752925.140   104984151.121          50.000  
E 7  26919527.500   141463034.051          50.000    26919534.940   105637970.789          50.000  
E19  27559784.860   144827585.602          50.000    27559790.920   108150450.168          50.000  
E24  24671439.580   129649097.629          50.000    24671457.420    96815852.625          50.000  
E26  24959098.740   131160908.102          50.000    24959105.940    97944825.125          50.000  
E31  24728242.820   129947746.660          50.000    24728249.320    97038890.391          50.000  
E33  23854285.900   125355117.207          50.000    23854289.940    93609338.332          50.000  
> 2020  9  4 17 10 40.0000000  0 15       0.000000000000
G 2  24864098.600   130661720.359          50.000                                                  
G 5  21906360.960   115118620.633          50.000                                                  
G12  23760803.940   124863857.316          50.000                                                  
G15  24153927.800   126929543.922          50.000                                                  
G20  23640347.960   124230854.785          50.000                                                  
G25  21697106.600   114018998.953          50.000    21697108.840    85144047.434          50.000  
G26  23454758.720   123255502.773          50.000    23454759.880    92041431.051          50.000  
G29  20467905.060   107559565.480          50.000                                                  
E 1  26753498.420   140590534.820          50.000    26753504.560   104986424.918          50.000  
E 7  26919545.040   141463126.195          50.000    26919552.460   105638039.598          50.000  
E19  27559244.880   144824748.020          50.000    27559250.940   108148331.195          50.000  
E24  24671193.180   129647802.742          50.000    24671211.000    96814885.664          50.000  
E26  24959416.320   131162577.055          50.000    24959423.540    97946071.422          50.000  
E31  24728486.220   129949025.715          50.000    24728492.720    97039845.527          50.000  
E33  23854317.220   125355281.816          50.000    23854321.260    93609461.254          50.000  
> 2020  9  4 17 10 41.0000000  0 15       0.000000000000
G 2  24864550.260   130664093.910          50.000                                                  
G 5  21906810.200   115120981.414          50.000                                                  
G12  23761523.040   124867636.199          50.000                                                  
G15  24153352.800   126926522.234          50.000                                                  
G20  23639682.280   124227356.613          50.000                                                  
G25  21697636.920   114021785.746          50.000    21697639.140    85146128.484          50.000  
G26  23454299.320   123253088.602          50.000    23454300.480    92039628.262          50.000  
G29  20467804.040   107559034.637          50.000                                                  
E 1  26754077.860   140593579.828          50.000    26754084.000   104988698.789          50.000  
E 7  26919562.660   141463218.793          50.000    26919570.080   105638108.746          50.000  
E19  27558704.900   144821910.355          50.000    27558710.960   108146212.164          50.000  
E24  24670946.840   129646508.301          50.000    24670964.680    96813919.039          50.000  
E26  24959733.920   131164246.023          50.000    24959741.140    97947317.727          50.000  
E31  24728729.680   129950305.188          50.000    24728736.200    97040800.980          50.000  
E33  23854348.560   125355446.504          50.000    23854352.600    93609584.234          50.000  
> 2020  9  4 17 10 42.0000000  0 15       0.000000000000
G 2  24865001.940   130666467.422          50.000                                                  
G 5  21907259.540   115123342.680          50.000                                                  
G12  23762242.160   124871415.180          50.000                                                  
G15  24152777.780   126923500.582          50.000                                                  
G20  23639016.640   124223858.598          50.000                                                  
G25  21698167.300   114024572.969          50.000    21698169.540    85148209.848          50.000  
G26  23453840.000   123250674.887          50.000    23453841.160    92037825.813          50.000  
G29  20467703.100   107558504.148          50.000                                                  
E 1  26754657.320   140596624.922          50.000    26754663.480   104990972.719          50.000  
E 7  26919580.360   141463311.848          50.000    26919587.800   105638178.234          50.000  
E19  27558164.900   144819072.625          50.000    27558170.960   108144093.078          50.000  
E24  24670700.600   129645214.293          50.000    24670718.440    96812952.730          50.000  
E26  24960051.520   131165915.020          50.000    24960058.740    97948564.055          50.000  
E31  24728973.240   129951585.109          50.000    24728979.760    97041756.762          50.000  
E33  23854379.940   125355611.316          50.000    23854383.960    93609707.309          50.000  
> 2020  9  4 17 10 43.0000000  0 15       0.000000000000
G 2  24865453.580   130668840.898          50.000                                                  
G 5  21907708.960   115125704.445          50.000                                                  
G12  23762961.300   124875194.281          50.000                                                  
G15  24152202.800   126920478.988          50.000                                                  
G20  23638351.000   124220360.723          50.000                                                  
G25  21698697.780   114027360.594          50.000    21698700.000    85150291.516          50.000  
G26  23453380.760   123248261.613          50.000    23453381.940    92036023.695          50.000  
G29  20467602.220   107557974.020          50.000                                                  
E 1  26755236.800   140599670.094          50.000    26755242.960   104993246.711          50.000  
E 7  26919598.160   141463405.348          50.000    26919605.580   105638248.059          50.000  
E19  27557624.880   144816234.820          50.000    27557630.940   108141973.941          50.000  
E24  24670454.440   129643920.707          50.000    24670472.280    96811986.742          50.000  
E26  24960369.120   131167584.027          50.000    24960376.340    97949810.391          50.000  
E31  24729216.900   129952865.461          50.000    24729223.400    97042712.871          50.000  
E33  23854411.300   125355776.211          50.000    23854415.340    93609830.445          50.000  
> 2020  9  4 17 10 44.0000000  0 15       0.000000000000
G 2  24865905.240   130671214.340          50.000                                                  
G 5  21908158.480   115128066.695          50.000                                                  
G12  23763680.460   124878973.496          50.000                                                  
G15  24151627.820   126917457.434          50.000                                                  
G20  23637685.420   124216862.996          50.000                                                  
G25  21699228.320   114030148.641          50.000    21699230.560    85152373.500          50.000  
G26  23452921.620   123245848.785          50.000    23452922.780    92034221.906          50.000  
G29  20467501.400   107557444.238          50.000                                                  
E 1  26755816.300   140602715.328          50.000    26755822.440   104995520.746          50.000  
E 7  26919616.040   141463499.297          50.000    26919623.460   105638318.215          50.000  
E19  27557084.840   144813396.957          50.000    27557090.900   108139854.758          50.000  
E24  24670208.360   129642627.551          50.000    24670226.200    96811021.074          50.000  
E26  24960686.720   131169253.047          50.000    24960693.940    97951056.738          50.000  
E31  24729460.620   129954146.250          50.000    24729467.140    97043669.305          50.000  
E33  23854442.700   125355941.211          50.000    23854446.740    93609953.660          50.000  
> 2020  9  4 17 10 45.0000000  0 15       0.000000000000
G 2  24866356.880   130673587.742          50.000                                                  
G 5  21908608.100   115130429.445          50.000                                                  
G12  23764399.640   124882752.820          50.000                                                  
G15  24151052.840   126914435.926          50.000                                                  
G20  23637019.860   124213365.449          50.000                                                  
G25  21699758.940   114032937.082          50.000    21699761.180    85154455.777          50.000  
G26  23452462.560   123243436.402          50.000    23452463.720    92032420.453          50.000  
G29  20467400.640   107556914.801          50.000                                                  
E 1  26756395.800   140605760.641          50.000    26756401.940   104997794.844          50.000  
E 7  26919634.000   141463593.707          50.000    26919641.420   105638388.715          50.000  
E19  27556544.800   144810559.016          50.000    27556550.860   108137735.516          50.000  
E24  24669962.360   129641334.824          50.000    24669980.200    96810055.727          50.000  
E26  24961004.340   131170922.094          50.000    24961011.540    97952303.102          50.000  
E31  24729704.420   129955427.449          50.000    24729710.940    97044626.039          50.000  
E33  23854474.120   125356106.301          50.000    23854478.160    93610076.941          50.000  
> 2020  9  4 17 10 46.0000000  0 15       0.000000000000
G 2  24866808.520   130675961.102          50.000                                                  
G 5  21909057.800   115132792.680          50.000                                                  
G12  23765118.840   124886532.262          50.000                                                  
G15  24150477.880   126911414.465          50.000                                                  
G20  23636354.320   124209868.043          50.000                                                  
G25  21700289.660   114035725.961          50.000    21700291.880    85156538.379          50.000  
G26  23452003.580   123241024.461          50.000    23452004.740    92030619.328          50.000  
G29  20467299.960   107556385.727          50.000                                                  
E 1  26756975.320   140608806.035          50.000    26756981.460   105000069.000          50.000  
E 7  26919652.040   141463688.574          50.000    26919659.480   105638459.559          50.000  
E19  27556004.740   144807721.016          50.000    27556010.820   108135616.230          50.000  
E24  24669716.460   129640042.531          50.000    24669734.280    96809090.703          50.000  
E26  24961321.940   131172591.152          50.000    24961329.160    97953549.477          50.000  
E31  24729948.320   129956709.121          50.000    24729954.840    97045583.133          50.000  
E33  23854505.560   125356271.488          50.000    23854509.600    93610200.293          50.000  
> 2020  9  4 17 10 47.0000000  0 15       0.000000000000
G 2  24867260.140   130678334.473          50.000                                                  
G 5  21909507.620   115135156.410          50.000                                                  
G12  23765838.060   124890311.832          50.000                                                  
G15  24149902.940   126908393.008          50.000                                                  
G20  23635688.800   124206370.824          50.000                                                  
G25  21700820.440   114038515.246          50.000    21700822.660    85158621.293          50.000  
G26  23451544.700   123238612.969          50.000    23451545.860    92028818.539          50.000  
G29  20467199.360   107555857.000          50.000                                                  
E 1  26757554.860   140611851.531          50.000    26757561.000   105002343.238          50.000  
E 7  26919670.180   141463783.883          50.000    26919677.620   105638530.730          50.000  
E19  27555464.680   144804882.887          50.000    27555470.740   108133496.840          50.000  
E24  24669470.620   129638750.664          50.000    24669488.460    96808125.996          50.000  
E26  24961639.560   131174260.234          50.000    24961646.780    97954795.867          50.000  
E31  24730192.280   129957991.203          50.000    24730198.800    97046540.535          50.000  
E33  23854537.020   125356436.770          50.000    23854541.040    93610323.715          50.000  
> 2020  9  4 17 10 48.0000000  0 15       0.000000000000
G 2  24867711.760   130680707.762          50.000                                                  
G 5  21909957.500   115137520.641          50.000                                                  
G12  23766557.320   124894091.492          50.000                                                  
G15  24149327.980   126905371.645          50.000                                                  
G20  23635023.340   124202873.746          50.000                                                  
G25  21701351.300   114041304.941          50.000    21701353.520    85160704.504          50.000  
G26  23451085.880   123236201.918          50.000    23451087.040    92027018.082          50.000  
G29  20467098.820   107555328.629          50.000                                                  
E 1  26758134.400   140614897.090          50.000    26758140.560   105004617.516          50.000  
E 7  26919688.420   141463879.652          50.000    26919695.840   105638602.246          50.000  
E19  27554924.600   144802044.734          50.000    27554930.660   108131377.441          50.000  
E24  24669224.860   129637459.227          50.000    24669242.700    96807161.613          50.000  
E26  24961957.180   131175929.328          50.000    24961964.400    97956042.270          50.000  
E31  24730436.340   129959273.719          50.000    24730442.860    97047498.258          50.000  
E33  23854568.480   125356602.168          50.000    23854572.520    93610447.230          50.000  
> 2020  9  4 17 10 49.0000000  0 15       0.000000000000
G 2  24868163.380   130683081.012          50.000                                                  
G 5  21910407.500   115139885.363          50.000                                                  
G12  23767276.580   124897871.289          50.000                                                  
G15  24148753.040   126902350.340          50.000                                                  
G20  23634357.900   124199376.824          50.000                                                  
G25  21701882.240   114044095.043          50.000    21701884.460    85162788.023          50.000  
G26  23450627.160   123233791.313          50.000    23450628.320    92025217.953          50.000  
G29  20466998.340   107554800.613          50.000                                                  
E 1  26758713.980   140617942.727          50.000    26758720.120   105006891.855          50.000  
E 7  26919706.720   141463975.871          50.000    26919714.160   105638674.098          50.000  
E19  27554384.500   144799206.480          50.000    27554390.560   108129257.969          50.000  
E24  24668979.200   129636168.223          50.000    24668997.040    96806197.551          50.000  
E26  24962274.800   131177598.445          50.000    24962282.020    97957288.688          50.000  
E31  24730680.480   129960556.668          50.000    24730687.000    97048456.301          50.000  
E33  23854599.980   125356767.660          50.000    23854604.020    93610570.809          50.000  
> 2020  9  4 17 10 50.0000000  0 15       0.000000000000
G 2  24868615.000   130685454.227          50.000                                                  
G 5  21910857.580   115142250.586          50.000                                                  
G12  23767995.880   124901651.188          50.000                                                  
G15  24148178.120   126899329.090          50.000                                                  
G20  23633692.480   124195880.074          50.000                                                  
G25  21702413.260   114046885.555          50.000    21702415.480    85164871.844          50.000  
G26  23450168.520   123231381.145          50.000    23450169.680    92023418.156          50.000  
G29  20466897.920   107554272.957          50.000                                                  
E 1  26759293.560   140620988.441          50.000    26759299.700   105009166.250          50.000  
E 7  26919725.120   141464072.539          50.000    26919732.540   105638746.285          50.000  
E19  27553844.380   144796368.160          50.000    27553850.440   108127138.445          50.000  
E24  24668733.600   129634877.645          50.000    24668751.440    96805233.809          50.000  
E26  24962592.420   131179267.574          50.000    24962599.640    97958535.113          50.000  
E31  24730924.700   129961840.074          50.000    24730931.220    97049414.691          50.000  
E33  23854631.480   125356933.254          50.000    23854635.520    93610694.469          50.000  
> 2020  9  4 17 10 51.0000000  0 15       0.000000000000
G 2  24869066.600   130687827.402          50.000                                                  
G 5  21911307.760   115144616.285          50.000                                                  
G12  23768715.200   124905431.191          50.000                                                  
G15  24147603.200   126896307.891          50.000                                                  
G20  23633027.100   124192383.477          50.000                                                  
G25  21702944.360   114049676.488          50.000    21702946.580    85166955.984          50.000  
G26  23449709.960   123228971.426          50.000    23449711.120    92021618.691          50.000  
G29  20466797.580   107553745.648          50.000                                                  
E 1  26759873.160   140624034.230          50.000    26759879.300   105011440.703          50.000  
E 7  26919743.600   141464169.664          50.000    26919751.020   105638818.813          50.000  
E19  27553304.240   144793529.773          50.000    27553310.320   108125018.871          50.000  
E24  24668488.100   129633587.500          50.000    24668505.940    96804270.387          50.000  
E26  24962910.060   131180936.730          50.000    24962917.280    97959781.563          50.000  
E31  24731169.000   129963123.883          50.000    24731175.520    97050373.379          50.000  
E33  23854663.020   125357098.941          50.000    23854667.060    93610818.195          50.000  
> 2020  9  4 17 10 52.0000000  0 15       0.000000000000
G 2  24869518.180   130690200.543          50.000                                                  
G 5  21911758.040   115146982.492          50.000                                                  
G12  23769434.520   124909211.320          50.000                                                  
G15  24147028.300   126893286.750          50.000                                                  
G20  23632361.760   124188887.047          50.000                                                  
G25  21703475.520   114052467.828          50.000    21703477.760    85169040.422          50.000  
G26  23449251.500   123226562.141          50.000    23449252.660    92019819.551          50.000  
G29  20466697.300   107553218.695          50.000                                                  
E 1  26760452.760   140627080.105          50.000    26760458.900   105013715.215          50.000  
E 7  26919762.160   141464267.238          50.000    26919769.600   105638891.676          50.000  
E19  27552764.100   144790691.313          50.000    27552770.160   108122899.242          50.000  
E24  24668242.680   129632297.785          50.000    24668260.520    96803307.289          50.000  
E26  24963227.700   131182605.902          50.000    24963234.900    97961028.020          50.000  
E31  24731413.400   129964408.141          50.000    24731419.900    97051332.402          50.000  
E33  23854694.560   125357264.727          50.000    23854698.600    93610941.996          50.000  
> 2020  9  4 17 10 53.0000000  0 15       0.000000000000
G 2  24869969.780   130692573.645          50.000                                                  
G 5  21912208.400   115149349.184          50.000                                                  
G12  23770153.880   124912991.566          50.000                                                  
G15  24146453.400   126890265.648          50.000                                                  
G20  23631696.440   124185390.777          50.000                                                  
G25  21704006.780   114055259.582          50.000    21704009.000    85171125.176          50.000  
G26  23448793.100   123224153.313          50.000    23448794.280    92018020.750          50.000  
G29  20466597.100   107552692.098          50.000                                                  
E 1  26761032.380   140630126.059          50.000    26761038.540   105015989.793          50.000  
E 7  26919780.820   141464365.270          50.000    26919788.260   105638964.883          50.000  
E19  27552223.960   144787852.773          50.000    27552230.020   108120779.555          50.000  
E24  24667997.340   129631008.508          50.000    24668015.160    96802344.520          50.000  
E26  24963545.320   131184275.086          50.000    24963552.540    97962274.488          50.000  
E31  24731657.860   129965692.836          50.000    24731664.380    97052291.750          50.000  
E33  23854726.140   125357430.617          50.000    23854730.180    93611065.875          50.000  
> 2020  9  4 17 10 54.0000000  0 15       0.000000000000
G 2  24870421.360   130694946.711          50.000                                                  
G 5  21912658.860   115151716.371          50.000                                                  
G12  23770873.260   124916771.914          50.000                                                  
G15  24145878.520   126887244.602          50.000                                                  
G20  23631031.140   124181894.668          50.000                                                  
G25  21704538.100   114058051.742          50.000    21704540.340    85173210.230          50.000  
G26  23448334.800   123221744.934          50.000    23448335.980    92016222.285          50.000  
G29  20466496.960   107552165.852          50.000                                                  
E 1  26761612.020   140633172.086          50.000    26761618.180   105018264.422          50.000  
E 7  26919799.560   141464463.758          50.000    26919807.000   105639038.430          50.000  
E19  27551683.780   144785014.176          50.000    27551689.840   108118659.824          50.000  
E24  24667752.080   129629719.648          50.000    24667769.900    96801382.059          50.000  
E26  24963862.960   131185944.301          50.000    24963870.180    97963520.977          50.000  
E31  24731902.400   129966977.941          50.000    24731908.920    97053251.410          50.000  
E33  23854757.720   125357596.605          50.000    23854761.760    93611189.828          50.000  
> 2020  9  4 17 10 55.0000000  0 15       0.000000000000
G 2  24870872.940   130697319.742          50.000                                                  
G 5  21913109.420   115154084.043          50.000                                                  
G12  23771592.660   124920552.387          50.000                                                  
G15  24145303.640   126884223.602          50.000                                                  
G20  23630365.880   124178398.727          50.000                                                  
G25  21705069.520   114060844.332          50.000    21705071.760    85175295.602          50.000  
G26  23447876.600   123219336.988          50.000    23447877.760    92014424.145          50.000  
G29  20466396.880   107551639.957          50.000                                                  
E 1  26762191.680   140636218.199          50.000    26762197.840   105020539.117          50.000  
E 7  26919818.380   141464562.688          50.000    26919825.820   105639112.305          50.000  
E19  27551143.600   144782175.500          50.000    27551149.660   108116540.039          50.000  
E24  24667506.900   129628431.227          50.000    24667524.720    96800419.926          50.000  
E26  24964180.620   131187613.523          50.000    24964187.820    97964767.477          50.000  
E31  24732147.040   129968263.512          50.000    24732153.560    97054211.410          50.000  
E33  23854789.320   125357762.684          50.000    23854793.360    93611313.848          50.000  
> 2020  9  4 17 10 56.0000000  0 15       0.000000000000
G 2  24871324.500   130699692.723          50.000                                                  
G 5  21913560.060   115156452.207          50.000                                                  
G12  23772312.080   124924332.965          50.000                                                  
G15  24144728.780   126881202.648          50.000                                                  
G20  23629700.660   124174902.953          50.000                                                  
G25  21705601.020   114063637.324          50.000    21705603.240    85177381.277          50.000  
G26  23447418.460   123216929.496          50.000    23447419.620    92012626.340          50.000  
G29  20466296.880   107551114.414          50.000                                                  
E 1  26762771.360   140639264.383          50.000    26762777.500   105022813.863          50.000  
E 7  26919837.300   141464662.074          50.000    26919844.740   105639186.523          50.000  
E19  27550603.400   144779336.777          50.000    27550609.460   108114420.211          50.000  
E24  24667261.800   129627143.234          50.000    24667279.640    96799458.117          50.000  
E26  24964498.260   131189282.770          50.000    24964505.480    97966013.988          50.000  
E31  24732391.760   129969549.500          50.000    24732398.280    97055171.727          50.000  
E33  23854820.960   125357928.879          50.000    23854824.980    93611437.953          50.000  
> 2020  9  4 17 10 57.0000000  0 15       0.000000000000
G 2  24871776.060   130702065.680          50.000                                                  
G 5  21914010.820   115158820.855          50.000                                                  
G12  23773031.520   124928113.645          50.000                                                  
G15  24144153.900   126878181.738          50.000                                                  
G20  23629035.460   124171407.324          50.000                                                  
G25  21706132.580   114066430.711          50.000    21706134.800    85179467.250          50.000  
G26  23446960.420   123214522.445          50.000    23446961.580    92010828.871          50.000  
G29  20466196.940   107550589.223          50.000                                                  
E 1  26763351.040   140642310.652          50.000    26763357.200   105025088.672          50.000  
E 7  26919856.300   141464761.918          50.000    26919863.740   105639261.082          50.000  
E19  27550063.200   144776497.945          50.000    27550069.260   108112300.305          50.000  
E24  24667016.780   129625855.684          50.000    24667034.620    96798496.629          50.000  
E26  24964815.900   131190952.031          50.000    24964823.120    97967260.516          50.000  
E31  24732636.560   129970835.926          50.000    24732643.080    97056132.367          50.000  
E33  23854852.600   125358095.160          50.000    23854856.620    93611562.125          50.000  
> 2020  9  4 17 10 58.0000000  0 15       0.000000000000
G 2  24872227.600   130704438.590          50.000                                                  
G 5  21914461.640   115161189.996          50.000                                                  
G12  23773751.000   124931894.449          50.000                                                  
G15  24143579.060   126875160.891          50.000                                                  
G20  23628370.300   124167911.863          50.000                                                  
G25  21706664.220   114069224.523          50.000    21706666.460    85181553.535          50.000  
G26  23446502.460   123212115.848          50.000    23446503.620    92009031.734          50.000  
G29  20466097.060   107550064.387          50.000                                                  
E 1  26763930.740   140645356.984          50.000    26763936.880   105027363.527          50.000  
E 7  26919875.380   141464862.215          50.000    26919882.820   105639335.977          50.000  
E19  27549522.960   144773659.051          50.000    27549529.040   108110180.355          50.000  
E24  24666771.840   129624568.551          50.000    24666789.680    96797535.461          50.000  
E26  24965133.560   131192621.305          50.000    24965140.780    97968507.051          50.000  
E31  24732881.440   129972122.777          50.000    24732887.960    97057093.328          50.000  
E33  23854884.260   125358261.543          50.000    23854888.280    93611686.371          50.000  
> 2020  9  4 17 10 59.0000000  0 15       0.000000000000
G 2  24872679.160   130706811.465          50.000                                                  
G 5  21914912.560   115163559.625          50.000                                                  
G12  23774470.480   124935675.363          50.000                                                  
G15  24143004.220   126872140.078          50.000                                                  
G20  23627705.160   124164416.570          50.000                                                  
G25  21707195.940   114072018.758          50.000    21707198.180    85183640.141          50.000  
G26  23446044.580   123209709.684          50.000    23446045.740    92007234.926          50.000  
G29  20465997.260   107549539.902          50.000                                                  
E 1  26764510.460   140648403.406          50.000    26764516.600   105029638.453          50.000  
E 7  26919894.560   141464962.965          50.000    26919901.980   105639411.211          50.000  
E19  27548982.720   144770820.055          50.000    27548988.780   108108060.324          50.000  
E24  24666527.000   129623281.848          50.000    24666544.840    96796574.613          50.000  
E26  24965451.220   131194290.613          50.000    24965458.440    97969753.613          50.000  
E31  24733126.400   129973410.070          50.000    24733132.920    97058054.617          50.000  
E33  23854915.940   125358428.027          50.000    23854919.980    93611810.691          50.000  
> 2020  9  4 17 11  0.0000000  0 15       0.000000000000
G 2  24873130.680   130709184.305          50.000                                                  
G 5  21915363.580   115165929.746          50.000                                                  
G12  23775189.980   124939456.391          50.000                                                  
G15  24142429.380   126869119.328          50.000                                                  
G20  23627040.060   124160921.418          50.000                                                  
G25  21707727.740   114074813.383          50.000    21707729.980    85185727.035          50.000  
G26  23445586.780   123207303.973          50.000    23445587.940    92005438.453          50.000  
G29  20465897.520   107549015.777          50.000                                                  
E 1  26765090.180   140651449.906          50.000    26765096.340   105031913.438          50.000  
E 7  26919913.820   141465064.164          50.000    26919921.240   105639486.785          50.000  
E19  27548442.480   144767981.016          50.000    27548448.540   108105940.266          50.000  
E24  24666282.220   129621995.578          50.000    24666300.060    96795614.086          50.000  
E26  24965768.880   131195959.926          50.000    24965776.100    97971000.176          50.000  
E31  24733371.440   129974697.793          50.000    24733377.960    97059016.230          50.000  
E33  23854947.640   125358594.609          50.000    23854951.680    93611935.090          50.000  
> 2020  9  4 17 11  1.0000000  0 15       0.000000000000
G 2  24873582.220   130711557.105          50.000                                                  
G 5  21915814.700   115168300.355          50.000                                                  
G12  23775909.520   124943237.535          50.000                                                  
G15  24141854.560   126866098.633          50.000                                                  
G20  23626374.980   124157426.438          50.000                                                  
G25  21708259.640   114077608.445          50.000    21708261.860    85187814.254          50.000  
G26  23445129.080   123204898.707          50.000    23445130.240    92003642.313          50.000  
G29  20465797.840   107548492.008          50.000                                                  
E 1  26765669.940   140654496.484          50.000    26765676.080   105034188.477          50.000  
E 7  26919933.160   141465165.816          50.000    26919940.600   105639562.695          50.000  
E19  27547902.220   144765141.930          50.000    27547908.280   108103820.172          50.000  
E24  24666037.540   129620709.742          50.000    24666055.380    96794653.887          50.000  
E26  24966086.540   131197629.273          50.000    24966093.760    97972246.766          50.000  
E31  24733616.580   129975985.961          50.000    24733623.100    97059978.172          50.000  
E33  23854979.360   125358761.293          50.000    23854983.380    93612059.563          50.000  
> 2020  9  4 17 11  2.0000000  0 15       0.000000000000
G 2  24874033.740   130713929.863          50.000                                                  
G 5  21916265.900   115170671.457          50.000                                                  
G12  23776629.060   124947018.801          50.000                                                  
G15  24141279.760   126863077.988          50.000                                                  
G20  23625709.940   124153931.621          50.000                                                  
G25  21708791.580   114080403.895          50.000    21708793.820    85189901.766          50.000  
G26  23444671.460   123202493.887          50.000    23444672.620    92001846.508          50.000  
G29  20465698.240   107547968.594          50.000                                                  
E 1  26766249.700   140657543.133          50.000    26766255.840   105036463.570          50.000  
E 7  26919952.580   141465267.914          50.000    26919960.020   105639638.934          50.000  
E19  27547361.920   144762302.723          50.000    27547367.980   108101699.984          50.000  
E24  24665792.940   129619424.332          50.000    24665810.780    96793694.000          50.000  
E26  24966404.220   131199298.621          50.000    24966411.440    97973493.355          50.000  
E31  24733861.780   129977274.551          50.000    24733868.300    97060940.434          50.000  
E33  23855011.080   125358928.066          50.000    23855015.120    93612184.102          50.000  
> 2020  9  4 17 11  3.0000000  0 15       0.000000000000
G 2  24874485.260   130716302.590          50.000                                                  
G 5  21916717.200   115173043.039          50.000                                                  
G12  23777348.640   124950800.172          50.000                                                  
G15  24140704.960   126860057.402          50.000                                                  
G20  23625044.940   124150436.953          50.000                                                  
G25  21709323.620   114083199.770          50.000    21709325.860    85191989.594          50.000  
G26  23444213.920   123200089.508          50.000    23444215.080    92000051.031          50.000  
G29  20465598.700   107547445.535          50.000                                                  
E 1  26766829.460   140660589.863          50.000    26766835.620   105038738.727          50.000  
E 7  26919972.100   141465370.473          50.000    26919979.540   105639715.523          50.000  
E19  27546821.640   144759463.469          50.000    27546827.700   108099579.762          50.000  
E24  24665548.420   129618139.352          50.000    24665566.240    96792734.438          50.000  
E26  24966721.880   131200967.988          50.000    24966729.100    97974739.961          50.000  
E31  24734107.080   129978563.563          50.000    24734113.600    97061903.008          50.000  
E33  23855042.840   125359094.949          50.000    23855046.880    93612308.719          50.000  
> 2020  9  4 17 11  4.0000000  0 15       0.000000000000
G 2  24874936.760   130718675.277          50.000                                                  
G 5  21917168.600   115175415.113          50.000                                                  
G12  23778068.240   124954581.668          50.000                                                  
G15  24140130.160   126857036.855          50.000                                                  
G20  23624379.960   124146942.457          50.000                                                  
G25  21709855.740   114085996.055          50.000    21709857.980    85194077.727          50.000  
G26  23443756.460   123197685.574          50.000    23443757.620    91998255.887          50.000  
G29  20465499.240   107546922.824          50.000                                                  
E 1  26767409.260   140663636.680          50.000    26767415.400   105041013.945          50.000  
E 7  26919991.700   141465473.492          50.000    26919999.140   105639792.453          50.000  
E19  27546281.320   144756624.137          50.000    27546287.380   108097459.484          50.000  
E24  24665303.980   129616854.813          50.000    24665321.800    96791775.203          50.000  
E26  24967039.560   131202637.387          50.000    24967046.780    97975986.586          50.000  
E31  24734352.460   129979853.027          50.000    24734358.980    97062865.918          50.000  
E33  23855074.620   125359261.934          50.000    23855078.660    93612433.414          50.000  
> 2020  9  4 17 11  5.0000000  0 15       0.000000000000
G 2  24875388.260   130721047.930          50.000                                                  
G 5  21917620.080   115177787.672          50.000                                                  
G12  23778787.840   124958363.262          50.000                                                  
G15  24139555.380   126854016.375          50.000                                                  
G20  23623715.000   124143448.125          50.000                                                  
G25  21710387.940   114088792.738          50.000    21710390.160    85196166.160          50.000  
G26  23443299.100   123195282.086          50.000    23443300.260    91996461.074          50.000  
G29  20465399.840   107546400.477          50.000                                                  
E 1  26767989.060   140666683.551          50.000    26767995.200   105043289.203          50.000  
E 7  26920011.400   141465576.953          50.000    26920018.820   105639869.711          50.000  
E19  27545741.000   144753784.734          50.000    27545747.060   108095339.152          50.000  
E24  24665059.620   129615570.695          50.000    24665077.440    96790816.285          50.000  
E26  24967357.240   131204306.793          50.000    24967364.460    97977233.223          50.000  
E31  24734597.920   129981142.918          50.000    24734604.440    97063829.148          50.000  
E33  23855106.420   125359429.004          50.000    23855110.460    93612558.176          50.000  
> 2020  9  4 17 11  6.0000000  0 15       0.000000000000
G 2  24875839.760   130723420.535          50.000                                                  
G 5  21918071.660   115180160.730          50.000                                                  
G12  23779507.480   124962144.953          50.000                                                  
G15  24138980.620   126850995.941          50.000                                                  
G20  23623050.080   124139953.949          50.000                                                  
G25  21710920.200   114091589.848          50.000    21710922.440    85198254.910          50.000  
G26  23442841.820   123192879.059          50.000    23442842.980    91994666.605          50.000  
G29  20465300.500   107545878.473          50.000                                                  
E 1  26768568.880   140669730.523          50.000    26768575.020   105045564.539          50.000  
E 7  26920031.180   141465680.875          50.000    26920038.600   105639947.316          50.000  
E19  27545200.680   144750945.266          50.000    27545206.740   108093218.770          50.000  
E24  24664815.340   129614287.012          50.000    24664833.180    96789857.691          50.000  
E26  24967674.920   131205976.223          50.000    24967682.140    97978479.875          50.000  
E31  24734843.460   129982433.250          50.000    24734849.980    97064792.703          50.000  
E33  23855138.220   125359596.184          50.000    23855142.260    93612683.020          50.000  
> 2020  9  4 17 11  7.0000000  0 15       0.000000000000
G 2  24876291.240   130725793.105          50.000                                                  
G 5  21918523.340   115182534.289          50.000                                                  
G12  23780227.140   124965926.773          50.000                                                  
G15  24138405.860   126847975.559          50.000                                                  
G20  23622385.200   124136459.938          50.000                                                  
G25  21711452.560   114094387.359          50.000    21711454.780    85200343.961          50.000  
G26  23442384.620   123190476.457          50.000    23442385.780    91992872.453          50.000  
G29  20465201.240   107545356.824          50.000                                                  
E 1  26769148.700   140672777.555          50.000    26769154.860   105047839.918          50.000  
E 7  26920051.040   141465785.238          50.000    26920058.460   105640025.250          50.000  
E19  27544660.320   144748105.715          50.000    27544666.380   108091098.328          50.000  
E24  24664571.140   129613003.754          50.000    24664588.980    96788899.414          50.000  
E26  24967992.600   131207645.668          50.000    24967999.820    97979726.539          50.000  
E31  24735089.080   129983724.004          50.000    24735095.600    97065756.582          50.000  
E33  23855170.060   125359763.457          50.000    23855174.100    93612807.930          50.000  
> 2020  9  4 17 11  8.0000000  0 15       0.000000000000
G 2  24876742.720   130728165.641          50.000                                                  
G 5  21918975.100   115184908.328          50.000                                                  
G12  23780946.820   124969708.711          50.000                                                  
G15  24137831.100   126844955.234          50.000                                                  
G20  23621720.340   124132966.082          50.000                                                  
G25  21711984.980   114097185.289          50.000    21711987.220    85202433.320          50.000  
G26  23441927.500   123188074.313          50.000    23441928.660    91991078.648          50.000  
G29  20465102.040   107544835.535          50.000                                                  
E 1  26769728.560   140675824.676          50.000    26769734.700   105050115.367          50.000  
E 7  26920070.980   141465890.074          50.000    26920078.420   105640103.535          50.000  
E19  27544119.960   144745266.102          50.000    27544126.020   108088977.840          50.000  
E24  24664327.020   129611720.930          50.000    24664344.860    96787941.461          50.000  
E26  24968310.300   131209315.137          50.000    24968317.520    97980973.219          50.000  
E31  24735334.780   129985015.184          50.000    24735341.300    97066720.773          50.000  
E33  23855201.900   125359930.828          50.000    23855205.940    93612932.914          50.000  
> 2020  9  4 17 11  9.0000000  0 16       0.000000000000
G 2  24877194.200   130730538.133          50.000                                                  
G 5  21919426.960   115187282.859          50.000                                                  
G12  23781666.520   124973490.746          50.000                                                  
G15  24137256.360   126841934.965          50.000                                                  
G20  23621055.500   124129472.402          50.000                                                  
G25  21712517.500   114099983.633          50.000    21712519.720    85204522.992          50.000  
G26  23441470.460   123185672.613          50.000    23441471.620    91989285.172          50.000  
G29  20465002.920   107544314.621          50.000                                                  
E 1  26770308.420   140678871.875          50.000    26770314.580   105052390.871          50.000  
E 7  26920091.020   141465995.352          50.000    26920098.440   105640182.152          50.000  
E12  23965165.400   125937793.719          50.000    23965168.360    94044450.223          50.000  
E19  27543579.600   144742426.430          50.000    27543585.640   108086857.305          50.000  
E24  24664083.000   129610438.543          50.000    24664100.840    96786983.836          50.000  
E26  24968627.980   131210984.617          50.000    24968635.200    97982219.906          50.000  
E31  24735580.580   129986306.820          50.000    24735587.100    97067685.305          50.000  
E33  23855233.780   125360098.301          50.000    23855237.820    93613057.977          50.000  
> 2020  9  4 17 11 10.0000000  0 16       0.000000000000
G 2  24877645.660   130732910.598          50.000                                                  
G 5  21919878.900   115189657.883          50.000                                                  
G12  23782386.240   124977272.906          50.000                                                  
G15  24136681.640   126838914.734          50.000                                                  
G20  23620390.700   124125978.863          50.000                                                  
G25  21713050.080   114102782.387          50.000    21713052.300    85206612.969          50.000  
G26  23441013.520   123183271.352          50.000    23441014.680    91987492.020          50.000  
G29  20464903.860   107543794.043          50.000                                                  
E 1  26770888.300   140681919.137          50.000    26770894.440   105054666.422          50.000  
E 7  26920111.140   141466101.086          50.000    26920118.560   105640261.109          50.000  
E12  23964885.820   125936324.555          50.000    23964888.800    94043353.117          50.000  
E19  27543039.200   144739586.668          50.000    27543045.260   108084736.707          50.000  
E24  24663839.040   129609156.578          50.000    24663856.880    96786026.523          50.000  
E26  24968945.680   131212654.121          50.000    24968952.900    97983466.613          50.000  
E31  24735826.440   129987598.887          50.000    24735832.960    97068650.160          50.000  
E33  23855265.660   125360265.883          50.000    23855269.700    93613183.117          50.000  
> 2020  9  4 17 11 11.0000000  0 16       0.000000000000
G 2  24878097.120   130735283.016          50.000                                                  
G 5  21920330.960   115192033.391          50.000                                                  
G12  23783105.980   124981055.168          50.000                                                  
G15  24136106.920   126835894.559          50.000                                                  
G20  23619725.940   124122485.504          50.000                                                  
G25  21713582.740   114105581.543          50.000    21713584.980    85208703.250          50.000  
G26  23440556.660   123180870.547          50.000    23440557.820    91985699.215          50.000  
G29  20464804.860   107543273.816          50.000                                                  
E 1  26771468.200   140684966.504          50.000    26771474.340   105056942.051          50.000  
E 7  26920131.340   141466207.270          50.000    26920138.780   105640340.402          50.000  
E12  23964606.260   125934855.492          50.000    23964609.240    94042256.094          50.000  
E19  27542498.800   144736746.848          50.000    27542504.860   108082616.066          50.000  
E24  24663595.180   129607875.055          50.000    24663613.020    96785069.539          50.000  
E26  24969263.380   131214323.648          50.000    24969270.600    97984713.336          50.000  
E31  24736072.400   129988891.383          50.000    24736078.920    97069615.336          50.000  
E33  23855297.580   125360433.555          50.000    23855301.620    93613308.328          50.000  
> 2020  9  4 17 11 12.0000000  0 16       0.000000000000
G 2  24878548.580   130737655.410          50.000                                                  
G 5  21920783.080   115194409.391          50.000                                                  
G12  23783825.740   124984837.543          50.000                                                  
G15  24135532.200   126832874.434          50.000                                                  
G20  23619061.200   124118992.305          50.000                                                  
G25  21714115.480   114108381.113          50.000    21714117.720    85210793.836          50.000  
G26  23440099.900   123178470.184          50.000    23440101.060    91983906.734          50.000  
G29  20464705.920   107542753.945          50.000                                                  
E 1  26772048.100   140688013.926          50.000    26772054.260   105059217.723          50.000  
E 7  26920151.640   141466313.902          50.000    26920159.060   105640420.031          50.000  
E12  23964326.720   125933386.512          50.000    23964329.700    94041159.129          50.000  
E19  27541958.380   144733906.930          50.000    27541964.440   108080495.348          50.000  
E24  24663351.400   129606593.961          50.000    24663369.240    96784112.879          50.000  
E26  24969581.080   131215993.184          50.000    24969588.300    97985960.066          50.000  
E31  24736318.440   129990184.309          50.000    24736324.960    97070580.832          50.000  
E33  23855329.500   125360601.336          50.000    23855333.540    93613433.621          50.000  
> 2020  9  4 17 11 13.0000000  0 16       0.000000000000
G 2  24879000.020   130740027.750          50.000                                                  
G 5  21921235.320   115196785.879          50.000                                                  
G12  23784545.520   124988620.035          50.000                                                  
G15  24134957.500   126829854.375          50.000                                                  
G20  23618396.500   124115499.242          50.000                                                  
G25  21714648.300   114111181.102          50.000    21714650.540    85212884.738          50.000  
G26  23439643.200   123176070.270          50.000    23439644.360    91982114.590          50.000  
G29  20464607.060   107542234.422          50.000                                                  
E 1  26772628.020   140691061.438          50.000    26772634.180   105061493.461          50.000  
E 7  26920172.020   141466421.004          50.000    26920179.440   105640500.008          50.000  
E12  23964047.200   125931917.609          50.000    23964050.180    94040062.219          50.000  
E19  27541417.960   144731066.957          50.000    27541424.000   108078374.590          50.000  
E24  24663107.700   129605313.301          50.000    24663125.520    96783156.543          50.000  
E26  24969898.800   131217662.746          50.000    24969906.020    97987206.820          50.000  
E31  24736564.560   129991477.652          50.000    24736571.060    97071546.641          50.000  
E33  23855361.440   125360769.195          50.000    23855365.480    93613558.969          50.000  
> 2020  9  4 17 11 14.0000000  0 16       0.000000000000
G 2  24879451.460   130742400.063          50.000                                                  
G 5  21921687.640   115199162.852          50.000                                                  
G12  23785265.340   124992402.641          50.000                                                  
G15  24134382.820   126826834.348          50.000                                                  
G20  23617731.820   124112006.352          50.000                                                  
G25  21715181.200   114113981.492          50.000    21715183.420    85214975.938          50.000  
G26  23439186.600   123173670.805          50.000    23439187.760    91980322.785          50.000  
G29  20464508.280   107541715.266          50.000                                                  
E 1  26773207.960   140694109.023          50.000    26773214.120   105063769.254          50.000  
E 7  26920192.480   141466528.543          50.000    26920199.900   105640580.313          50.000  
E12  23963767.700   125930448.777          50.000    23963770.660    94038965.367          50.000  
E19  27540877.520   144728226.934          50.000    27540883.560   108076253.793          50.000  
E24  24662864.080   129604033.063          50.000    24662881.900    96782200.523          50.000  
E26  24970216.500   131219332.316          50.000    24970223.720    97988453.574          50.000  
E31  24736810.760   129992771.461          50.000    24736817.280    97072512.797          50.000  
E33  23855393.400   125360937.172          50.000    23855397.440    93613684.406          50.000  
> 2020  9  4 17 11 15.0000000  0 16       0.000000000000
G 2  24879902.880   130744772.328          50.000                                                  
G 5  21922140.060   115201540.316          50.000                                                  
G12  23785985.160   124996185.344          50.000                                                  
G15  24133808.140   126823814.391          50.000                                                  
G20  23617067.180   124108513.617          50.000                                                  
G25  21715714.180   114116782.293          50.000    21715716.400    85217067.441          50.000  
G26  23438730.080   123171271.781          50.000    23438731.240    91978531.305          50.000  
G29  20464409.540   107541196.453          50.000                                                  
E 1  26773787.900   140697156.672          50.000    26773794.060   105066045.094          50.000  
E 7  26920213.020   141466636.539          50.000    26920220.460   105640660.961          50.000  
E12  23963488.200   125928980.035          50.000    23963491.180    94037868.578          50.000  
E19  27540337.060   144725386.828          50.000    27540343.120   108074132.938          50.000  
E24  24662620.540   129602753.266          50.000    24662638.380    96781244.832          50.000  
E26  24970534.220   131221001.902          50.000    24970541.440    97989700.344          50.000  
E31  24737057.040   129994065.680          50.000    24737063.560    97073479.258          50.000  
E33  23855425.400   125361105.242          50.000    23855429.420    93613809.914          50.000  
> 2020  9  4 17 11 16.0000000  0 16       0.000000000000
G 2  24880354.300   130747144.559          50.000                                                  
G 5  21922592.560   115203918.266          50.000                                                  
G12  23786705.000   124999968.172          50.000                                                  
G15  24133233.460   126820794.480          50.000                                                  
G20  23616402.560   124105021.055          50.000                                                  
G25  21716247.220   114119583.520          50.000    21716249.460    85219159.266          50.000  
G26  23438273.640   123168873.207          50.000    23438274.800    91976740.164          50.000  
G29  20464310.900   107540678.004          50.000                                                  
E 1  26774367.880   140700204.406          50.000    26774374.020   105068321.000          50.000  
E 7  26920233.660   141466744.984          50.000    26920241.100   105640741.945          50.000  
E12  23963208.720   125927511.379          50.000    23963211.700    94036771.855          50.000  
E19  27539796.580   144722546.613          50.000    27539802.640   108072012.000          50.000  
E24  24662377.080   129601473.895          50.000    24662394.920    96780289.457          50.000  
E26  24970851.940   131222671.520          50.000    24970859.160    97990947.133          50.000  
E31  24737303.400   129995360.348          50.000    24737309.920    97074446.055          50.000  
E33  23855457.400   125361273.406          50.000    23855461.420    93613935.492          50.000  
> 2020  9  4 17 11 17.0000000  0 16       0.000000000000
G 2  24880805.720   130749516.754          50.000                                                  
G 5  21923045.180   115206296.707          50.000                                                  
G12  23787424.880   125003751.113          50.000                                                  
G15  24132658.800   126817774.637          50.000                                                  
G20  23615737.980   124101528.652          50.000                                                  
G25  21716780.360   114122385.133          50.000    21716782.600    85221251.379          50.000  
G26  23437817.300   123166475.086          50.000    23437818.460    91974949.359          50.000  
G29  20464212.300   107540159.906          50.000                                                  
E 1  26774947.860   140703252.219          50.000    26774954.000   105070596.961          50.000  
E 7  26920254.380   141466853.895          50.000    26920261.820   105640823.273          50.000  
E12  23962929.260   125926042.805          50.000    23962932.240    94035675.191          50.000  
E19  27539256.100   144719706.367          50.000    27539262.160   108069891.039          50.000  
E24  24662133.700   129600194.957          50.000    24662151.540    96779334.406          50.000  
E26  24971169.660   131224341.148          50.000    24971176.880    97992193.934          50.000  
E31  24737549.860   129996655.434          50.000    24737556.360    97075413.164          50.000  
E33  23855489.420   125361441.676          50.000    23855493.440    93614061.145          50.000  
> 2020  9  4 17 11 18.0000000  0 16       0.000000000000
G 2  24881257.120   130751888.914          50.000                                                  
G 5  21923497.860   115208675.641          50.000                                                  
G12  23788144.780   125007534.156          50.000                                                  
G15  24132084.160   126814754.840          50.000                                                  
G20  23615073.420   124098036.410          50.000                                                  
G25  21717313.560   114125187.176          50.000    21717315.800    85223343.816          50.000  
G26  23437361.040   123164077.402          50.000    23437362.200    91973158.883          50.000  
G29  20464113.780   107539642.160          50.000                                                  
E 1  26775527.840   140706300.102          50.000    26775534.000   105072872.977          50.000  
E 7  26920275.200   141466963.258          50.000    26920282.640   105640904.941          50.000  
E12  23962649.820   125924574.309          50.000    23962652.800    94034578.590          50.000  
E19  27538715.600   144716866.055          50.000    27538721.660   108067770.027          50.000  
E24  24661890.420   129598916.449          50.000    24661908.240    96778379.676          50.000  
E26  24971487.380   131226010.813          50.000    24971494.600    97993440.758          50.000  
E31  24737796.380   129997950.957          50.000    24737802.900    97076380.602          50.000  
E33  23855521.460   125361610.043          50.000    23855525.480    93614186.875          50.000  
> 2020  9  4 17 11 19.0000000  0 16       0.000000000000
G 2  24881708.520   130754261.035          50.000                                                  
G 5  21923950.660   115211055.059          50.000                                                  
G12  23788864.680   125011317.309          50.000                                                  
G15  24131509.520   126811735.094          50.000                                                  
G20  23614408.900   124094544.328          50.000                                                  
G25  21717846.860   114127989.613          50.000    21717849.080    85225436.543          50.000  
G26  23436904.860   123161680.168          50.000    23436906.020    91971368.742          50.000  
G29  20464015.320   107539124.773          50.000                                                  
E 1  26776107.860   140709348.082          50.000    26776114.020   105075149.063          50.000  
E 7  26920296.100   141467073.066          50.000    26920303.520   105640986.938          50.000  
E12  23962370.380   125923105.883          50.000    23962373.360    94033482.039          50.000  
E19  27538175.100   144714025.633          50.000    27538181.140   108065648.934          50.000  
E24  24661647.200   129597638.371          50.000    24661665.040    96777425.266          50.000  
E26  24971805.100   131227680.480          50.000    24971812.340    97994687.590          50.000  
E31  24738043.000   129999246.914          50.000    24738049.520    97077348.359          50.000  
E33  23855553.500   125361778.504          50.000    23855557.540    93614312.672          50.000  
> 2020  9  4 17 11 20.0000000  0 16       0.000000000000
G 2  24882159.920   130756633.125          50.000                                                  
G 5  21924403.540   115213434.961          50.000                                                  
G12  23789584.620   125015100.574          50.000                                                  
G15  24130934.880   126808715.410          50.000                                                  
G20  23613744.420   124091052.410          50.000                                                  
G25  21718380.220   114130792.473          50.000    21718382.460    85227529.586          50.000  
G26  23436448.760   123159283.387          50.000    23436449.920    91969578.938          50.000  
G29  20463916.940   107538607.750          50.000                                                  
E 1  26776687.880   140712396.121          50.000    26776694.040   105077425.195          50.000  
E 7  26920317.080   141467183.332          50.000    26920324.520   105641069.281          50.000  
E12  23962090.960   125921637.547          50.000    23962093.940    94032385.551          50.000  
E19  27537634.560   144711185.172          50.000    27537640.620   108063527.809          50.000  
E24  24661404.080   129596360.727          50.000    24661421.900    96776471.180          50.000  
E26  24972122.840   131229350.160          50.000    24972130.060    97995934.430          50.000  
E31  24738289.700   130000543.320          50.000    24738296.220    97078316.453          50.000  
E33  23855585.580   125361947.063          50.000    23855589.620    93614438.547          50.000  
> 2020  9  4 17 11 21.0000000  0 16       0.000000000000
G 2  24882611.300   130759005.172          50.000                                                  
G 5  21924856.520   115215815.355          50.000                                                  
G12  23790304.560   125018883.953          50.000                                                  
G15  24130360.260   126805695.773          50.000                                                  
G20  23613079.960   124087560.637          50.000                                                  
G25  21718913.660   114133595.723          50.000    21718915.900    85229622.922          50.000  
G26  23435992.760   123156887.039          50.000    23435993.900    91967789.457          50.000  
G29  20463818.620   107538091.070          50.000                                                  
E 1  26777267.920   140715444.234          50.000    26777274.080   105079701.383          50.000  
E 7  26920338.140   141467294.039          50.000    26920345.580   105641151.953          50.000  
E12  23961811.560   125920169.285          50.000    23961814.540    94031289.125          50.000  
E19  27537094.040   144708344.633          50.000    27537100.080   108061406.629          50.000  
E24  24661161.020   129595083.508          50.000    24661178.860    96775517.414          50.000  
E26  24972440.580   131231019.859          50.000    24972447.800    97997181.281          50.000  
E31  24738536.460   130001840.133          50.000    24738542.980    97079284.852          50.000  
E33  23855617.680   125362115.723          50.000    23855621.720    93614564.492          50.000  
> 2020  9  4 17 11 22.0000000  0 16       0.000000000000
G 2  24883062.680   130761377.176          50.000                                                  
G 5  21925309.580   115218196.238          50.000                                                  
G12  23791024.540   125022667.438          50.000                                                  
G15  24129785.660   126802676.199          50.000                                                  
G20  23612415.520   124084069.047          50.000                                                  
G25  21719447.180   114136399.402          50.000    21719449.420    85231716.578          50.000  
G26  23435536.840   123154491.160          50.000    23435537.980    91966000.328          50.000  
G29  20463720.360   107537574.742          50.000                                                  
E 1  26777847.980   140718492.438          50.000    26777854.120   105081977.637          50.000  
E 7  26920359.300   141467405.203          50.000    26920366.740   105641234.965          50.000  
E12  23961532.180   125918701.117          50.000    23961535.160    94030192.766          50.000  
E19  27536553.480   144705504.023          50.000    27536559.540   108059285.395          50.000  
E24  24660918.060   129593806.727          50.000    24660935.900    96774563.977          50.000  
E26  24972758.320   131232689.586          50.000    24972765.540    97998428.152          50.000  
E31  24738783.320   130003137.395          50.000    24738789.840    97080253.586          50.000  
E33  23855649.800   125362284.492          50.000    23855653.840    93614690.523          50.000  
> 2020  9  4 17 11 23.0000000  0 16       0.000000000000
G 2  24883514.060   130763749.148          50.000                                                  
G 5  21925762.740   115220577.617          50.000                                                  
G12  23791744.540   125026451.043          50.000                                                  
G15  24129211.060   126799656.684          50.000                                                  
G20  23611751.120   124080577.605          50.000                                                  
G25  21719980.780   114139203.484          50.000    21719983.020    85233810.535          50.000  
G26  23435081.000   123152095.711          50.000    23435082.140    91964211.520          50.000  
G29  20463622.180   107537058.777          50.000                                                  
E 1  26778428.040   140721540.703          50.000    26778434.200   105084253.941          50.000  
E 7  26920380.540   141467516.836          50.000    26920387.980   105641318.324          50.000  
E12  23961252.820   125917233.031          50.000    23961255.800    94029096.469          50.000  
E19  27536012.920   144702663.328          50.000    27536018.960   108057164.102          50.000  
E24  24660675.180   129592530.379          50.000    24660693.020    96773610.859          50.000  
E26  24973076.060   131234359.324          50.000    24973083.280    97999675.035          50.000  
E31  24739030.280   130004435.086          50.000    24739036.800    97081222.645          50.000  
E33  23855681.940   125362453.363          50.000    23855685.960    93614816.629          50.000  
> 2020  9  4 17 11 24.0000000  0 16       0.000000000000
G 2  24883965.420   130766121.078          50.000                                                  
G 5  21926216.000   115222959.473          50.000                                                  
G12  23792464.560   125030234.758          50.000                                                  
G15  24128636.480   126796637.219          50.000                                                  
G20  23611086.760   124077086.340          50.000                                                  
G25  21720514.460   114142007.977          50.000    21720516.700    85235904.801          50.000  
G26  23434625.240   123149700.715          50.000    23434626.400    91962423.051          50.000  
G29  20463524.060   107536543.156          50.000                                                  
E 1  26779008.120   140724589.055          50.000    26779014.280   105086530.305          50.000  
E 7  26920401.860   141467628.914          50.000    26920409.300   105641402.020          50.000  
E12  23960973.460   125915765.000          50.000    23960976.440    94028000.211          50.000  
E19  27535472.340   144699822.574          50.000    27535478.380   108055042.758          50.000  
E24  24660432.380   129591254.457          50.000    24660450.220    96772658.059          50.000  
E26  24973393.800   131236029.086          50.000    24973401.020    98000921.934          50.000  
E31  24739277.300   130005733.215          50.000    24739283.820    97082192.023          50.000  
E33  23855714.080   125362622.313          50.000    23855718.120    93614942.789          50.000  
> 2020  9  4 17 11 25.0000000  0 16       0.000000000000
G 2  24884416.780   130768492.969          50.000                                                  
G 5  21926669.340   115225341.816          50.000                                                  
G12  23793184.600   125034018.574          50.000                                                  
G15  24128061.900   126793617.801          50.000                                                  
G20  23610422.420   124073595.234          50.000                                                  
G25  21721048.220   114144812.871          50.000    21721050.460    85237999.363          50.000  
G26  23434169.580   123147306.168          50.000    23434170.720    91960634.914          50.000  
G29  20463426.000   107536027.902          50.000                                                  
E 1  26779588.220   140727637.492          50.000    26779594.380   105088806.734          50.000  
E 7  26920423.280   141467741.445          50.000    26920430.720   105641486.055          50.000  
E12  23960694.120   125914297.074          50.000    23960697.100    94026904.035          50.000  
E19  27534931.740   144696981.770          50.000    27534937.800   108052921.379          50.000  
E24  24660189.660   129589978.973          50.000    24660207.500    96771705.590          50.000  
E26  24973711.540   131237698.875          50.000    24973718.780    98002168.855          50.000  
E31  24739524.400   130007031.754          50.000    24739530.920    97083161.711          50.000  
E33  23855746.260   125362791.375          50.000    23855750.280    93615069.039          50.000  
> 2020  9  4 17 11 26.0000000  0 16       0.000000000000
G 2  24884868.140   130770864.832          50.000                                                  
G 5  21927122.780   115227724.652          50.000                                                  
G12  23793904.660   125037802.512          50.000                                                  
G15  24127487.340   126790598.441          50.000                                                  
G20  23609758.120   124070104.293          50.000                                                  
G25  21721582.060   114147618.188          50.000    21721584.280    85240094.238          50.000  
G26  23433713.980   123144912.066          50.000    23433715.140    91958847.109          50.000  
G29  20463328.020   107535513.000          50.000                                                  
E 1  26780168.340   140730685.988          50.000    26780174.480   105091083.207          50.000  
E 7  26920444.780   141467854.430          50.000    26920452.220   105641570.426          50.000  
E12  23960414.800   125912829.219          50.000    23960417.780    94025807.906          50.000  
E19  27534391.140   144694140.867          50.000    27534397.200   108050799.930          50.000  
E24  24659947.040   129588703.914          50.000    24659964.860    96770753.434          50.000  
E26  24974029.300   131239368.672          50.000    24974036.520    98003415.781          50.000  
E31  24739771.600   130008330.746          50.000    24739778.120    97084131.738          50.000  
E33  23855778.440   125362960.531          50.000    23855782.480    93615195.355          50.000  
> 2020  9  4 17 11 27.0000000  0 16       0.000000000000
G 2  24885319.480   130773236.648          50.000                                                  
G 5  21927576.300   115230107.969          50.000                                                  
G12  23794624.740   125041586.555          50.000                                                  
G15  24126912.780   126787579.141          50.000                                                  
G20  23609093.840   124066613.516          50.000                                                  
G25  21722115.960   114150423.914          50.000    21722118.200    85242189.426          50.000  
G26  23433258.500   123142518.418          50.000    23433259.640    91957059.648          50.000  
G29  20463230.100   107534998.453          50.000                                                  
E 1  26780748.460   140733734.574          50.000    26780754.620   105093359.746          50.000  
E 7  26920466.360   141467967.855          50.000    26920473.800   105641655.129          50.000  
E12  23960135.500   125911361.461          50.000    23960138.460    94024711.855          50.000  
E19  27533850.520   144691299.895          50.000    27533856.580   108048678.422          50.000  
E24  24659704.480   129587429.297          50.000    24659722.320    96769801.609          50.000  
E26  24974347.060   131241038.480          50.000    24974354.280    98004662.715          50.000  
E31  24740018.860   130009630.176          50.000    24740025.380    97085102.094          50.000  
E33  23855810.660   125363129.785          50.000    23855814.680    93615321.746          50.000  
> 2020  9  4 17 11 28.0000000  0 16       0.000000000000
G 2  24885770.800   130775608.426          50.000                                                  
G 5  21928029.940   115232491.770          50.000                                                  
G12  23795344.840   125045370.703          50.000                                                  
G15  24126338.240   126784559.883          50.000                                                  
G20  23608429.600   124063122.895          50.000                                                  
G25  21722649.960   114153230.035          50.000    21722652.180    85244284.902          50.000  
G26  23432803.080   123140125.215          50.000    23432804.240    91955272.516          50.000  
G29  20463132.260   107534484.262          50.000                                                  
E 1  26781328.600   140736783.223          50.000    26781334.760   105095636.332          50.000  
E 7  26920488.040   141468081.746          50.000    26920495.480   105641740.176          50.000  
E12  23959856.200   125909893.770          50.000    23959859.180    94023615.852          50.000  
E19  27533309.900   144688458.875          50.000    27533315.940   108046556.883          50.000  
E24  24659462.000   129586155.102          50.000    24659479.840    96768850.102          50.000  
E26  24974664.820   131242708.316          50.000    24974672.040    98005909.668          50.000  
E31  24740266.220   130010930.023          50.000    24740272.740    97086072.754          50.000  
E33  23855842.880   125363299.141          50.000    23855846.920    93615448.211          50.000  
> 2020  9  4 17 11 29.0000000  0 16       0.000000000000
G 2  24886222.140   130777980.172          50.000                                                  
G 5  21928483.640   115234876.063          50.000                                                  
G12  23796064.960   125049154.969          50.000                                                  
G15  24125763.700   126781540.695          50.000                                                  
G20  23607765.380   124059632.438          50.000                                                  
G25  21723184.020   114156036.559          50.000    21723186.260    85246380.684          50.000  
G26  23432347.760   123137732.453          50.000    23432348.900    91953485.715          50.000  
G29  20463034.480   107533970.434          50.000                                                  
E 1  26781908.760   140739831.945          50.000    26781914.920   105097912.977          50.000  
E 7  26920509.800   141468196.094          50.000    26920517.240   105641825.566          50.000  
E12  23959576.920   125908426.168          50.000    23959579.900    94022519.918          50.000  
E19  27532769.240   144685617.758          50.000    27532775.300   108044435.273          50.000  
E24  24659219.620   129584881.348          50.000    24659237.460    96767898.918          50.000  
E26  24974982.580   131244378.172          50.000    24974989.800    98007156.641          50.000  
E31  24740513.660   130012230.313          50.000    24740520.180    97087043.750          50.000  
E33  23855875.120   125363468.594          50.000    23855879.160    93615574.754          50.000  
> 2020  9  4 17 11 30.0000000  0 16       0.000000000000
G 2  24886673.460   130780351.875          50.000                                                  
G 5  21928937.460   115237260.844          50.000                                                  
G12  23796785.100   125052939.344          50.000                                                  
G15  24125189.180   126778521.551          50.000                                                  
G20  23607101.200   124056142.152          50.000                                                  
G25  21723718.160   114158843.504          50.000    21723720.400    85248476.777          50.000  
G26  23431892.500   123135340.141          50.000    23431893.660    91951699.246          50.000  
G29  20462936.780   107533456.953          50.000                                                  
E 1  26782488.920   140742880.754          50.000    26782495.080   105100189.684          50.000  
E 7  26920531.640   141468310.891          50.000    26920539.080   105641911.289          50.000  
E12  23959297.660   125906958.629          50.000    23959300.640    94021424.027          50.000  
E19  27532228.580   144682776.598          50.000    27532234.640   108042313.625          50.000  
E24  24658977.320   129583608.016          50.000    24658995.140    96766948.055          50.000  
E26  24975300.340   131246048.043          50.000    24975307.560    98008403.617          50.000  
E31  24740761.180   130013531.031          50.000    24740767.700    97088015.066          50.000  
E33  23855907.380   125363638.145          50.000    23855911.420    93615701.363          50.000  
> 2020  9  4 17 11 31.0000000  0 16       0.000000000000
G 2  24887124.780   130782723.543          50.000                                                  
G 5  21929391.360   115239646.117          50.000                                                  
G12  23797505.280   125056723.836          50.000                                                  
G15  24124614.660   126775502.473          50.000                                                  
G20  23606437.060   124052652.031          50.000                                                  
G25  21724252.380   114161650.852          50.000    21724254.620    85250573.172          50.000  
G26  23431437.360   123132948.273          50.000    23431438.500    91949913.113          50.000  
G29  20462839.120   107532943.828          50.000                                                  
E 1  26783069.100   140745929.641          50.000    26783075.260   105102466.449          50.000  
E 7  26920553.580   141468426.133          50.000    26920561.000   105641997.348          50.000  
E12  23959018.420   125905491.184          50.000    23959021.400    94020328.207          50.000  
E19  27531687.920   144679935.355          50.000    27531693.960   108040191.922          50.000  
E24  24658735.080   129582335.121          50.000    24658752.920    96765997.520          50.000  
E26  24975618.120   131247717.934          50.000    24975625.340    98009650.613          50.000  
E31  24741008.780   130014832.176          50.000    24741015.300    97088986.699          50.000  
E33  23855939.680   125363807.797          50.000    23855943.700    93615828.055          50.000  
> 2020  9  4 17 11 32.0000000  0 16       0.000000000000
G 2  24887576.080   130785095.172          50.000                                                  
G 5  21929845.360   115242031.871          50.000                                                  
G12  23798225.460   125060508.426          50.000                                                  
G15  24124040.160   126772483.434          50.000                                                  
G20  23605772.940   124049162.047          50.000                                                  
G25  21724786.680   114164458.605          50.000    21724788.920    85252669.875          50.000  
G26  23430982.280   123130556.855          50.000    23430983.440    91948127.313          50.000  
G29  20462741.540   107532431.055          50.000                                                  
E 1  26783649.300   140748978.590          50.000    26783655.460   105104743.258          50.000  
E 7  26920575.600   141468541.836          50.000    26920583.020   105642083.746          50.000  
E12  23958739.180   125904023.816          50.000    23958742.160    94019232.445          50.000  
E19  27531147.240   144677094.031          50.000    27531153.280   108038070.156          50.000  
E24  24658492.940   129581062.656          50.000    24658510.780    96765047.301          50.000  
E26  24975935.880   131249387.840          50.000    24975943.120    98010897.621          50.000  
E31  24741256.460   130016133.766          50.000    24741262.980    97089958.664          50.000  
E33  23855971.980   125363977.543          50.000    23855976.000    93615954.813          50.000  
> 2020  9  4 17 11 33.0000000  0 16       0.000000000000
G 2  24888027.380   130787466.762          50.000                                                  
G 5  21930299.440   115244418.113          50.000                                                  
G12  23798945.660   125064293.129          50.000                                                  
G15  24123465.660   126769464.453          50.000                                                  
G20  23605108.840   124045672.250          50.000                                                  
G25  21725321.060   114167266.789          50.000    21725323.300    85254766.895          50.000  
G26  23430527.300   123128165.887          50.000    23430528.440    91946341.852          50.000  
G29  20462644.040   107531918.641          50.000                                                  
E 1  26784229.520   140752027.617          50.000    26784235.680   105107020.129          50.000  
E 7  26920597.700   141468657.992          50.000    26920605.120   105642170.488          50.000  
E12  23958459.960   125902556.531          50.000    23958462.940    94018136.750          50.000  
E19  27530606.540   144674252.648          50.000    27530612.580   108035948.344          50.000  
E24  24658250.880   129579790.621          50.000    24658268.720    96764097.406          50.000  
E26  24976253.660   131251057.758          50.000    24976260.880    98012144.637          50.000  
E31  24741504.220   130017435.777          50.000    24741510.740    97090930.945          50.000  
E33  23856004.300   125364147.395          50.000    23856008.340    93616081.652          50.000  
> 2020  9  4 17 11 34.0000000  0 16       0.000000000000
G 2  24888478.680   130789838.309          50.000                                                  
G 5  21930753.620   115246804.840          50.000                                                  
G12  23799665.880   125068077.945          50.000                                                  
G15  24122891.180   126766445.531          50.000                                                  
G20  23604444.780   124042182.617          50.000                                                  
G25  21725855.520   114170075.359          50.000    21725857.760    85256864.203          50.000  
G26  23430072.400   123125775.367          50.000    23430073.540    91944556.727          50.000  
G29  20462546.600   107531406.586          50.000                                                  
E 1  26784809.740   140755076.727          50.000    26784815.900   105109297.063          50.000  
E 7  26920619.880   141468774.594          50.000    26920627.320   105642257.563          50.000  
E12  23958180.760   125901089.324          50.000    23958183.740    94017041.109          50.000  
E19  27530065.820   144671411.195          50.000    27530071.880   108033826.480          50.000  
E24  24658008.900   129578519.020          50.000    24658026.740    96763147.832          50.000  
E26  24976571.440   131252727.699          50.000    24976578.660    98013391.672          50.000  
E31  24741752.060   130018738.215          50.000    24741758.580    97091903.547          50.000  
E33  23856036.640   125364317.336          50.000    23856040.660    93616208.555          50.000  
> 2020  9  4 17 11 35.0000000  0 16       0.000000000000
G 2  24888929.960   130792209.816          50.000                                                  
G 5  21931207.900   115249192.059          50.000                                                  
G12  23800386.140   125071862.840          50.000                                                  
G15  24122316.720   126763426.660          50.000                                                  
G20  23603780.760   124038693.145          50.000                                                  
G25  21726390.040   114172884.340          50.000    21726392.280    85258961.813          50.000  
G26  23429617.580   123123385.297          50.000    23429618.740    91942771.930          50.000  
G29  20462449.220   107530894.887          50.000                                                  
E 1  26785389.980   140758125.902          50.000    26785396.140   105111574.039          50.000  
E 7  26920642.160   141468891.660          50.000    26920649.600   105642344.980          50.000  
E12  23957901.580   125899622.195          50.000    23957904.560    94015945.523          50.000  
E19  27529525.100   144668569.664          50.000    27529531.140   108031704.559          50.000  
E24  24657767.020   129577247.844          50.000    24657784.840    96762198.578          50.000  
E26  24976889.220   131254397.664          50.000    24976896.460    98014638.723          50.000  
E31  24742000.000   130020041.102          50.000    24742006.520    97092876.480          50.000  
E33  23856069.000   125364487.383          50.000    23856073.020    93616335.535          50.000  
> 2020  9  4 17 11 36.0000000  0 16       0.000000000000
G 2  24889381.240   130794581.277          50.000                                                  
G 5  21931662.260   115251579.762          50.000                                                  
G12  23801106.400   125075647.871          50.000                                                  
G15  24121742.260   126760407.840          50.000                                                  
G20  23603116.780   124035203.844          50.000                                                  
G25  21726924.660   114175693.730          50.000    21726926.900    85261059.738          50.000  
G26  23429162.840   123120995.680          50.000    23429164.000    91940987.477          50.000  
G29  20462351.920   107530383.543          50.000                                                  
E 1  26785970.240   140761175.160          50.000    26785976.400   105113851.082          50.000  
E 7  26920664.520   141469009.172          50.000    26920671.960   105642432.734          50.000  
E12  23957622.420   125898155.156          50.000    23957625.380    94014850.008          50.000  
E19  27528984.360   144665728.059          50.000    27528990.400   108029582.582          50.000  
E24  24657525.200   129575977.105          50.000    24657543.040    96761249.652          50.000  
E26  24977207.020   131256067.637          50.000    24977214.240    98015885.781          50.000  
E31  24742248.020   130021344.406          50.000    24742254.540    97093849.727          50.000  
E33  23856101.360   125364657.523          50.000    23856105.400    93616462.590          50.000  
> 2020  9  4 17 11 37.0000000  0 16       0.000000000000
G 2  24889832.500   130796952.707          50.000                                                  
G 5  21932116.720   115253967.945          50.000                                                  
G12  23801826.700   125079433.020          50.000                                                  
G15  24121167.800   126757389.094          50.000                                                  
G20  23602452.800   124031714.703          50.000                                                  
G25  21727459.340   114178503.535          50.000    21727461.580    85263157.965          50.000  
G26  23428708.200   123118606.500          50.000    23428709.360    91939203.352          50.000  
G29  20462254.680   107529872.551          50.000                                                  
E 1  26786550.500   140764224.500          50.000    26786556.660   105116128.188          50.000  
E 7  26920686.980   141469127.133          50.000    26920694.400   105642520.820          50.000  
E12  23957343.260   125896688.180          50.000    23957346.240    94013754.539          50.000  
E19  27528443.600   144662886.418          50.000    27528449.660   108027460.578          50.000  
E24  24657283.460   129574706.801          50.000    24657301.300    96760301.047          50.000  
E26  24977524.800   131257737.637          50.000    24977532.020    98017132.855          50.000  
E31  24742496.100   130022648.156          50.000    24742502.620    97094823.309          50.000  
E33  23856133.760   125364827.770          50.000    23856137.800    93616589.719          50.000  
> 2020  9  4 17 11 38.0000000  0 16       0.000000000000
G 2  24890283.760   130799324.094          50.000                                                  
G 5  21932571.260   115256356.625          50.000                                                  
G12  23802547.000   125083218.266          50.000                                                  
G15  24120593.360   126754370.395          50.000                                                  
G20  23601788.880   124028225.719          50.000                                                  
G25  21727994.100   114181313.746          50.000    21727996.340    85265256.500          50.000  
G26  23428253.640   123116217.781          50.000    23428254.800    91937419.566          50.000  
G29  20462157.520   107529361.918          50.000                                                  
E 1  26787130.780   140767273.902          50.000    26787136.940   105118405.336          50.000  
E 7  26920709.500   141469245.555          50.000    26920716.940   105642609.254          50.000  
E12  23957064.120   125895221.305          50.000    23957067.100    94012659.145          50.000  
E19  27527902.840   144660044.680          50.000    27527908.900   108025338.504          50.000  
E24  24657041.820   129573436.934          50.000    24657059.660    96759352.770          50.000  
E26  24977842.600   131259407.648          50.000    24977849.820    98018379.941          50.000  
E31  24742744.280   130023952.328          50.000    24742750.800    97095797.203          50.000  
E33  23856166.180   125364998.113          50.000    23856170.220    93616716.926          50.000  
> 2020  9  4 17 11 39.0000000  0 16       0.000000000000
G 2  24890735.020   130801695.449          50.000                                                  
G 5  21933025.920   115258745.789          50.000                                                  
G12  23803267.340   125087003.621          50.000                                                  
G15  24120018.940   126751351.746          50.000                                                  
G20  23601124.980   124024736.895          50.000                                                  
G25  21728528.960   114184124.359          50.000    21728531.180    85267355.336          50.000  
G26  23427799.160   123113829.504          50.000    23427800.320    91935636.117          50.000  
G29  20462060.400   107528851.641          50.000                                                  
E 1  26787711.080   140770323.387          50.000    26787717.240   105120682.547          50.000  
E 7  26920732.120   141469364.430          50.000    26920739.560   105642698.023          50.000  
E12  23956785.000   125893754.504          50.000    23956787.980    94011563.809          50.000  
E19  27527362.060   144657202.871          50.000    27527368.120   108023216.375          50.000  
E24  24656800.260   129572167.496          50.000    24656818.080    96758404.813          50.000  
E26  24978160.400   131261077.688          50.000    24978167.620    98019627.047          50.000  
E31  24742992.540   130025256.938          50.000    24742999.060    97096771.422          50.000  
E33  23856198.620   125365168.559          50.000    23856202.660    93616844.207          50.000  
> 2020  9  4 17 11 40.0000000  0 16       0.000000000000
G 2  24891186.260   130804066.758          50.000                                                  
G 5  21933480.640   115261135.445          50.000                                                  
G12  23803987.680   125090789.094          50.000                                                  
G15  24119444.520   126748333.156          50.000                                                  
G20  23600461.100   124021248.219          50.000                                                  
G25  21729063.880   114186935.395          50.000    21729066.120    85269454.480          50.000  
G26  23427344.780   123111441.680          50.000    23427345.940    91933853.000          50.000  
G29  20461963.380   107528341.723          50.000                                                  
E 1  26788291.400   140773372.949          50.000    26788297.560   105122959.816          50.000  
E 7  26920754.840   141469483.754          50.000    26920762.260   105642787.129          50.000  
E12  23956505.900   125892287.789          50.000    23956508.860    94010468.535          50.000  
E19  27526821.280   144654360.996          50.000    27526827.320   108021094.195          50.000  
E24  24656558.760   129570898.488          50.000    24656576.600    96757457.180          50.000  
E26  24978478.200   131262747.734          50.000    24978485.420    98020874.160          50.000  
E31  24743240.880   130026561.961          50.000    24743247.400    97097745.953          50.000  
E33  23856231.060   125365339.102          50.000    23856235.100    93616971.559          50.000  
> 2020  9  4 17 11 41.0000000  0 16       0.000000000000
G 2  24891637.500   130806438.035          50.000                                                  
G 5  21933935.480   115263525.570          50.000                                                  
G12  23804708.060   125094574.660          50.000                                                  
G15  24118870.100   126745314.617          50.000                                                  
G20  23599797.260   124017759.723          50.000                                                  
G25  21729598.880   114189746.816          50.000    21729601.100    85271553.918          50.000  
G26  23426890.480   123109054.297          50.000    23426891.620    91932070.215          50.000  
G29  20461866.400   107527832.152          50.000                                                  
E 1  26788871.720   140776422.578          50.000    26788877.880   105125237.137          50.000  
E 7  26920777.620   141469603.535          50.000    26920785.060   105642876.574          50.000  
E12  23956226.800   125890821.145          50.000    23956229.780    94009373.313          50.000  
E19  27526280.460   144651519.055          50.000    27526286.520   108018971.969          50.000  
E24  24656317.360   129569629.902          50.000    24656335.200    96756509.855          50.000  
E26  24978796.000   131264417.805          50.000    24978803.220    98022121.289          50.000  
E31  24743489.300   130027867.434          50.000    24743495.820    97098720.816          50.000  
E33  23856263.540   125365509.727          50.000    23856267.580    93617098.977          50.000  
> 2020  9  4 17 11 42.0000000  0 16       0.000000000000
G 2  24892088.740   130808809.281          50.000                                                  
G 5  21934390.400   115265916.199          50.000                                                  
G12  23805428.440   125098360.340          50.000                                                  
G15  24118295.700   126742296.137          50.000                                                  
G20  23599133.460   124014271.391          50.000                                                  
G25  21730133.940   114192558.676          50.000    21730136.180    85273653.684          50.000  
G26  23426436.260   123106667.371          50.000    23426437.420    91930287.773          50.000  
G29  20461769.500   107527322.945          50.000                                                  
E 1  26789452.060   140779472.297          50.000    26789458.240   105127514.520          50.000  
E 7  26920800.500   141469723.762          50.000    26920807.940   105642966.355          50.000  
E12  23955947.720   125889354.586          50.000    23955950.700    94008278.156          50.000  
E19  27525739.640   144648677.035          50.000    27525745.700   108016849.684          50.000  
E24  24656076.040   129568361.766          50.000    24656093.880    96755562.875          50.000  
E26  24979113.800   131266087.898          50.000    24979121.040    98023368.438          50.000  
E31  24743737.820   130029173.348          50.000    24743744.340    97099696.012          50.000  
E33  23856296.040   125365680.473          50.000    23856300.060    93617226.480          50.000  
> 2020  9  4 17 11 43.0000000  0 16       0.000000000000
G 2  24892539.960   130811180.504          50.000                                                  
G 5  21934845.400   115268307.363          50.000                                                  
G12  23806148.880   125102146.074          50.000                                                  
G15  24117721.340   126739277.586          50.000                                                  
G20  23598469.660   124010783.355          50.000                                                  
G25  21730669.100   114195370.945          50.000    21730671.340    85275753.754          50.000  
G26  23425982.100   123104281.020          50.000    23425983.240    91928505.824          50.000  
G29  20461672.700   107526814.020          50.000                                                  
E 1  26790032.420   140782522.074          50.000    26790038.580   105129791.949          50.000  
E 7  26920823.460   141469844.520          50.000    26920830.900   105643056.559          50.000  
E12  23955668.660   125887888.125          50.000    23955671.640    94007183.074          50.000  
E19  27525198.820   144645835.008          50.000    27525204.860   108014727.410          50.000  
E24  24655834.820   129567094.043          50.000    24655852.660    96754616.180          50.000  
E26  24979431.620   131267758.047          50.000    24979438.840    98024615.641          50.000  
E31  24743986.400   130030479.648          50.000    24743992.920    97100671.477          50.000  
E33  23856328.540   125365851.313          50.000    23856332.580    93617354.055          50.000  
> 2020  9  4 17 11 44.0000000  0 16       0.000000000000
G 2  24892991.180   130813551.672          50.000                                                  
G 5  21935300.500   115270698.953          50.000                                                  
G12  23806869.300   125105931.984          50.000                                                  
G15  24117146.960   126736259.223          50.000                                                  
G20  23597805.900   124007295.352          50.000                                                  
G25  21731204.340   114198183.598          50.000    21731206.580    85277854.109          50.000  
G26  23425528.060   123101895.000          50.000    23425529.200    91926724.055          50.000  
G29  20461575.920   107526305.520          50.000                                                  
E 1  26790612.800   140785571.953          50.000    26790618.960   105132069.453          50.000  
E 7  26920846.520   141469965.660          50.000    26920853.940   105643147.020          50.000  
E12  23955389.620   125886421.727          50.000    23955392.580    94006088.039          50.000  
E19  27524657.980   144642992.875          50.000    27524664.020   108012605.035          50.000  
E24  24655593.660   129565826.770          50.000    24655611.500    96753669.840          50.000  
E26  24979749.420   131269428.176          50.000    24979756.660    98025862.816          50.000  
E31  24744235.080   130031786.422          50.000    24744241.600    97101647.313          50.000  
E33  23856361.060   125366022.254          50.000    23856365.100    93617481.707          50.000  
> 2020  9  4 17 11 45.0000000  0 16       0.000000000000
G 2  24893442.400   130815922.805          50.000                                                  
G 5  21935755.700   115273091.047          50.000                                                  
G12  23807589.760   125109717.992          50.000                                                  
G15  24116572.600   126733240.918          50.000                                                  
G20  23597142.180   124003807.492          50.000                                                  
G25  21731739.640   114200996.668          50.000    21731741.880    85279954.781          50.000  
G26  23425074.100   123099509.430          50.000    23425075.240    91924942.625          50.000  
G29  20461479.220   107525797.379          50.000                                                  
E 1  26791193.180   140788621.883          50.000    26791199.340   105134346.996          50.000  
E 7  26920869.660   141470087.262          50.000    26920877.080   105643237.828          50.000  
E12  23955110.580   125884955.426          50.000    23955113.560    94004993.074          50.000  
E19  27524117.120   144640150.664          50.000    27524123.160   108010482.605          50.000  
E24  24655352.580   129564559.930          50.000    24655370.420    96752723.824          50.000  
E26  24980067.240   131271098.328          50.000    24980074.460    98027110.004          50.000  
E31  24744483.820   130033093.625          50.000    24744490.340    97102623.473          50.000  
E33  23856393.620   125366193.293          50.000    23856397.640    93617609.430          50.000  
> 2020  9  4 17 11 46.0000000  0 16       0.000000000000
G 2  24893893.600   130818293.898          50.000                                                  
G 5  21936211.000   115275483.621          50.000                                                  
G12  23808310.240   125113504.121          50.000                                                  
G15  24115998.240   126730222.672          50.000                                                  
G20  23596478.500   124000319.813          50.000                                                  
G25  21732275.020   114203810.141          50.000    21732277.260    85282055.746          50.000  
G26  23424620.220   123097124.301          50.000    23424621.360    91923161.523          50.000  
G29  20461382.600   107525289.598          50.000                                                  
E 1  26791773.580   140791671.898          50.000    26791779.740   105136624.605          50.000  
E 7  26920892.880   141470209.309          50.000    26920900.300   105643328.965          50.000  
E12  23954831.560   125883489.188          50.000    23954834.540    94003898.156          50.000  
E19  27523576.240   144637308.367          50.000    27523582.280   108008360.113          50.000  
E24  24655111.600   129563293.523          50.000    24655129.420    96751778.133          50.000  
E26  24980385.060   131272768.496          50.000    24980392.280    98028357.211          50.000  
E31  24744732.660   130034401.254          50.000    24744739.180    97103599.945          50.000  
E33  23856426.180   125366364.418          50.000    23856430.200    93617737.219          50.000  
> 2020  9  4 17 11 47.0000000  0 16       0.000000000000
G 2  24894344.800   130820664.957          50.000                                                  
G 5  21936666.380   115277876.684          50.000                                                  
G12  23809030.720   125117290.348          50.000                                                  
G15  24115423.900   126727204.473          50.000                                                  
G20  23595814.840   123996832.293          50.000                                                  
G25  21732810.480   114206624.035          50.000    21732812.720    85284157.031          50.000  
G26  23424166.420   123094739.625          50.000    23424167.560    91921380.758          50.000  
G29  20461286.040   107524782.176          50.000                                                  
E 1  26792353.980   140794721.988          50.000    26792360.140   105138902.270          50.000  
E 7  26920916.180   141470331.816          50.000    26920923.620   105643420.449          50.000  
E12  23954552.560   125882023.043          50.000    23954555.540    94002803.309          50.000  
E19  27523035.360   144634466.016          50.000    27523041.400   108006237.578          50.000  
E24  24654870.680   129562027.555          50.000    24654888.520    96750832.766          50.000  
E26  24980702.900   131274438.684          50.000    24980710.120    98029604.426          50.000  
E31  24744981.580   130035709.328          50.000    24744988.100    97104576.754          50.000  
E33  23856458.760   125366535.664          50.000    23856462.800    93617865.098          50.000  
> 2020  9  4 17 11 48.0000000  0 16       0.000000000000
G 2  24894795.980   130823035.980          50.000                                                  
G 5  21937121.860   115280270.230          50.000                                                  
G12  23809751.240   125121076.684          50.000                                                  
G15  24114849.560   126724186.336          50.000                                                  
G20  23595151.220   123993344.941          50.000                                                  
G25  21733346.020   114209438.320          50.000    21733348.260    85286258.609          50.000  
G26  23423712.720   123092355.383          50.000    23423713.860    91919600.320          50.000  
G29  20461189.540   107524275.109          50.000                                                  
E 1  26792934.420   140797772.156          50.000    26792940.580   105141179.992          50.000  
E 7  26920939.580   141470454.773          50.000    26920947.000   105643512.270          50.000  
E12  23954273.580   125880556.969          50.000    23954276.540    94001708.512          50.000  
E19  27522494.460   144631623.605          50.000    27522500.500   108004115.004          50.000  
E24  24654629.860   129560762.012          50.000    24654647.700    96749887.719          50.000  
E26  24981020.720   131276108.895          50.000    24981027.940    98030851.660          50.000  
E31  24745230.560   130037017.828          50.000    24745237.100    97105553.879          50.000  
E33  23856491.360   125366707.000          50.000    23856495.400    93617993.043          50.000  
> 2020  9  4 17 11 49.0000000  0 16       0.000000000000
G 2  24895247.160   130825406.965          50.000                                                  
G 5  21937577.420   115282664.262          50.000                                                  
G12  23810471.780   125124863.117          50.000                                                  
G15  24114275.240   126721168.254          50.000                                                  
G20  23594487.620   123989857.762          50.000                                                  
G25  21733881.640   114212253.016          50.000    21733883.880    85288360.492          50.000  
G26  23423259.100   123089971.609          50.000    23423260.240    91917820.227          50.000  
G29  20461093.120   107523768.398          50.000                                                  
E 1  26793514.860   140800822.395          50.000    26793521.020   105143457.766          50.000  
E 7  26920963.060   141470578.191          50.000    26920970.500   105643604.434          50.000  
E12  23953994.600   125879090.980          50.000    23953997.580    94000613.781          50.000  
E19  27521953.560   144628781.121          50.000    27521959.600   108001992.371          50.000  
E24  24654389.120   129559496.891          50.000    24654406.940    96748942.984          50.000  
E26  24981338.560   131277779.117          50.000    24981345.780    98032098.906          50.000  
E31  24745479.660   130038326.766          50.000    24745486.180    97106531.332          50.000  
E33  23856523.980   125366878.430          50.000    23856528.020    93618121.059          50.000  
> 2020  9  4 17 11 50.0000000  0 16       0.000000000000
G 2  24895698.340   130827777.906          50.000                                                  
G 5  21938033.080   115285058.785          50.000                                                  
G12  23811192.340   125128649.672          50.000                                                  
G15  24113700.920   126718150.219          50.000                                                  
G20  23593824.060   123986370.730          50.000                                                  
G25  21734417.340   114215068.109          50.000    21734419.580    85290462.672          50.000  
G26  23422805.560   123087588.281          50.000    23422806.700    91916040.473          50.000  
G29  20460996.760   107523262.035          50.000                                                  
E 1  26794095.300   140803872.699          50.000    26794101.460   105145735.590          50.000  
E 7  26920986.640   141470702.055          50.000    26920994.060   105643696.926          50.000  
E12  23953715.640   125877625.063          50.000    23953718.620    93999519.105          50.000  
E19  27521412.620   144625938.566          50.000    27521418.660   107999869.684          50.000  
E24  24654148.460   129558232.227          50.000    24654166.280    96747998.594          50.000  
E26  24981656.380   131279449.355          50.000    24981663.600    98033346.160          50.000  
E31  24745728.800   130039636.117          50.000    24745735.340    97107509.098          50.000  
E33  23856556.620   125367049.953          50.000    23856560.660    93618249.145          50.000  
> 2020  9  4 17 11 51.0000000  0 16       0.000000000000
G 2  24896149.500   130830148.820          50.000                                                  
G 5  21938488.840   115287453.797          50.000                                                  
G12  23811912.900   125132436.324          50.000                                                  
G15  24113126.620   126715132.250          50.000                                                  
G20  23593160.540   123982883.871          50.000                                                  
G25  21734953.120   114217883.617          50.000    21734955.340    85292565.160          50.000  
G26  23422352.120   123085205.398          50.000    23422353.240    91914261.047          50.000  
G29  20460900.460   107522756.043          50.000                                                  
E 1  26794675.780   140806923.090          50.000    26794681.940   105148013.480          50.000  
E 7  26921010.300   141470826.375          50.000    26921017.720   105643789.766          50.000  
E12  23953436.700   125876159.230          50.000    23953439.680    93998424.492          50.000  
E19  27520871.700   144623095.941          50.000    27520877.740   107997746.945          50.000  
E24  24653907.880   129556967.980          50.000    24653925.700    96747054.512          50.000  
E26  24981974.220   131281119.621          50.000    24981981.440    98034593.438          50.000  
E31  24745978.060   130040945.918          50.000    24745984.580    97108487.195          50.000  
E33  23856589.280   125367221.586          50.000    23856593.320    93618377.313          50.000  
> 2020  9  4 17 11 52.0000000  0 16       0.000000000000
G 2  24896600.660   130832519.695          50.000                                                  
G 5  21938944.680   115289849.285          50.000                                                  
G12  23812633.500   125136223.090          50.000                                                  
G15  24112552.320   126712114.336          50.000                                                  
G20  23592497.040   123979397.164          50.000                                                  
G25  21735488.960   114220699.535          50.000    21735491.200    85294667.953          50.000  
G26  23421898.740   123082822.969          50.000    23421899.880    91912481.961          50.000  
G29  20460804.240   107522250.410          50.000                                                  
E 1  26795256.260   140809973.551          50.000    26795262.420   105150291.418          50.000  
E 7  26921034.040   141470951.152          50.000    26921041.460   105643882.941          50.000  
E12  23953157.780   125874693.496          50.000    23953160.760    93997329.949          50.000  
E19  27520330.740   144620253.246          50.000    27520336.780   107995624.156          50.000  
E24  24653667.380   129555704.168          50.000    24653685.200    96746110.758          50.000  
E26  24982292.060   131282789.898          50.000    24982299.300    98035840.719          50.000  
E31  24746227.380   130042256.145          50.000    24746233.900    97109465.609          50.000  
E33  23856621.960   125367393.316          50.000    23856625.980    93618505.555          50.000  
> 2020  9  4 17 11 53.0000000  0 16       0.000000000000
G 2  24897051.820   130834890.523          50.000                                                  
G 5  21939400.620   115292245.266          50.000                                                  
G12  23813354.120   125140009.949          50.000                                                  
G15  24111978.040   126709096.484          50.000                                                  
G20  23591833.560   123975910.637          50.000                                                  
G25  21736024.880   114223515.859          50.000    21736027.120    85296771.055          50.000  
G26  23421445.480   123080441.000          50.000    23421446.600    91910703.219          50.000  
G29  20460708.100   107521745.129          50.000                                                  
E 1  26795836.760   140813024.086          50.000    26795842.920   105152569.414          50.000  
E 7  26921057.860   141471076.375          50.000    26921065.280   105643976.453          50.000  
E12  23952878.880   125873227.836          50.000    23952881.840    93996235.461          50.000  
E19  27519789.780   144617410.477          50.000    27519795.820   107993501.309          50.000  
E24  24653426.960   129554440.789          50.000    24653444.800    96745167.324          50.000  
E26  24982609.920   131284460.203          50.000    24982617.140    98037088.023          50.000  
E31  24746476.780   130043566.805          50.000    24746483.320    97110444.348          50.000  
E33  23856654.640   125367565.145          50.000    23856658.680    93618633.863          50.000  
> 2020  9  4 17 11 54.0000000  0 16       0.000000000000
G 2  24897502.960   130837261.324          50.000                                                  
G 5  21939856.640   115294641.723          50.000                                                  
G12  23814074.760   125143796.945          50.000                                                  
G15  24111403.780   126706078.688          50.000                                                  
G20  23591170.120   123972424.266          50.000                                                  
G25  21736560.900   114226332.590          50.000    21736563.140    85298874.457          50.000  
G26  23420992.280   123078059.461          50.000    23420993.420    91908924.797          50.000  
G29  20460612.000   107521240.207          50.000                                                  
E 1  26796417.260   140816074.688          50.000    26796423.420   105154847.461          50.000  
E 7  26921081.780   141471202.047          50.000    26921089.200   105644070.301          50.000  
E12  23952599.980   125871762.230          50.000    23952602.940    93995141.016          50.000  
E19  27519248.800   144614567.664          50.000    27519254.840   107991378.430          50.000  
E24  24653186.620   129553177.844          50.000    24653204.460    96744224.219          50.000  
E26  24982927.760   131286130.512          50.000    24982934.980    98038335.332          50.000  
E31  24746726.280   130044877.883          50.000    24746732.800    97111423.398          50.000  
E33  23856687.360   125367737.078          50.000    23856691.400    93618762.258          50.000  
> 2020  9  4 17 11 55.0000000  0 16       0.000000000000
G 2  24897954.100   130839632.070          50.000                                                  
G 5  21940312.760   115297038.672          50.000                                                  
G12  23814795.420   125147584.035          50.000                                                  
G15  24110829.520   126703060.945          50.000                                                  
G20  23590506.720   123968938.063          50.000                                                  
G25  21737096.980   114229149.727          50.000    21737099.220    85300978.160          50.000  
G26  23420539.180   123075678.375          50.000    23420540.300    91907146.715          50.000  
G29  20460516.000   107520735.645          50.000                                                  
E 1  26796997.780   140819125.367          50.000    26797003.960   105157125.563          50.000  
E 7  26921105.780   141471328.188          50.000    26921113.200   105644164.496          50.000  
E12  23952321.100   125870296.727          50.000    23952324.080    93994046.645          50.000  
E19  27518707.820   144611724.730          50.000    27518713.840   107989255.461          50.000  
E24  24652946.380   129551915.336          50.000    24652964.220    96743281.438          50.000  
E26  24983245.620   131287800.844          50.000    24983252.840    98039582.660          50.000  
E31  24746975.840   130046189.387          50.000    24746982.380    97112402.766          50.000  
E33  23856720.100   125367909.102          50.000    23856724.140    93618890.719          50.000  
> 2020  9  4 17 11 56.0000000  0 16       0.000000000000
G 2  24898405.240   130842002.789          50.000                                                  
G 5  21940768.980   115299436.105          50.000                                                  
G12  23815516.100   125151371.238          50.000                                                  
G15  24110255.260   126700043.266          50.000                                                  
G20  23589843.360   123965452.027          50.000                                                  
G25  21737633.140   114231967.266          50.000    21737635.380    85303082.168          50.000  
G26  23420086.140   123073297.746          50.000    23420087.280    91905368.973          50.000  
G29  20460420.040   107520231.426          50.000                                                  
E 1  26797578.320   140822176.125          50.000    26797584.480   105159403.727          50.000  
E 7  26921129.860   141471454.773          50.000    26921137.280   105644259.023          50.000  
E12  23952042.240   125868831.301          50.000    23952045.200    93992952.332          50.000  
E19  27518166.820   144608881.777          50.000    27518172.860   107987132.480          50.000  
E24  24652706.200   129550653.254          50.000    24652724.040    96742338.973          50.000  
E26  24983563.460   131289471.199          50.000    24983570.700    98040830.000          50.000  
E31  24747225.500   130047501.352          50.000    24747232.040    97113382.480          50.000  
E33  23856752.840   125368081.227          50.000    23856756.880    93619019.250          50.000  
> 2020  9  4 17 11 57.0000000  0 16       0.000000000000
G 2  24898856.360   130844373.441          50.000                                                  
G 5  21941225.280   115301834.039          50.000                                                  
G12  23816236.800   125155158.523          50.000                                                  
G15  24109681.020   126697025.629          50.000                                                  
G20  23589180.000   123961966.152          50.000                                                  
G25  21738169.360   114234785.109          50.000    21738171.600    85305186.371          50.000  
G26  23419633.220   123070917.570          50.000    23419634.340    91903591.570          50.000  
G29  20460324.160   107519727.613          50.000                                                  
E 1  26798158.880   140825226.953          50.000    26798165.040   105161681.938          50.000  
E 7  26921154.040   141471581.820          50.000    26921161.460   105644353.895          50.000  
E12  23951763.380   125867365.953          50.000    23951766.360    93991858.082          50.000  
E19  27517625.800   144606038.723          50.000    27517631.840   107985009.422          50.000  
E24  24652466.120   129549391.609          50.000    24652483.960    96741396.836          50.000  
E26  24983881.320   131291141.566          50.000    24983888.560    98042077.355          50.000  
E31  24747475.240   130048813.727          50.000    24747481.760    97114362.500          50.000  
E33  23856785.620   125368253.441          50.000    23856789.660    93619147.855          50.000  
> 2020  9  4 17 11 58.0000000  0 16       0.000000000000
G 2  24899307.480   130846744.086          50.000                                                  
G 5  21941681.680   115304232.422          50.000                                                  
G12  23816957.520   125158945.922          50.000                                                  
G15  24109106.800   126694008.066          50.000                                                  
G20  23588516.700   123958480.438          50.000                                                  
G25  21738705.680   114237603.469          50.000    21738707.920    85307290.992          50.000  
G26  23419180.360   123068537.840          50.000    23419181.500    91901814.500          50.000  
G29  20460228.340   107519224.109          50.000                                                  
E 1  26798739.440   140828277.852          50.000    26798745.600   105163960.207          50.000  
E 7  26921178.300   141471709.305          50.000    26921185.720   105644449.098          50.000  
E12  23951484.560   125865900.703          50.000    23951487.520    93990763.902          50.000  
E19  27517084.760   144603195.637          50.000    27517090.800   107982886.336          50.000  
E24  24652226.120   129548130.398          50.000    24652243.960    96740455.023          50.000  
E26  24984199.200   131292811.961          50.000    24984206.420    98043324.723          50.000  
E31  24747725.060   130050126.551          50.000    24747731.580    97115342.855          50.000  
E33  23856818.400   125368425.766          50.000    23856822.440    93619276.539          50.000  
> 2020  9  4 17 11 59.0000000  0 16       0.000000000000
G 2  24899758.600   130849114.691          50.000                                                  
G 5  21942138.180   115306631.320          50.000                                                  
G12  23817678.260   125162733.441          50.000                                                  
G15  24108532.580   126690990.559          50.000                                                  
G20  23587853.420   123954994.895          50.000                                                  
G25  21739242.080   114240422.230          50.000    21739244.320    85309395.914          50.000  
G26  23418727.600   123066158.563          50.000    23418728.740    91900037.766          50.000  
G29  20460132.600   107518720.965          50.000                                                  
E 1  26799320.020   140831328.844          50.000    26799326.200   105166238.543          50.000  
E 7  26921202.640   141471837.266          50.000    26921210.060   105644544.652          50.000  
E12  23951205.740   125864435.512          50.000    23951208.720    93989669.766          50.000  
E19  27516543.720   144600352.453          50.000    27516549.760   107980763.184          50.000  
E24  24651986.200   129546869.621          50.000    24652004.040    96739513.535          50.000  
E26  24984517.060   131294482.375          50.000    24984524.280    98044572.109          50.000  
E31  24747974.960   130051439.801          50.000    24747981.480    97116323.527          50.000  
E33  23856851.220   125368598.188          50.000    23856855.260    93619405.297          50.000  
> 2020  9  4 17 12  0.0000000  0 16       0.000000000000
G 2  24900209.700   130851485.266          50.000                                                  
G 5  21942594.760   115309030.684          50.000                                                  
G12  23818399.020   125166521.074          50.000                                                  
G15  24107958.380   126687973.105          50.000                                                  
G20  23587190.160   123951509.512          50.000                                                  
G25  21739778.540   114243241.406          50.000    21739780.780    85311501.141          50.000  
G26  23418274.920   123063779.730          50.000    23418276.060    91898261.367          50.000  
G29  20460036.920   107518218.168          50.000                                                  
E 1  26799900.620   140834379.895          50.000    26799906.780   105168516.922          50.000  
E 7  26921227.060   141471965.656          50.000    26921234.500   105644640.527          50.000  
E12  23950926.940   125862970.414          50.000    23950929.900    93988575.699          50.000  
E19  27516002.680   144597509.230          50.000    27516008.720   107978639.996          50.000  
E24  24651746.360   129545609.270          50.000    24651764.200    96738572.363          50.000  
E26  24984834.920   131296152.805          50.000    24984842.160    98045819.508          50.000  
E31  24748224.940   130052753.473          50.000    24748231.480    97117304.516          50.000  
E33  23856884.040   125368770.703          50.000    23856888.080    93619534.121          50.000  
> 2020  9  4 17 12  1.0000000  0 16       0.000000000000
G 2  24900660.800   130853855.793          50.000                                                  
G 5  21943051.440   115311430.539          50.000                                                  
G12  23819119.800   125170308.813          50.000                                                  
G15  24107384.180   126684955.715          50.000                                                  
G20  23586526.960   123948024.297          50.000                                                  
G25  21740315.080   114246060.984          50.000    21740317.320    85313606.668          50.000  
G26  23417822.320   123061401.359          50.000    23417823.460    91896485.313          50.000  
G29  20459941.300   107517715.738          50.000                                                  
E 1  26800481.220   140837431.020          50.000    26800487.400   105170795.359          50.000  
E 7  26921251.580   141472094.512          50.000    26921259.020   105644736.750          50.000  
E12  23950648.160   125861505.391          50.000    23950651.120    93987481.691          50.000  
E19  27515461.600   144594665.902          50.000    27515467.640   107976516.734          50.000  
E24  24651506.600   129544349.359          50.000    24651524.440    96737631.520          50.000  
E26  24985152.800   131297823.250          50.000    24985160.020    98047066.918          50.000  
E31  24748475.000   130054067.582          50.000    24748481.540    97118285.832          50.000  
E33  23856916.900   125368943.316          50.000    23856920.920    93619663.020          50.000  
> 2020  9  4 17 12  2.0000000  0 16       0.000000000000
G 2  24901111.880   130856226.277          50.000                                                  
G 5  21943508.200   115313830.871          50.000                                                  
G12  23819840.600   125174096.641          50.000                                                  
G15  24106810.000   126681938.383          50.000                                                  
G20  23585863.760   123944539.246          50.000                                                  
G25  21740851.720   114248880.961          50.000    21740853.960    85315712.492          50.000  
G26  23417369.820   123059023.430          50.000    23417370.960    91894709.586          50.000  
G29  20459845.760   107517213.660          50.000                                                  
E 1  26801061.840   140840482.211          50.000    26801068.020   105173073.848          50.000  
E 7  26921276.200   141472223.813          50.000    26921283.620   105644833.309          50.000  
E12  23950369.380   125860040.453          50.000    23950372.360    93986387.746          50.000  
E19  27514920.520   144591822.520          50.000    27514926.560   107974393.430          50.000  
E24  24651266.940   129543089.875          50.000    24651284.760    96736690.996          50.000  
E26  24985470.680   131299493.707          50.000    24985477.900    98048314.336          50.000  
E31  24748725.160   130055382.113          50.000    24748731.680    97119267.461          50.000  
E33  23856949.760   125369116.027          50.000    23856953.780    93619791.992          50.000  
> 2020  9  4 17 12  3.0000000  0 16       0.000000000000
G 2  24901562.960   130858596.727          50.000                                                  
G 5  21943965.060   115316231.695          50.000                                                  
G12  23820561.420   125177884.586          50.000                                                  
G15  24106235.840   126678921.117          50.000                                                  
G20  23585200.600   123941054.359          50.000                                                  
G25  21741388.420   114251701.344          50.000    21741390.660    85317818.625          50.000  
G26  23416917.400   123056645.953          50.000    23416918.540    91892934.199          50.000  
G29  20459750.280   107516711.949          50.000                                                  
E 1  26801642.480   140843533.484          50.000    26801648.660   105175352.395          50.000  
E 7  26921300.880   141472353.574          50.000    26921308.300   105644930.207          50.000  
E12  23950090.620   125858575.590          50.000    23950093.600    93985293.852          50.000  
E19  27514379.440   144588979.074          50.000    27514385.460   107972270.082          50.000  
E24  24651027.340   129541830.820          50.000    24651045.180    96735750.797          50.000  
E26  24985788.560   131301164.188          50.000    24985795.780    98049561.773          50.000  
E31  24748975.380   130056697.086          50.000    24748981.920    97120249.422          50.000  
E33  23856982.640   125369288.840          50.000    23856986.680    93619921.043          50.000  
> 2020  9  4 17 12  4.0000000  0 16       0.000000000000
G 2  24902014.040   130860967.141          50.000                                                  
G 5  21944422.020   115318633.008          50.000                                                  
G12  23821282.260   125181672.645          50.000                                                  
G15  24105661.680   126675903.891          50.000                                                  
G20  23584537.480   123937569.637          50.000                                                  
G25  21741925.180   114254522.137          50.000    21741927.420    85319925.059          50.000  
G26  23416465.060   123054268.926          50.000    23416466.200    91891159.145          50.000  
G29  20459654.880   107516210.598          50.000                                                  
E 1  26802223.140   140846584.836          50.000    26802229.300   105177631.000          50.000  
E 7  26921325.660   141472483.789          50.000    26921333.080   105645027.445          50.000  
E12  23949811.880   125857110.813          50.000    23949814.860    93984200.027          50.000  
E19  27513838.320   144586135.555          50.000    27513844.360   107970146.672          50.000  
E24  24650787.840   129540572.211          50.000    24650805.660    96734810.926          50.000  
E26  24986106.440   131302834.695          50.000    24986113.680    98050809.230          50.000  
E31  24749225.700   130058012.496          50.000    24749232.220    97121231.707          50.000  
E33  23857015.540   125369461.750          50.000    23857019.580    93620050.164          50.000  
> 2020  9  4 17 12  5.0000000  0 16       0.000000000000
G 2  24902465.100   130863337.512          50.000                                                  
G 5  21944879.060   115321034.801          50.000                                                  
G12  23822003.120   125185460.809          50.000                                                  
G15  24105087.520   126672886.746          50.000                                                  
G20  23583874.400   123934085.090          50.000                                                  
G25  21742462.040   114257343.336          50.000    21742464.280    85322031.797          50.000  
G26  23416012.820   123051892.355          50.000    23416013.940    91889384.438          50.000  
G29  20459559.540   107515709.598          50.000                                                  
E 1  26802803.800   140849636.262          50.000    26802809.980   105179909.664          50.000  
E 7  26921350.520   141472614.453          50.000    26921357.940   105645125.020          50.000  
E12  23949533.160   125855646.109          50.000    23949536.120    93983106.254          50.000  
E19  27513297.220   144583291.996          50.000    27513303.240   107968023.238          50.000  
E24  24650548.400   129539314.035          50.000    24650566.240    96733871.379          50.000  
E26  24986424.340   131304505.219          50.000    24986431.560    98052056.699          50.000  
E31  24749476.080   130059328.320          50.000    24749482.620    97122214.305          50.000  
E33  23857048.460   125369634.762          50.000    23857052.500    93620179.359          50.000  
> 2020  9  4 17 12  6.0000000  0 16       0.000000000000
G 2  24902916.160   130865707.848          50.000                                                  
G 5  21945336.200   115323437.078          50.000                                                  
G12  23822724.000   125189249.070          50.000                                                  
G15  24104513.380   126669869.641          50.000                                                  
G20  23583211.340   123930600.703          50.000                                                  
G25  21742998.980   114260164.938          50.000    21743001.220    85324138.836          50.000  
G26  23415560.660   123049516.223          50.000    23415561.780    91887610.051          50.000  
G29  20459464.260   107515208.949          50.000                                                  
E 1  26803384.480   140852687.758          50.000    26803390.640   105182188.375          50.000  
E 7  26921375.460   141472745.574          50.000    26921382.900   105645222.934          50.000  
E12  23949254.440   125854181.504          50.000    23949257.420    93982012.555          50.000  
E19  27512756.080   144580448.332          50.000    27512762.120   107965899.727          50.000  
E24  24650309.060   129538056.285          50.000    24650326.900    96732932.148          50.000  
E26  24986742.220   131306175.754          50.000    24986749.460    98053304.176          50.000  
E31  24749726.560   130060644.590          50.000    24749733.100    97123197.234          50.000  
E33  23857081.400   125369807.875          50.000    23857085.440    93620308.633          50.000  
> 2020  9  4 17 12  7.0000000  0 16       0.000000000000
G 2  24903367.220   130868078.148          50.000                                                  
G 5  21945793.420   115325839.848          50.000                                                  
G12  23823444.900   125193037.441          50.000                                                  
G15  24103939.260   126666852.605          50.000                                                  
G20  23582548.300   123927116.477          50.000                                                  
G25  21743535.980   114262986.938          50.000    21743538.220    85326246.172          50.000  
G26  23415108.580   123047140.555          50.000    23415109.700    91885836.012          50.000  
G29  20459369.060   107514708.660          50.000                                                  
E 1  26803965.180   140855739.313          50.000    26803971.340   105184467.129          50.000  
E 7  26921400.500   141472877.152          50.000    26921407.940   105645321.191          50.000  
E12  23948975.760   125852716.941          50.000    23948978.720    93980918.891          50.000  
E19  27512214.940   144577604.605          50.000    27512220.960   107963776.164          50.000  
E24  24650069.800   129536798.977          50.000    24650087.640    96731993.250          50.000  
E26  24987060.120   131307846.309          50.000    24987067.340    98054551.664          50.000  
E31  24749977.120   130061961.266          50.000    24749983.640    97124180.461          50.000  
E33  23857114.360   125369981.078          50.000    23857118.400    93620437.973          50.000  
> 2020  9  4 17 12  8.0000000  0 16       0.000000000000
G 2  24903818.260   130870448.398          50.000                                                  
G 5  21946250.760   115328243.121          50.000                                                  
G12  23824165.820   125196825.918          50.000                                                  
G15  24103365.140   126663835.625          50.000                                                  
G20  23581885.320   123923632.418          50.000                                                  
G25  21744073.060   114265809.348          50.000    21744075.300    85328353.820          50.000  
G26  23414656.580   123044765.332          50.000    23414657.720    91884062.313          50.000  
G29  20459273.920   107514208.723          50.000                                                  
E 1  26804545.880   140858790.945          50.000    26804552.040   105186745.945          50.000  
E 7  26921425.620   141473009.176          50.000    26921433.060   105645419.781          50.000  
E12  23948697.080   125851252.496          50.000    23948700.040    93979825.309          50.000  
E19  27511673.780   144574760.832          50.000    27511679.820   107961652.566          50.000  
E24  24649830.620   129535542.086          50.000    24649848.460    96731054.664          50.000  
E26  24987378.020   131309516.875          50.000    24987385.240    98055799.168          50.000  
E31  24750227.760   130063278.402          50.000    24750234.280    97125164.039          50.000  
E33  23857147.340   125370154.379          50.000    23857151.360    93620567.387          50.000  
> 2020  9  4 17 12  9.0000000  0 16       0.000000000000
G 2  24904269.300   130872818.609          50.000                                                  
G 5  21946708.180   115330646.859          50.000                                                  
G12  23824886.760   125200614.484          50.000                                                  
G15  24102791.040   126660818.699          50.000                                                  
G20  23581222.340   123920148.516          50.000                                                  
G25  21744610.240   114268632.156          50.000    21744612.480    85330461.766          50.000  
G26  23414204.680   123042390.551          50.000    23414205.800    91882288.941          50.000  
G29  20459178.860   107513709.141          50.000                                                  
E 1  26805126.600   140861842.652          50.000    26805132.760   105189024.816          50.000  
E 7  26921450.840   141473141.652          50.000    26921458.260   105645518.707          50.000  
E12  23948418.400   125849788.109          50.000    23948421.380    93978731.777          50.000  
E19  27511132.600   144571916.965          50.000    27511138.640   107959528.902          50.000  
E24  24649591.520   129534285.645          50.000    24649609.360    96730116.410          50.000  
E26  24987695.920   131311187.473          50.000    24987703.140    98057046.691          50.000  
E31  24750478.480   130064595.949          50.000    24750485.000    97126147.922          50.000  
E33  23857180.320   125370327.777          50.000    23857184.360    93620696.871          50.000  
> 2020  9  4 17 12 10.0000000  0 16       0.000000000000
G 2  24904720.320   130875188.789          50.000                                                  
G 5  21947165.680   115333051.078          50.000                                                  
G12  23825607.740   125204403.168          50.000                                                  
G15  24102216.960   126657801.844          50.000                                                  
G20  23580559.420   123916664.781          50.000                                                  
G25  21745147.460   114271455.363          50.000    21745149.700    85332570.008          50.000  
G26  23413752.860   123040016.223          50.000    23413753.980    91880515.910          50.000  
G29  20459083.860   107513209.922          50.000                                                  
E 1  26805707.340   140864894.438          50.000    26805713.500   105191303.750          50.000  
E 7  26921476.140   141473274.590          50.000    26921483.560   105645617.980          50.000  
E12  23948139.760   125848323.805          50.000    23948142.720    93977638.305          50.000  
E19  27510591.420   144569073.051          50.000    27510597.460   107957405.203          50.000  
E24  24649352.520   129533029.621          50.000    24649370.340    96729178.473          50.000  
E26  24988013.820   131312858.082          50.000    24988021.040    98058294.223          50.000  
E31  24750729.280   130065913.930          50.000    24750735.800    97127132.129          50.000  
E33  23857213.340   125370501.277          50.000    23857217.380    93620826.438          50.000  
> 2020  9  4 17 12 11.0000000  0 16       0.000000000000
G 2  24905171.340   130877558.930          50.000                                                  
G 5  21947623.280   115335455.766          50.000                                                  
G12  23826328.720   125208191.961          50.000                                                  
G15  24101642.880   126654785.051          50.000                                                  
G20  23579896.500   123913181.211          50.000                                                  
G25  21745684.780   114274278.996          50.000    21745687.020    85334678.566          50.000  
G26  23413301.120   123037642.359          50.000    23413302.260    91878743.223          50.000  
G29  20458988.920   107512711.059          50.000                                                  
E 1  26806288.080   140867946.297          50.000    26806294.240   105193582.738          50.000  
E 7  26921501.520   141473407.973          50.000    26921508.940   105645717.590          50.000  
E12  23947861.120   125846859.586          50.000    23947864.100    93976544.898          50.000  
E19  27510050.240   144566229.082          50.000    27510056.260   107955281.469          50.000  
E24  24649113.580   129531774.043          50.000    24649131.420    96728240.871          50.000  
E26  24988331.740   131314528.707          50.000    24988338.960    98059541.773          50.000  
E31  24750980.160   130067232.336          50.000    24750986.680    97128116.656          50.000  
E33  23857246.380   125370674.875          50.000    23857250.420    93620956.074          50.000  
> 2020  9  4 17 12 12.0000000  0 16       0.000000000000
G 2  24905622.360   130879929.039          50.000                                                  
G 5  21948080.960   115337860.945          50.000                                                  
G12  23827049.720   125211980.852          50.000                                                  
G15  24101068.800   126651768.293          50.000                                                  
G20  23579233.640   123909697.820          50.000                                                  
G25  21746222.180   114277103.020          50.000    21746224.420    85336787.418          50.000  
G26  23412849.480   123035268.938          50.000    23412850.600    91876970.867          50.000  
G29  20458894.060   107512212.535          50.000                                                  
E 1  26806868.840   140870998.215          50.000    26806875.020   105195861.770          50.000  
E 7  26921526.980   141473541.809          50.000    26921534.400   105645817.535          50.000  
E12  23947582.520   125845395.453          50.000    23947585.480    93975451.559          50.000  
E19  27509509.020   144563385.020          50.000    27509515.060   107953157.660          50.000  
E24  24648874.740   129530518.883          50.000    24648892.560    96727303.582          50.000  
E26  24988649.640   131316199.352          50.000    24988656.880    98060789.336          50.000  
E31  24751231.140   130068551.184          50.000    24751237.660    97129101.516          50.000  
E33  23857279.440   125370848.570          50.000    23857283.460    93621085.785          50.000  
> 2020  9  4 17 12 13.0000000  0 16       0.000000000000
G 2  24906073.380   130882299.094          50.000                                                  
G 5  21948538.740   115340266.605          50.000                                                  
G12  23827770.740   125215769.855          50.000                                                  
G15  24100494.760   126648751.625          50.000                                                  
G20  23578570.800   123906214.582          50.000                                                  
G25  21746759.660   114279927.445          50.000    21746761.900    85338896.574          50.000  
G26  23412397.920   123032895.965          50.000    23412399.040    91875198.848          50.000  
G29  20458799.260   107511714.387          50.000                                                  
E 1  26807449.620   140874050.211          50.000    26807455.780   105198140.863          50.000  
E 7  26921552.540   141473676.098          50.000    26921559.960   105645917.820          50.000  
E12  23947303.900   125843931.379          50.000    23947306.880    93974358.258          50.000  
E19  27508967.800   144560540.906          50.000    27508973.840   107951033.813          50.000  
E24  24648635.960   129529264.168          50.000    24648653.800    96726366.621          50.000  
E26  24988967.560   131317870.012          50.000    24988974.780    98062036.910          50.000  
E31  24751482.180   130069870.449          50.000    24751488.700    97130086.684          50.000  
E33  23857312.500   125371022.359          50.000    23857316.540    93621215.566          50.000  
> 2020  9  4 17 12 14.0000000  0 16       0.000000000000
G 2  24906524.380   130884669.121          50.000                                                  
G 5  21948996.620   115342672.742          50.000                                                  
G12  23828491.780   125219558.961          50.000                                                  
G15  24099920.700   126645734.984          50.000                                                  
G20  23577908.000   123902731.512          50.000                                                  
G25  21747297.200   114282752.270          50.000    21747299.440    85341006.020          50.000  
G26  23411946.440   123030523.441          50.000    23411947.560    91873427.160          50.000  
G29  20458704.540   107511216.590          50.000                                                  
E 1  26808030.400   140877102.270          50.000    26808036.580   105200420.000          50.000  
E 7  26921578.180   141473810.836          50.000    26921585.600   105646018.441          50.000  
E12  23947025.320   125842467.395          50.000    23947028.280    93973265.027          50.000  
E19  27508426.560   144557696.684          50.000    27508432.600   107948909.887          50.000  
E24  24648397.280   129528009.879          50.000    24648415.120    96725429.980          50.000  
E26  24989285.480   131319540.688          50.000    24989292.700    98063284.492          50.000  
E31  24751733.320   130071190.148          50.000    24751739.840    97131072.176          50.000  
E33  23857345.600   125371196.246          50.000    23857349.620    93621345.422          50.000  
> 2020  9  4 17 12 15.0000000  0 16       0.000000000000
G 2  24906975.360   130887039.109          50.000                                                  
G 5  21949454.580   115345079.359          50.000                                                  
G12  23829212.860   125223348.172          50.000                                                  
G15  24099346.660   126642718.430          50.000                                                  
G20  23577245.220   123899248.594          50.000                                                  
G25  21747834.820   114285577.523          50.000    21747837.060    85343115.793          50.000  
G26  23411495.040   123028151.375          50.000    23411496.180    91871655.816          50.000  
G29  20458609.880   107510719.152          50.000                                                  
E 1  26808611.220   140880154.422          50.000    26808617.380   105202699.207          50.000  
E 7  26921603.900   141473946.035          50.000    26921611.320   105646119.406          50.000  
E12  23946746.740   125841003.500          50.000    23946749.720    93972171.867          50.000  
E19  27507885.320   144554852.434          50.000    27507891.360   107946785.941          50.000  
E24  24648158.680   129526756.031          50.000    24648176.520    96724493.672          50.000  
E26  24989603.400   131321211.383          50.000    24989610.620    98064532.098          50.000  
E31  24751984.520   130072510.277          50.000    24751991.040    97132057.988          50.000  
E33  23857378.700   125371370.227          50.000    23857382.720    93621475.344          50.000  
> 2020  9  4 17 12 16.0000000  0 16       0.000000000000
G 2  24907426.360   130889409.055          50.000                                                  
G 5  21949912.640   115347486.473          50.000                                                  
G12  23829933.940   125227137.492          50.000                                                  
G15  24098772.640   126639701.922          50.000                                                  
G20  23576582.480   123895765.848          50.000                                                  
G25  21748372.520   114288403.160          50.000    21748374.760    85345225.848          50.000  
G26  23411043.740   123025779.758          50.000    23411044.860    91869884.809          50.000  
G29  20458515.280   107510222.078          50.000                                                  
E 1  26809192.040   140883206.637          50.000    26809198.200   105204978.461          50.000  
E 7  26921629.720   141474081.684          50.000    26921637.140   105646220.703          50.000  
E12  23946468.200   125839539.676          50.000    23946471.160    93971078.754          50.000  
E19  27507344.060   144552008.113          50.000    27507350.100   107944661.938          50.000  
E24  24647920.160   129525502.613          50.000    24647938.000    96723557.684          50.000  
E26  24989921.340   131322882.094          50.000    24989928.560    98065779.707          50.000  
E31  24752235.820   130073830.836          50.000    24752242.340    97133044.125          50.000  
E33  23857411.820   125371544.316          50.000    23857415.860    93621605.352          50.000  
> 2020  9  4 17 12 17.0000000  0 16       0.000000000000
G 2  24907877.340   130891778.969          50.000                                                  
G 5  21950370.800   115349894.055          50.000                                                  
G12  23830655.040   125230926.922          50.000                                                  
G15  24098198.640   126636685.477          50.000                                                  
G20  23575919.760   123892283.285          50.000                                                  
G25  21748910.300   114291229.207          50.000    21748912.540    85347336.215          50.000  
G26  23410592.520   123023408.594          50.000    23410593.640    91868114.141          50.000  
G29  20458420.760   107509725.355          50.000                                                  
E 1  26809772.860   140886258.918          50.000    26809779.020   105207257.762          50.000  
E 7  26921655.620   141474217.785          50.000    26921663.040   105646322.344          50.000  
E12  23946189.640   125838075.926          50.000    23946192.600    93969985.699          50.000  
E19  27506802.800   144549163.711          50.000    27506808.820   107942537.879          50.000  
E24  24647681.740   129524249.617          50.000    24647699.560    96722622.008          50.000  
E26  24990239.260   131324552.820          50.000    24990246.480    98067027.332          50.000  
E31  24752487.200   130075151.824          50.000    24752493.720    97134030.582          50.000  
E33  23857444.980   125371718.496          50.000    23857449.000    93621735.426          50.000  
> 2020  9  4 17 12 18.0000000  0 16       0.000000000000
G 2  24908328.300   130894148.840          50.000                                                  
G 5  21950829.040   115352302.145          50.000                                                  
G12  23831376.160   125234716.438          50.000                                                  
G15  24097624.640   126633669.090          50.000                                                  
G20  23575257.080   123888800.871          50.000                                                  
G25  21749448.160   114294055.664          50.000    21749450.400    85349446.883          50.000  
G26  23410141.400   123021037.879          50.000    23410142.520    91866343.805          50.000  
G29  20458326.300   107509228.984          50.000                                                  
E 1  26810353.700   140889311.273          50.000    26810359.860   105209537.125          50.000  
E 7  26921681.600   141474354.352          50.000    26921689.020   105646424.328          50.000  
E12  23945911.120   125836612.262          50.000    23945914.080    93968892.707          50.000  
E19  27506261.520   144546319.266          50.000    27506267.540   107940413.781          50.000  
E24  24647443.380   129522997.070          50.000    24647461.200    96721686.672          50.000  
E26  24990557.200   131326223.578          50.000    24990564.420    98068274.980          50.000  
E31  24752738.660   130076473.246          50.000    24752745.180    97135017.363          50.000  
E33  23857478.140   125371892.773          50.000    23857482.160    93621865.570          50.000  
> 2020  9  4 17 12 19.0000000  0 16       0.000000000000
G 2  24908779.280   130896518.676          50.000                                                  
G 5  21951287.380   115354710.707          50.000                                                  
G12  23832097.320   125238506.086          50.000                                                  
G15  24097050.640   126630652.766          50.000                                                  
G20  23574594.420   123885318.633          50.000                                                  
G25  21749986.100   114296882.516          50.000    21749988.340    85351557.844          50.000  
G26  23409690.340   123018667.617          50.000    23409691.460    91864573.809          50.000  
G29  20458231.920   107508732.980          50.000                                                  
E 1  26810934.560   140892363.703          50.000    26810940.720   105211816.539          50.000  
E 7  26921707.680   141474491.352          50.000    26921715.080   105646526.641          50.000  
E12  23945632.620   125835148.680          50.000    23945635.580    93967799.777          50.000  
E19  27505720.220   144543474.730          50.000    27505726.240   107938289.621          50.000  
E24  24647205.100   129521744.957          50.000    24647222.940    96720751.652          50.000  
E26  24990875.140   131327894.348          50.000    24990882.360    98069522.633          50.000  
E31  24752990.200   130077795.105          50.000    24752996.720    97136004.465          50.000  
E33  23857511.320   125372067.156          50.000    23857515.340    93621995.797          50.000  
> 2020  9  4 17 12 20.0000000  0 16       0.000000000000
G 2  24909230.240   130898888.473          50.000                                                  
G 5  21951745.800   115357119.754          50.000                                                  
G12  23832818.480   125242295.824          50.000                                                  
G15  24096476.680   126627636.512          50.000                                                  
G20  23573931.820   123881836.555          50.000                                                  
G25  21750524.100   114299709.770          50.000    21750526.340    85353669.109          50.000  
G26  23409239.380   123016297.805          50.000    23409240.500    91862804.148          50.000  
G29  20458137.600   107508237.340          50.000                                                  
E 1  26811515.440   140895416.207          50.000    26811521.600   105214096.008          50.000  
E 7  26921733.840   141474628.816          50.000    26921741.240   105646629.293          50.000  
E12  23945354.120   125833685.172          50.000    23945357.080    93966706.902          50.000  
E19  27505178.900   144540630.102          50.000    27505184.920   107936165.395          50.000  
E24  24646966.920   129520493.266          50.000    24646984.740    96719816.953          50.000  
E26  24991193.080   131329565.133          50.000    24991200.300    98070770.305          50.000  
E31  24753241.820   130079117.379          50.000    24753248.340    97136991.883          50.000  
E33  23857544.520   125372241.637          50.000    23857548.540    93622126.094          50.000  
> 2020  9  4 17 12 21.0000000  0 16       0.000000000000
G 2  24909681.180   130901258.227          50.000                                                  
G 5  21952204.320   115359529.273          50.000                                                  
G12  23833539.660   125246085.672          50.000                                                  
G15  24095902.700   126624620.313          50.000                                                  
G20  23573269.220   123878354.648          50.000                                                  
G25  21751062.200   114302537.434          50.000    21751064.420    85355780.680          50.000  
G26  23408788.520   123013928.441          50.000    23408789.620    91861034.824          50.000  
G29  20458043.360   107507742.043          50.000                                                  
E 1  26812096.320   140898468.789          50.000    26812102.480   105216375.535          50.000  
E 7  26921760.080   141474766.727          50.000    26921767.480   105646732.285          50.000  
E12  23945075.640   125832221.754          50.000    23945078.600    93965614.094          50.000  
E19  27504637.580   144537785.465          50.000    27504643.600   107934041.156          50.000  
E24  24646728.820   129519242.012          50.000    24646746.640    96718882.582          50.000  
E26  24991511.020   131331235.941          50.000    24991518.240    98072017.988          50.000  
E31  24753493.520   130080440.102          50.000    24753500.040    97137979.633          50.000  
E33  23857577.740   125372416.203          50.000    23857581.760    93622256.457          50.000  
> 2020  9  4 17 12 22.0000000  0 16       0.000000000000
G 2  24910132.120   130903627.945          50.000                                                  
G 5  21952662.920   115361939.285          50.000                                                  
G12  23834260.860   125249875.625          50.000                                                  
G15  24095328.760   126621604.168          50.000                                                  
G20  23572606.680   123874872.910          50.000                                                  
G25  21751600.360   114305365.496          50.000    21751602.580    85357892.547          50.000  
G26  23408337.720   123011559.539          50.000    23408338.840    91859265.844          50.000  
G29  20457949.180   107507247.121          50.000                                                  
E 1  26812677.220   140901521.430          50.000    26812683.380   105218655.109          50.000  
E 7  26921786.400   141474905.098          50.000    26921793.820   105646835.617          50.000  
E12  23944797.160   125830758.402          50.000    23944800.120    93964521.336          50.000  
E19  27504096.240   144534940.727          50.000    27504102.260   107931916.844          50.000  
E24  24646490.800   129517991.203          50.000    24646508.620    96717948.539          50.000  
E26  24991828.960   131332906.762          50.000    24991836.180    98073265.684          50.000  
E31  24753745.300   130081763.238          50.000    24753751.820    97138967.695          50.000  
E33  23857610.980   125372590.887          50.000    23857615.000    93622386.906          50.000  
> 2020  9  4 17 12 23.0000000  0 16       0.000000000000
G 2  24910583.060   130905997.625          50.000                                                  
G 5  21953121.620   115364349.773          50.000                                                  
G12  23834982.100   125253665.684          50.000                                                  
G15  24094754.820   126618588.090          50.000                                                  
G20  23571944.140   123871391.340          50.000                                                  
G25  21752138.600   114308193.973          50.000    21752140.820    85360004.727          50.000  
G26  23407887.020   123009191.090          50.000    23407888.140    91857497.199          50.000  
G29  20457855.060   107506752.551          50.000                                                  
E 1  26813258.140   140904574.164          50.000    26813264.300   105220934.750          50.000  
E 7  26921812.820   141475043.930          50.000    26921820.240   105646939.293          50.000  
E12  23944518.720   125829295.156          50.000    23944521.680    93963428.660          50.000  
E19  27503554.900   144532095.945          50.000    27503560.920   107929792.500          50.000  
E24  24646252.860   129516740.816          50.000    24646270.680    96717014.813          50.000  
E26  24992146.920   131334577.609          50.000    24992154.140    98074513.395          50.000  
E31  24753997.180   130083086.813          50.000    24754003.680    97139956.082          50.000  
E33  23857644.240   125372765.660          50.000    23857648.260    93622517.422          50.000  
> 2020  9  4 17 12 24.0000000  0 16       0.000000000000
G 2  24911034.000   130908367.258          50.000                                                  
G 5  21953580.420   115366760.742          50.000                                                  
G12  23835703.340   125257455.836          50.000                                                  
G15  24094180.880   126615572.070          50.000                                                  
G20  23571281.660   123867909.926          50.000                                                  
G25  21752676.920   114311022.836          50.000    21752679.140    85362117.191          50.000  
G26  23407436.400   123006823.090          50.000    23407437.520    91855728.895          50.000  
G29  20457761.020   107506258.336          50.000                                                  
E 1  26813839.060   140907626.957          50.000    26813845.220   105223214.434          50.000  
E 7  26921839.320   141475183.199          50.000    26921846.740   105647043.297          50.000  
E12  23944240.280   125827831.973          50.000    23944243.240    93962336.023          50.000  
E19  27503013.540   144529251.082          50.000    27503019.560   107927668.094          50.000  
E24  24646015.000   129515490.875          50.000    24646032.820    96716081.418          50.000  
E26  24992464.880   131336248.473          50.000    24992472.080    98075761.121          50.000  
E31  24754249.120   130084410.820          50.000    24754255.640    97140944.789          50.000  
E33  23857677.520   125372940.527          50.000    23857681.540    93622648.008          50.000  
> 2020  9  4 17 12 25.0000000  0 16       0.000000000000
G 2  24911484.920   130910736.852          50.000                                                  
G 5  21954039.300   115369172.195          50.000                                                  
G12  23836424.600   125261246.109          50.000                                                  
G15  24093606.960   126612556.109          50.000                                                  
G20  23570619.200   123864428.676          50.000                                                  
G25  21753215.300   114313852.113          50.000    21753217.540    85364229.969          50.000  
G26  23406985.880   123004455.531          50.000    23406986.980    91853960.918          50.000  
G29  20457667.040   107505764.484          50.000                                                  
E 1  26814420.000   140910679.813          50.000    26814426.160   105225494.172          50.000  
E 7  26921865.920   141475322.922          50.000    26921873.320   105647147.641          50.000  
E12  23943961.860   125826368.875          50.000    23943964.820    93961243.457          50.000  
E19  27502472.180   144526406.168          50.000    27502478.180   107925543.648          50.000  
E24  24645777.220   129514241.352          50.000    24645795.040    96715148.336          50.000  
E26  24992782.840   131337919.355          50.000    24992790.040    98077008.863          50.000  
E31  24754501.160   130085735.246          50.000    24754507.660    97141933.816          50.000  
E33  23857710.820   125373115.504          50.000    23857714.840    93622778.676          50.000  
> 2020  9  4 17 12 26.0000000  0 16       0.000000000000
G 2  24911935.820   130913106.422          50.000                                                  
G 5  21954498.280   115371584.133          50.000                                                  
G12  23837145.880   125265036.473          50.000                                                  
G15  24093033.060   126609540.215          50.000                                                  
G20  23569956.760   123860947.590          50.000                                                  
G25  21753753.780   114316681.785          50.000    21753756.000    85366343.039          50.000  
G26  23406535.440   123002088.449          50.000    23406536.540    91852193.293          50.000  
G29  20457573.120   107505270.980          50.000                                                  
E 1  26815000.960   140913732.738          50.000    26815007.120   105227773.953          50.000  
E 7  26921892.600   141475463.109          50.000    26921900.000   105647252.328          50.000  
E12  23943683.460   125824905.844          50.000    23943686.420    93960150.938          50.000  
E19  27501930.780   144523561.141          50.000    27501936.800   107923419.121          50.000  
E24  24645539.520   129512992.270          50.000    24645557.340    96714215.586          50.000  
E26  24993100.800   131339590.246          50.000    24993108.000    98078256.605          50.000  
E31  24754753.260   130087060.113          50.000    24754759.780    97142923.168          50.000  
E33  23857744.120   125373290.566          50.000    23857748.140    93622909.410          50.000  
> 2020  9  4 17 12 27.0000000  0 16       0.000000000000
G 2  24912386.740   130915475.953          50.000                                                  
G 5  21954957.340   115373996.555          50.000                                                  
G12  23837867.180   125268826.953          50.000                                                  
G15  24092459.160   126606524.371          50.000                                                  
G20  23569294.380   123857466.676          50.000                                                  
G25  21754292.320   114319511.867          50.000    21754294.540    85368456.414          50.000  
G26  23406085.080   122999721.801          50.000    23406086.180    91850425.996          50.000  
G29  20457479.280   107504777.844          50.000                                                  
E 1  26815581.940   140916785.762          50.000    26815588.100   105230053.813          50.000  
E 7  26921919.360   141475603.746          50.000    26921926.760   105647357.355          50.000  
E12  23943405.080   125823442.902          50.000    23943408.020    93959058.484          50.000  
E19  27501389.380   144520716.090          50.000    27501395.400   107921294.574          50.000  
E24  24645301.920   129511743.629          50.000    24645319.740    96713283.164          50.000  
E26  24993418.760   131341261.172          50.000    24993425.960    98079504.379          50.000  
E31  24755005.460   130088385.414          50.000    24755011.980    97143912.844          50.000  
E33  23857777.460   125373465.730          50.000    23857781.480    93623040.219          50.000  
> 2020  9  4 17 12 28.0000000  0 16       0.000000000000
G 2  24912837.640   130917845.430          50.000                                                  
G 5  21955416.500   115376409.449          50.000                                                  
G12  23838588.520   125272617.539          50.000                                                  
G15  24091885.280   126603508.609          50.000                                                  
G20  23568632.000   123853985.941          50.000                                                  
G25  21754830.940   114322342.348          50.000    21754833.180    85370570.086          50.000  
G26  23405634.800   122997355.613          50.000    23405635.920    91848659.043          50.000  
G29  20457385.520   107504285.063          50.000                                                  
E 1  26816162.920   140919838.840          50.000    26816169.080   105232333.711          50.000  
E 7  26921946.200   141475744.832          50.000    26921953.600   105647462.715          50.000  
E12  23943126.700   125821980.043          50.000    23943129.640    93957966.098          50.000  
E19  27500847.980   144517870.941          50.000    27500853.980   107919169.957          50.000  
E24  24645064.400   129510495.414          50.000    24645082.200    96712351.059          50.000  
E26  24993736.720   131342932.105          50.000    24993743.940    98080752.160          50.000  
E31  24755257.740   130089711.133          50.000    24755264.240    97144902.832          50.000  
E33  23857810.820   125373640.996          50.000    23857814.820    93623171.102          50.000  
> 2020  9  4 17 12 29.0000000  0 16       0.000000000000
G 2  24913288.520   130920214.883          50.000                                                  
G 5  21955875.760   115378822.832          50.000                                                  
G12  23839309.860   125276408.230          50.000                                                  
G15  24091311.400   126600492.902          50.000                                                  
G20  23567969.680   123850505.355          50.000                                                  
G25  21755369.640   114325173.246          50.000    21755371.880    85372684.074          50.000  
G26  23405184.620   122994989.875          50.000    23405185.720    91846892.422          50.000  
G29  20457291.800   107503792.641          50.000                                                  
E 1  26816743.920   140922891.992          50.000    26816750.060   105234613.664          50.000  
E 7  26921973.140   141475886.391          50.000    26921980.540   105647568.430          50.000  
E12  23942848.340   125820517.273          50.000    23942851.300    93956873.770          50.000  
E19  27500306.560   144515025.789          50.000    27500312.560   107917045.336          50.000  
E24  24644826.940   129509247.633          50.000    24644844.760    96711419.277          50.000  
E26  24994054.700   131344603.063          50.000    24994061.920    98081999.957          50.000  
E31  24755510.100   130091037.281          50.000    24755516.600    97145893.141          50.000  
E33  23857844.180   125373816.355          50.000    23857848.200    93623302.055          50.000  
> 2020  9  4 17 12 30.0000000  0 16       0.000000000000
G 2  24913739.400   130922584.293          50.000                                                  
G 5  21956335.100   115381236.691          50.000                                                  
G12  23840031.220   125280199.012          50.000                                                  
G15  24090737.540   126597477.242          50.000                                                  
G20  23567307.380   123847024.949          50.000                                                  
G25  21755908.420   114328004.535          50.000    21755910.660    85374798.348          50.000  
G26  23404734.520   122992624.590          50.000    23404735.620    91845126.141          50.000  
G29  20457198.180   107503300.582          50.000                                                  
E 1  26817324.920   140925945.219          50.000    26817331.080   105236893.676          50.000  
E 7  26922000.160   141476028.391          50.000    26922007.560   105647674.469          50.000  
E12  23942570.000   125819054.563          50.000    23942572.940    93955781.492          50.000  
E19  27499765.120   144512180.520          50.000    27499771.120   107914920.629          50.000  
E24  24644589.580   129508000.297          50.000    24644607.400    96710487.828          50.000  
E26  24994372.680   131346274.035          50.000    24994379.880    98083247.762          50.000  
E31  24755762.540   130092363.875          50.000    24755769.040    97146883.785          50.000  
E33  23857877.580   125373991.828          50.000    23857881.580    93623433.094          50.000  
> 2020  9  4 17 12 31.0000000  0 16       0.000000000000
G 2  24914190.280   130924953.664          50.000                                                  
G 5  21956794.540   115383651.031          50.000                                                  
G12  23840752.600   125283989.898          50.000                                                  
G15  24090163.700   126594461.645          50.000                                                  
G20  23566645.100   123843544.699          50.000                                                  
G25  21756447.280   114330836.234          50.000    21756449.500    85376912.926          50.000  
G26  23404284.500   122990259.770          50.000    23404285.620    91843360.203          50.000  
G29  20457104.600   107502808.875          50.000                                                  
E 1  26817905.940   140928998.512          50.000    26817912.100   105239173.734          50.000  
E 7  26922027.260   141476170.840          50.000    26922034.660   105647780.848          50.000  
E12  23942291.680   125817591.941          50.000    23942294.620    93954689.277          50.000  
E19  27499223.660   144509335.176          50.000    27499229.680   107912795.863          50.000  
E24  24644352.300   129506753.383          50.000    24644370.120    96709556.699          50.000  
E26  24994690.660   131347945.035          50.000    24994697.860    98084495.590          50.000  
E31  24756015.060   130093690.883          50.000    24756021.560    97147874.734          50.000  
E33  23857910.980   125374167.383          50.000    23857915.000    93623564.195          50.000  
> 2020  9  4 17 12 32.0000000  0 16       0.000000000000
G 2  24914641.160   130927323.008          50.000                                                  
G 5  21957254.060   115386065.848          50.000                                                  
G12  23841474.000   125287780.887          50.000                                                  
G15  24089589.860   126591446.117          50.000                                                  
G20  23565982.860   123840064.621          50.000                                                  
G25  21756986.220   114333668.324          50.000    21756988.440    85379027.797          50.000  
G26  23403834.580   122987895.387          50.000    23403835.680    91841594.594          50.000  
G29  20457011.100   107502317.531          50.000                                                  
E 1  26818486.980   140932051.871          50.000    26818493.140   105241453.844          50.000  
E 7  26922054.460   141476313.746          50.000    26922061.860   105647887.566          50.000  
E12  23942013.360   125816129.406          50.000    23942016.300    93953597.129          50.000  
E19  27498682.200   144506489.809          50.000    27498688.220   107910671.078          50.000  
E24  24644115.100   129505506.902          50.000    24644132.920    96708625.887          50.000  
E26  24995008.640   131349616.039          50.000    24995015.840    98085743.418          50.000  
E31  24756267.660   130095018.324          50.000    24756274.180    97148866.008          50.000  
E33  23857944.400   125374343.043          50.000    23857948.420    93623695.371          50.000  
> 2020  9  4 17 12 33.0000000  0 16       0.000000000000
G 2  24915092.020   130929692.316          50.000                                                  
G 5  21957713.680   115388481.152          50.000                                                  
G12  23842195.440   125291571.988          50.000                                                  
G15  24089016.040   126588430.648          50.000                                                  
G20  23565320.660   123836584.707          50.000                                                  
G25  21757525.220   114336500.824          50.000    21757527.440    85381142.977          50.000  
G26  23403384.740   122985531.453          50.000    23403385.840    91839829.320          50.000  
G29  20456917.680   107501826.547          50.000                                                  
E 1  26819068.040   140935105.305          50.000    26819074.180   105243734.000          50.000  
E 7  26922081.740   141476457.102          50.000    26922089.140   105647994.617          50.000  
E12  23941735.060   125814666.949          50.000    23941738.000    93952505.035          50.000  
E19  27498140.740   144503644.359          50.000    27498146.740   107908546.230          50.000  
E24  24643878.000   129504260.871          50.000    24643895.800    96707695.410          50.000  
E26  24995326.620   131351287.066          50.000    24995333.840    98086991.262          50.000  
E31  24756520.360   130096346.199          50.000    24756526.860    97149857.602          50.000  
E33  23857977.860   125374518.797          50.000    23857981.860    93623826.617          50.000  
> 2020  9  4 17 12 34.0000000  0 16       0.000000000000
G 2  24915542.880   130932061.586          50.000                                                  
G 5  21958173.380   115390896.934          50.000                                                  
G12  23842916.880   125295363.184          50.000                                                  
G15  24088442.220   126585415.246          50.000                                                  
G20  23564658.480   123833104.957          50.000                                                  
G25  21758064.300   114339333.738          50.000    21758066.520    85383258.461          50.000  
G26  23402934.980   122983167.984          50.000    23402936.100    91838064.391          50.000  
G29  20456824.300   107501335.918          50.000                                                  
E 1  26819649.100   140938158.809          50.000    26819655.240   105246014.215          50.000  
E 7  26922109.100   141476600.914          50.000    26922116.500   105648102.012          50.000  
E12  23941456.780   125813204.563          50.000    23941459.720    93951412.992          50.000  
E19  27497599.240   144500798.809          50.000    27497605.260   107906421.309          50.000  
E24  24643640.960   129503015.258          50.000    24643658.780    96706765.246          50.000  
E26  24995644.620   131352958.113          50.000    24995651.820    98088239.121          50.000  
E31  24756773.120   130097674.504          50.000    24756779.620    97150849.516          50.000  
E33  23858011.320   125374694.645          50.000    23858015.320    93623957.930          50.000  
> 2020  9  4 17 12 35.0000000  0 16       0.000000000000
G 2  24915993.740   130934430.816          50.000                                                  
G 5  21958633.180   115393313.199          50.000                                                  
G12  23843638.340   125299154.480          50.000                                                  
G15  24087868.420   126582399.906          50.000                                                  
G20  23563996.340   123829625.379          50.000                                                  
G25  21758603.460   114342167.051          50.000    21758605.700    85385374.246          50.000  
G26  23402485.320   122980804.965          50.000    23402486.420    91836299.797          50.000  
G29  20456731.020   107500845.652          50.000                                                  
E 1  26820230.180   140941212.395          50.000    26820236.320   105248294.488          50.000  
E 7  26922136.560   141476745.176          50.000    26922143.960   105648209.742          50.000  
E12  23941178.520   125811742.270          50.000    23941181.460    93950321.020          50.000  
E19  27497057.740   144497953.223          50.000    27497063.760   107904296.355          50.000  
E24  24643404.020   129501770.098          50.000    24643421.820    96705835.414          50.000  
E26  24995962.600   131354629.168          50.000    24995969.820    98089486.988          50.000  
E31  24757025.980   130099003.238          50.000    24757032.480    97151841.754          50.000  
E33  23858044.800   125374870.594          50.000    23858048.800    93624089.324          50.000  
> 2020  9  4 17 12 36.0000000  0 16       0.000000000000
G 2  24916444.580   130936800.012          50.000                                                  
G 5  21959093.080   115395729.941          50.000                                                  
G12  23844359.820   125302945.891          50.000                                                  
G15  24087294.620   126579384.617          50.000                                                  
G20  23563334.220   123826145.965          50.000                                                  
G25  21759142.700   114345000.750          50.000    21759144.920    85387490.320          50.000  
G26  23402035.740   122978442.395          50.000    23402036.840    91834535.543          50.000  
G29  20456637.780   107500355.738          50.000                                                  
E 1  26820811.260   140944266.039          50.000    26820817.420   105250574.805          50.000  
E 7  26922164.100   141476889.895          50.000    26922171.500   105648317.809          50.000  
E12  23940900.260   125810280.035          50.000    23940903.200    93949229.094          50.000  
E19  27496516.240   144495107.555          50.000    27496522.240   107902171.348          50.000  
E24  24643167.140   129500525.352          50.000    24643184.960    96704905.898          50.000  
E26  24996280.600   131356300.250          50.000    24996287.820    98090734.875          50.000  
E31  24757278.900   130100332.395          50.000    24757285.400    97152834.305          50.000  
E33  23858078.300   125375046.637          50.000    23858082.300    93624220.785          50.000  
> 2020  9  4 17 12 37.0000000  0 16       0.000000000000
G 2  24916895.420   130939169.168          50.000                                                  
G 5  21959553.060   115398147.172          50.000                                                  
G12  23845081.320   125306737.402          50.000                                                  
G15  24086720.860   126576369.410          50.000                                                  
G20  23562672.140   123822666.719          50.000                                                  
G25  21759682.020   114347834.855          50.000    21759684.240    85389606.699          50.000  
G26  23401586.240   122976080.285          50.000    23401587.340    91832771.629          50.000  
G29  20456544.620   107499866.191          50.000                                                  
E 1  26821392.360   140947319.762          50.000    26821398.520   105252855.180          50.000  
E 7  26922191.720   141477035.070          50.000    26922199.120   105648426.219          50.000  
E12  23940622.020   125808817.895          50.000    23940624.960    93948137.234          50.000  
E19  27495974.720   144492261.828          50.000    27495980.720   107900046.297          50.000  
E24  24642930.360   129499281.039          50.000    24642948.180    96703976.707          50.000  
E26  24996598.600   131357971.359          50.000    24996605.820    98091982.777          50.000  
E31  24757531.920   130101661.980          50.000    24757538.420    97153827.176          50.000  
E33  23858111.820   125375222.785          50.000    23858115.820    93624352.324          50.000  
> 2020  9  4 17 12 38.0000000  0 16       0.000000000000
G 2  24917346.240   130941538.281          50.000                                                  
G 5  21960013.140   115400564.875          50.000                                                  
G12  23845802.840   125310529.008          50.000                                                  
G15  24086147.080   126573354.254          50.000                                                  
G20  23562010.100   123819187.656          50.000                                                  
G25  21760221.400   114350669.371          50.000    21760223.640    85391723.379          50.000  
G26  23401136.820   122973718.621          50.000    23401137.940    91831008.055          50.000  
G29  20456451.540   107499377.000          50.000                                                  
E 1  26821973.480   140950373.555          50.000    26821979.640   105255135.613          50.000  
E 7  26922219.440   141477180.699          50.000    26922226.840   105648534.969          50.000  
E12  23940343.800   125807355.844          50.000    23940346.740    93947045.445          50.000  
E19  27495433.180   144489416.059          50.000    27495439.180   107897921.207          50.000  
E24  24642693.660   129498037.168          50.000    24642711.480    96703047.840          50.000  
E26  24996916.600   131359642.480          50.000    24996923.820    98093230.695          50.000  
E31  24757785.000   130102992.012          50.000    24757791.520    97154820.383          50.000  
E33  23858145.360   125375399.039          50.000    23858149.360    93624483.941          50.000  
> 2020  9  4 17 12 39.0000000  0 16       0.000000000000
G 2  24917797.080   130943907.289          50.000                                                  
G 5  21960473.300   115402983.063          50.000                                                  
G12  23846524.380   125314320.719          50.000                                                  
G15  24085573.360   126570339.043          50.000                                                  
G20  23561348.000   123815709.203          50.000                                                  
G25  21760760.840   114353504.453          50.000    21760763.060    85393840.484          50.000  
G26  23400687.500   122971357.496          50.000    23400688.620    91829244.820          50.000  
G29  20456358.500   107498888.238          50.000                                                  
E 1  26822554.620   140953427.414          50.000    26822560.780   105257416.078          50.000  
E 7  26922247.220   141477326.820          50.000    26922254.620   105648644.102          50.000  
E12  23940065.600   125805893.867          50.000    23940068.540    93945953.711          50.000  
E19  27494891.620   144486570.223          50.000    27494897.620   107895796.078          50.000  
E24  24642457.060   129496793.715          50.000    24642474.860    96702119.270          50.000  
E26  24997234.620   131361313.645          50.000    24997241.820    98094478.648          50.000  
E31  24758038.200   130104322.418          50.000    24758044.700    97155813.840          50.000  
E33  23858178.900   125375575.410          50.000    23858182.920    93624615.660          50.000  
> 2020  9  4 17 12 40.0000000  0 16       0.000000000000
G 2  24918247.900   130946276.320          50.000                                                  
G 5  21960933.560   115405401.723          50.000                                                  
G12  23847245.940   125318112.539          50.000                                                  
G15  24084999.620   126567324.012          50.000                                                  
G20  23560686.020   123812230.461          50.000                                                  
G25  21761300.380   114356339.762          50.000    21761302.600    85395957.770          50.000  
G26  23400238.260   122968996.742          50.000    23400239.380    91827481.926          50.000  
G29  20456265.560   107498399.754          50.000                                                  
E 1  26823135.760   140956481.352          50.000    26823141.920   105259696.617          50.000  
E 7  26922275.120   141477473.363          50.000    26922282.500   105648753.535          50.000  
E12  23939787.400   125804431.953          50.000    23939790.340    93944862.020          50.000  
E19  27494350.060   144483724.324          50.000    27494356.060   107893670.895          50.000  
E24  24642220.520   129495550.730          50.000    24642238.340    96701191.066          50.000  
E26  24997552.620   131362984.813          50.000    24997559.840    98095726.598          50.000  
E31  24758291.460   130105653.305          50.000    24758297.960    97156807.684          50.000  
E33  23858212.480   125375751.863          50.000    23858216.500    93624747.426          50.000  
> 2020  9  4 17 12 41.0000000  0 16       0.000000000000
G 2  24918698.700   130948645.301          50.000                                                  
G 5  21961393.920   115407820.867          50.000                                                  
G12  23847967.520   125321904.461          50.000                                                  
G15  24084425.880   126564309.043          50.000                                                  
G20  23560024.080   123808751.883          50.000                                                  
G25  21761840.000   114359175.473          50.000    21761842.220    85398075.352          50.000  
G26  23399789.100   122966636.441          50.000    23399790.220    91825719.371          50.000  
G29  20456172.660   107497911.637          50.000                                                  
E 1  26823716.920   140959535.359          50.000    26823723.080   105261977.207          50.000  
E 7  26922303.080   141477620.355          50.000    26922310.480   105648863.301          50.000  
E12  23939509.220   125802970.152          50.000    23939512.180    93943770.418          50.000  
E19  27493808.500   144480878.359          50.000    27493814.500   107891545.664          50.000  
E24  24641984.060   129494308.168          50.000    24642001.880    96700263.180          50.000  
E26  24997870.640   131364655.992          50.000    24997877.840    98096974.555          50.000  
E31  24758544.800   130106984.629          50.000    24758551.300    97157801.852          50.000  
E33  23858246.080   125375928.410          50.000    23858250.080    93624879.262          50.000  
> 2020  9  4 17 12 42.0000000  0 16       0.000000000000
G 2  24919149.500   130951014.258          50.000                                                  
G 5  21961854.360   115410240.488          50.000                                                  
G12  23848689.120   125325696.473          50.000                                                  
G15  24083852.180   126561294.129          50.000                                                  
G20  23559362.160   123805273.473          50.000                                                  
G25  21762379.700   114362011.586          50.000    21762381.920    85400193.234          50.000  
G26  23399340.040   122964276.594          50.000    23399341.160    91823957.156          50.000  
G29  20456079.860   107497423.875          50.000                                                  
E 1  26824298.100   140962589.438          50.000    26824304.260   105264257.848          50.000  
E 7  26922331.140   141477767.797          50.000    26922338.540   105648973.406          50.000  
E12  23939231.060   125801508.410          50.000    23939234.000    93942678.855          50.000  
E19  27493266.900   144478032.301          50.000    27493272.900   107889420.363          50.000  
E24  24641747.700   129493066.047          50.000    24641765.500    96699335.621          50.000  
E26  24998188.660   131366327.184          50.000    24998195.860    98098222.523          50.000  
E31  24758798.220   130108316.363          50.000    24758804.720    97158796.328          50.000  
E33  23858279.680   125376105.051          50.000    23858283.700    93625011.168          50.000  
> 2020  9  4 17 12 43.0000000  0 16       0.000000000000
G 2  24919600.300   130953383.168          50.000                                                  
G 5  21962314.880   115412660.590          50.000                                                  
G12  23849410.740   125329488.598          50.000                                                  
G15  24083278.460   126558279.289          50.000                                                  
G20  23558700.260   123801795.234          50.000                                                  
G25  21762919.480   114364848.098          50.000    21762921.700    85402311.422          50.000  
G26  23398891.060   122961917.191          50.000    23398892.180    91822195.277          50.000  
G29  20455987.100   107496936.473          50.000                                                  
E 1  26824879.280   140965643.590          50.000    26824885.440   105266538.547          50.000  
E 7  26922359.280   141477915.703          50.000    26922366.680   105649083.852          50.000  
E12  23938952.920   125800046.754          50.000    23938955.860    93941587.359          50.000  
E19  27492725.300   144475186.215          50.000    27492731.300   107887295.039          50.000  
E24  24641511.400   129491824.359          50.000    24641529.220    96698408.387          50.000  
E26  24998506.680   131367998.402          50.000    24998513.880    98099470.508          50.000  
E31  24759051.720   130109648.523          50.000    24759058.220    97159791.125          50.000  
E33  23858313.320   125376281.789          50.000    23858317.320    93625143.152          50.000  
> 2020  9  4 17 12 44.0000000  0 16       0.000000000000
G 2  24920051.080   130955752.043          50.000                                                  
G 5  21962775.520   115415081.176          50.000                                                  
G12  23850132.380   125333280.816          50.000                                                  
G15  24082704.780   126555264.504          50.000                                                  
G20  23558038.420   123798317.160          50.000                                                  
G25  21763459.320   114367685.016          50.000    21763461.540    85404429.902          50.000  
G26  23398442.180   122959558.250          50.000    23398443.280    91820433.734          50.000  
G29  20455894.420   107496449.430          50.000                                                  
E 1  26825460.480   140968697.813          50.000    26825466.640   105268819.297          50.000  
E 7  26922387.500   141478064.055          50.000    26922394.900   105649194.637          50.000  
E12  23938674.780   125798585.180          50.000    23938677.740    93940495.926          50.000  
E19  27492183.700   144472340.012          50.000    27492189.700   107885169.629          50.000  
E24  24641275.200   129490583.102          50.000    24641293.020    96697481.473          50.000  
E26  24998824.700   131369669.637          50.000    24998831.900    98100718.508          50.000  
E31  24759305.300   130110981.133          50.000    24759311.820    97160786.254          50.000  
E33  23858346.960   125376458.625          50.000    23858350.980    93625275.203          50.000  
> 2020  9  4 17 12 45.0000000  0 16       0.000000000000
G 2  24920501.860   130958120.875          50.000                                                  
G 5  21963236.220   115417502.234          50.000                                                  
G12  23850854.040   125337073.145          50.000                                                  
G15  24082131.100   126552249.793          50.000                                                  
G20  23557376.600   123794839.254          50.000                                                  
G25  21763999.240   114370522.340          50.000    21764001.460    85406548.691          50.000  
G26  23397993.380   122957199.758          50.000    23397994.480    91818672.535          50.000  
G29  20455801.820   107495962.742          50.000                                                  
E 1  26826041.680   140971752.105          50.000    26826047.840   105271100.098          50.000  
E 7  26922415.820   141478212.867          50.000    26922423.220   105649305.762          50.000  
E12  23938396.680   125797123.676          50.000    23938399.620    93939404.543          50.000  
E19  27491642.060   144469493.781          50.000    27491648.060   107883044.199          50.000  
E24  24641039.080   129489342.285          50.000    24641056.900    96696554.891          50.000  
E26  24999142.720   131371340.891          50.000    24999149.940    98101966.523          50.000  
E31  24759558.960   130112314.164          50.000    24759565.480    97161781.699          50.000  
E33  23858380.640   125376635.566          50.000    23858384.640    93625407.332          50.000  
> 2020  9  4 17 12 46.0000000  0 16       0.000000000000
G 2  24920952.620   130960489.684          50.000                                                  
G 5  21963697.040   115419923.785          50.000                                                  
G12  23851575.720   125340865.582          50.000                                                  
G15  24081557.420   126549235.148          50.000                                                  
G20  23556714.800   123791361.523          50.000                                                  
G25  21764539.240   114373360.051          50.000    21764541.460    85408667.766          50.000  
G26  23397544.660   122954841.730          50.000    23397545.760    91816911.672          50.000  
G29  20455709.260   107495476.418          50.000                                                  
E 1  26826622.920   140974806.477          50.000    26826629.080   105273380.957          50.000  
E 7  26922444.220   141478362.121          50.000    26922451.620   105649417.219          50.000  
E12  23938118.580   125795662.258          50.000    23938121.520    93938313.227          50.000  
E19  27491100.440   144466647.492          50.000    27491106.440   107880918.727          50.000  
E24  24640803.040   129488101.906          50.000    24640820.860    96695628.633          50.000  
E26  24999460.760   131373012.160          50.000    24999467.960    98103214.551          50.000  
E31  24759812.700   130113647.621          50.000    24759819.220    97162777.465          50.000  
E33  23858414.320   125376812.602          50.000    23858418.340    93625539.535          50.000  
> 2020  9  4 17 12 47.0000000  0 16       0.000000000000
G 2  24921403.380   130962858.449          50.000                                                  
G 5  21964157.920   115422345.813          50.000                                                  
G12  23852297.420   125344658.117          50.000                                                  
G15  24080983.760   126546220.563          50.000                                                  
G20  23556053.040   123787883.961          50.000                                                  
G25  21765079.320   114376198.180          50.000    21765081.540    85410787.148          50.000  
G26  23397096.020   122952484.152          50.000    23397097.120    91815151.152          50.000  
G29  20455616.800   107494990.457          50.000                                                  
E 1  26827204.140   140977860.910          50.000    26827210.320   105275661.863          50.000  
E 7  26922472.720   141478511.836          50.000    26922480.100   105649529.020          50.000  
E12  23937840.480   125794200.941          50.000    23937843.440    93937221.980          50.000  
E19  27490558.800   144463801.141          50.000    27490564.780   107878793.203          50.000  
E24  24640567.080   129486861.957          50.000    24640584.900    96694702.695          50.000  
E26  24999778.800   131374683.449          50.000    24999786.000    98104462.590          50.000  
E31  24760066.540   130114981.520          50.000    24760073.060    97163773.555          50.000  
E33  23858448.020   125376989.727          50.000    23858452.040    93625671.805          50.000  
> 2020  9  4 17 12 48.0000000  0 16       0.000000000000
G 2  24921854.140   130965227.184          50.000                                                  
G 5  21964618.920   115424768.324          50.000                                                  
G12  23853019.140   125348450.777          50.000                                                  
G15  24080410.120   126543206.051          50.000                                                  
G20  23555391.320   123784406.551          50.000                                                  
G25  21765619.480   114379036.703          50.000    21765621.700    85412906.828          50.000  
G26  23396647.480   122950127.039          50.000    23396648.580    91813390.973          50.000  
G29  20455524.380   107494504.852          50.000                                                  
E 1  26827785.400   140980915.418          50.000    26827791.560   105277942.824          50.000  
E 7  26922501.280   141478662.008          50.000    26922508.680   105649641.160          50.000  
E12  23937562.420   125792739.680          50.000    23937565.360    93936130.781          50.000  
E19  27490017.120   144460954.688          50.000    27490023.120   107876667.605          50.000  
E24  24640331.200   129485622.438          50.000    24640349.020    96693777.082          50.000  
E26  25000096.840   131376354.770          50.000    25000104.040    98105710.652          50.000  
E31  24760320.460   130116315.844          50.000    24760326.960    97164769.965          50.000  
E33  23858481.760   125377166.961          50.000    23858485.760    93625804.156          50.000  
> 2020  9  4 17 12 49.0000000  0 16       0.000000000000
G 2  24922304.880   130967595.871          50.000                                                  
G 5  21965080.000   115427191.313          50.000                                                  
G12  23853740.880   125352243.539          50.000                                                  
G15  24079836.500   126540191.590          50.000                                                  
G20  23554729.620   123780929.340          50.000                                                  
G25  21766159.720   114381875.641          50.000    21766161.920    85415026.816          50.000  
G26  23396199.020   122947770.375          50.000    23396200.120    91811631.129          50.000  
G29  20455432.040   107494019.609          50.000                                                  
E 1  26828366.660   140983969.977          50.000    26828372.820   105280223.828          50.000  
E 7  26922529.940   141478812.629          50.000    26922537.340   105649753.637          50.000  
E12  23937284.360   125791278.504          50.000    23937287.300    93935039.645          50.000  
E19  27489475.460   144458108.203          50.000    27489481.460   107874541.988          50.000  
E24  24640095.420   129484383.355          50.000    24640113.240    96692851.797          50.000  
E26  25000414.880   131378026.090          50.000    25000422.080    98106958.715          50.000  
E31  24760574.440   130117650.582          50.000    24760580.960    97165766.688          50.000  
E33  23858515.500   125377344.289          50.000    23858519.500    93625936.574          50.000  
> 2020  9  4 17 12 50.0000000  0 16       0.000000000000
G 2  24922755.620   130969964.512          50.000                                                  
G 5  21965541.160   115429614.777          50.000                                                  
G12  23854462.640   125356036.418          50.000                                                  
G15  24079262.880   126537177.211          50.000                                                  
G20  23554067.960   123777452.285          50.000                                                  
G25  21766700.020   114384714.965          50.000    21766702.220    85417147.098          50.000  
G26  23395750.640   122945414.156          50.000    23395751.740    91809871.621          50.000  
G29  20455339.780   107493534.727          50.000                                                  
E 1  26828947.940   140987024.621          50.000    26828954.100   105282504.891          50.000  
E 7  26922558.700   141478963.695          50.000    26922566.080   105649866.445          50.000  
E12  23937006.320   125789817.398          50.000    23937009.260    93933948.559          50.000  
E19  27488933.760   144455261.629          50.000    27488939.760   107872416.301          50.000  
E24  24639859.700   129483144.707          50.000    24639877.520    96691926.828          50.000  
E26  25000732.920   131379697.430          50.000    25000740.120    98108206.793          50.000  
E31  24760828.520   130118985.758          50.000    24760835.040    97166763.734          50.000  
E33  23858549.260   125377521.715          50.000    23858553.260    93626069.066          50.000  
> 2020  9  4 17 12 51.0000000  0 16       0.000000000000
G 2  24923206.360   130972333.117          50.000                                                  
G 5  21966002.440   115432038.742          50.000                                                  
G12  23855184.420   125359829.395          50.000                                                  
G15  24078689.260   126534162.879          50.000                                                  
G20  23553406.320   123773975.395          50.000                                                  
G25  21767240.400   114387554.695          50.000    21767242.620    85419267.680          50.000  
G26  23395302.360   122943058.406          50.000    23395303.460    91808112.461          50.000  
G29  20455247.580   107493050.211          50.000                                                  
E 1  26829529.240   140990079.348          50.000    26829535.400   105284786.016          50.000  
E 7  26922587.520   141479115.230          50.000    26922594.920   105649979.605          50.000  
E12  23936728.300   125788356.387          50.000    23936731.240    93932857.547          50.000  
E19  27488392.080   144452415.008          50.000    27488398.060   107870290.578          50.000  
E24  24639624.080   129481906.492          50.000    24639641.900    96691002.188          50.000  
E26  25001050.960   131381368.801          50.000    25001058.180    98109454.895          50.000  
E31  24761082.680   130120321.367          50.000    24761089.180    97167761.102          50.000  
E33  23858583.040   125377699.238          50.000    23858587.040    93626201.637          50.000  
> 2020  9  4 17 12 52.0000000  0 16       0.000000000000
G 2  24923657.080   130974701.691          50.000                                                  
G 5  21966463.780   115434463.176          50.000                                                  
G12  23855906.220   125363622.473          50.000                                                  
G15  24078115.660   126531148.617          50.000                                                  
G20  23552744.720   123770498.672          50.000                                                  
G25  21767780.860   114390394.824          50.000    21767783.060    85421388.559          50.000  
G26  23394854.160   122940703.098          50.000    23394855.260    91806353.633          50.000  
G29  20455155.440   107492566.047          50.000                                                  
E 1  26830110.540   140993134.121          50.000    26830116.700   105287067.176          50.000  
E 7  26922616.440   141479267.207          50.000    26922623.840   105650093.098          50.000  
E12  23936450.280   125786895.453          50.000    23936453.240    93931766.590          50.000  
E19  27487850.360   144449568.324          50.000    27487856.360   107868164.809          50.000  
E24  24639388.540   129480668.715          50.000    24639406.360    96690077.875          50.000  
E26  25001369.020   131383040.176          50.000    25001376.220    98110702.996          50.000  
E31  24761336.900   130121657.398          50.000    24761343.420    97168758.789          50.000  
E33  23858616.840   125377876.859          50.000    23858620.840    93626334.273          50.000  
> 2020  9  4 17 12 53.0000000  0 16       0.000000000000
G 2  24924107.800   130977070.219          50.000                                                  
G 5  21966925.240   115436888.086          50.000                                                  
G12  23856628.040   125367415.656          50.000                                                  
G15  24077542.080   126528134.422          50.000                                                  
G20  23552083.160   123767022.125          50.000                                                  
G25  21768321.400   114393235.371          50.000    21768323.600    85423509.746          50.000  
G26  23394406.040   122938348.254          50.000    23394407.140    91804595.148          50.000  
G29  20455063.380   107492082.242          50.000                                                  
E 1  26830691.860   140996188.969          50.000    26830698.020   105289348.395          50.000  
E 7  26922645.440   141479419.641          50.000    26922652.840   105650206.926          50.000  
E12  23936172.300   125785434.598          50.000    23936175.240    93930675.691          50.000  
E19  27487308.640   144446721.574          50.000    27487314.640   107866038.988          50.000  
E24  24639153.080   129479431.379          50.000    24639170.900    96689153.891          50.000  
E26  25001687.080   131384711.578          50.000    25001694.280    98111951.121          50.000  
E31  24761591.220   130122993.863          50.000    24761597.740    97169756.797          50.000  
E33  23858650.640   125378054.582          50.000    23858654.660    93626466.988          50.000  
> 2020  9  4 17 12 54.0000000  0 16       0.000000000000
G 2  24924558.520   130979438.707          50.000                                                  
G 5  21967386.760   115439313.473          50.000                                                  
G12  23857349.880   125371208.926          50.000                                                  
G15  24076968.520   126525120.293          50.000                                                  
G20  23551421.620   123763545.742          50.000                                                  
G25  21768862.000   114396076.293          50.000    21768864.220    85425631.219          50.000  
G26  23393958.020   122935993.863          50.000    23393959.120    91802837.004          50.000  
G29  20454971.380   107491598.789          50.000                                                  
E 1  26831273.180   140999243.883          50.000    26831279.340   105291629.664          50.000  
E 7  26922674.540   141479572.527          50.000    26922681.940   105650321.098          50.000  
E12  23935894.320   125783973.801          50.000    23935897.260    93929584.840          50.000  
E19  27486766.900   144443874.766          50.000    27486772.900   107863913.137          50.000  
E24  24638917.700   129478194.465          50.000    24638935.520    96688230.230          50.000  
E26  25002005.140   131386382.992          50.000    25002012.340    98113199.262          50.000  
E31  24761845.620   130124330.750          50.000    24761852.140    97170755.125          50.000  
E33  23858684.480   125378232.395          50.000    23858688.500    93626599.773          50.000  
