     3.03           OBSERVATION DATA    M: Mixed            RINEX VERSION / TYPE
sbp2rinex v2.2 (RTKL                    20210504 171525 UTC PGM / RUN BY / DATE 
log: 2020-06-04-US-MTV-1.sbp                                COMMENT             
format: Swift Navigation SBP, option: CONVBASE,EPHALL,OBSALLCOMMENT             
                                                            MARKER NAME         
                                                            MARKER NUMBER       
                                                            MARKER TYPE         
                                                            OBSERVER / AGENCY   
                                                            REC # / TYPE / VERS 
                                                            ANT # / TYPE        
 -2725676.0816 -4348357.6486  3774543.0508                  APPROX POSITION XYZ 
        0.0000        0.0000        0.0000                  ANTENNA: DELTA H/E/N
G    6 C1C L1C S1C C5I L5I S5I                              SYS / # / OBS TYPES 
E    6 C1B L1B S1B C5I L5I S5I                              SYS / # / OBS TYPES 
  2020     6     4    20    57   34.0000000     GPS         TIME OF FIRST OBS   
  2020     6     4    21    26   54.0000000     GPS         TIME OF LAST OBS    
G                                                           SYS / PHASE SHIFT   
E                                                           SYS / PHASE SHIFT   
  0                                                         GLONASS SLOT / FRQ #
 C1C    0.000 C1P    0.000 C2C    0.000 C2P    0.000        GLONASS COD/PHS/BIS 
                                                            END OF HEADER       
> 2020  6  4 20 57 34.0000000  0 13       0.000000000000
G 2  21241225.900   111623416.770          50.000                                                  
G 5  22557348.840   118539572.180          50.000                                                  
G 6  22902992.180   120355981.523          50.000    22902995.060    89876218.902          50.000  
G12  20079349.140   105517700.719          50.000                                                  
G19  24528828.620   128899838.750          50.000                                                  
G24  23555026.280   123782422.305          50.000    23555029.920    92434917.402          50.000  
G25  21035179.460   110540555.984          50.000    21035181.520    82546518.887          50.000  
G29  23010227.760   120919543.633          50.000                                                  
E 2  24667275.080   129627397.355          50.000    24667278.740    96799670.547          50.000  
E15  25038250.040   131576847.574          50.000    25038256.060    98255422.285          50.000  
E27  26489761.160   139204600.676          50.000    26489766.020   103951473.008          50.000  
E30  22260591.160   116980169.492          50.000    22260594.880    87355308.918          50.000  
E36  25647529.020   134778633.668          50.000    25647534.380   100646367.496          50.000  
> 2020  6  4 20 57 35.0000000  0 13       0.000000000000
G 2  21241511.460   111624917.484          50.000                                                  
G 5  22556812.200   118536752.059          50.000                                                  
G 6  22903572.060   120359028.836          50.000    22903574.940    89878494.492          50.000  
G12  20079311.040   105517500.543          50.000                                                  
G19  24529362.100   128902642.207          50.000                                                  
G24  23555614.580   123785513.918          50.000    23555618.240    92437226.074          50.000  
G25  21034799.480   110538559.215          50.000    21034801.540    82545027.789          50.000  
G29  23009807.980   120917337.617          50.000                                                  
E 2  24667700.920   129629635.176          50.000    24667704.580    96801341.641          50.000  
E15  25037901.000   131575013.297          50.000    25037907.000    98254052.531          50.000  
E27  26489273.700   139202039.027          50.000    26489278.560   103949560.090          50.000  
E30  22260528.640   116979840.969          50.000    22260532.360    87355063.594          50.000  
E36  25647965.120   134780925.465          50.000    25647970.500   100648078.902          50.000  
> 2020  6  4 20 57 36.0000000  0 13       0.000000000000
G 2  21241797.120   111626418.566          50.000                                                  
G 5  22556275.600   118533932.277          50.000                                                  
G 6  22904151.980   120362076.352          50.000    22904154.860    89880770.230          50.000  
G12  20079273.060   105517300.922          50.000                                                  
G19  24529895.600   128905445.684          50.000                                                  
G24  23556202.920   123788605.652          50.000    23556206.580    92439534.832          50.000  
G25  21034419.600   110536562.859          50.000    21034421.660    82543537.004          50.000  
G29  23009388.220   120915131.746          50.000                                                  
E 2  24668126.820   129631873.309          50.000    24668130.480    96803012.977          50.000  
E15  25037552.000   131573179.258          50.000    25037558.000    98252682.961          50.000  
E27  26488786.260   139199477.535          50.000    26488791.120   103947647.289          50.000  
E30  22260466.200   116979512.863          50.000    22260469.920    87354818.578          50.000  
E36  25648401.260   134783217.316          50.000    25648406.620   100649790.348          50.000  
> 2020  6  4 20 57 37.0000000  0 13       0.000000000000
G 2  21242082.820   111627920.012          50.000                                                  
G 5  22555739.080   118531112.801          50.000                                                  
G 6  22904731.960   120365124.074          50.000    22904734.820    89883046.129          50.000  
G12  20079235.160   105517101.832          50.000                                                  
G19  24530429.080   128908249.176          50.000                                                  
G24  23556791.280   123791697.492          50.000    23556794.940    92441843.676          50.000  
G25  21034039.780   110534566.934          50.000    21034041.840    82542046.539          50.000  
G29  23008968.480   120912925.988          50.000                                                  
E 2  24668552.780   129634111.750          50.000    24668556.440    96804684.535          50.000  
E15  25037203.040   131571345.473          50.000    25037209.040    98251313.574          50.000  
E27  26488298.860   139196916.203          50.000    26488303.720   103945734.609          50.000  
E30  22260403.860   116979185.191          50.000    22260407.560    87354573.887          50.000  
E36  25648837.380   134785509.219          50.000    25648842.760   100651501.832          50.000  
> 2020  6  4 20 57 38.0000000  0 13       0.000000000000
G 2  21242368.620   111629421.801          50.000                                                  
G 5  22555202.600   118528293.652          50.000                                                  
G 6  22905311.960   120368172.008          50.000    22905314.820    89885322.180          50.000  
G12  20079197.380   105516903.285          50.000                                                  
G19  24530962.580   128911052.672          50.000                                                  
G24  23557379.660   123794789.438          50.000    23557383.300    92444152.590          50.000  
G25  21033660.040   110532571.414          50.000    21033662.100    82540556.383          50.000  
G29  23008548.740   120910720.340          50.000                                                  
E 2  24668978.800   129636350.496          50.000    24668982.460    96806356.328          50.000  
E15  25036854.120   131569511.922          50.000    25036860.120    98249944.363          50.000  
E27  26487811.480   139194355.039          50.000    26487816.340   103943822.047          50.000  
E30  22260341.580   116978857.926          50.000    22260345.300    87354329.504          50.000  
E36  25649273.540   134787801.176          50.000    25649278.900   100653213.359          50.000  
> 2020  6  4 20 57 39.0000000  0 13       0.000000000000
G 2  21242654.460   111630923.953          50.000                                                  
G 5  22554666.200   118525474.816          50.000                                                  
G 6  22905892.000   120371220.141          50.000    22905894.860    89887598.383          50.000  
G12  20079159.700   105516705.285          50.000                                                  
G19  24531496.060   128913856.176          50.000                                                  
G24  23557968.060   123797881.488          50.000    23557971.700    92446461.590          50.000  
G25  21033280.400   110530576.320          50.000    21033282.460    82539066.539          50.000  
G29  23008129.060   120908514.820          50.000                                                  
E 2  24669404.880   129638589.539          50.000    24669408.540    96808028.340          50.000  
E15  25036505.260   131567678.625          50.000    25036511.260    98248575.348          50.000  
E27  26487324.140   139191794.031          50.000    26487329.000   103941909.613          50.000  
E30  22260279.380   116978531.094          50.000    22260283.100    87354085.438          50.000  
E36  25649709.680   134790093.176          50.000    25649715.060   100654924.918          50.000  
> 2020  6  4 20 57 40.0000000  0 13       0.000000000000
G 2  21242940.380   111632426.461          50.000                                                  
G 5  22554129.860   118522656.305          50.000                                                  
G 6  22906472.080   120374268.473          50.000    22906474.940    89889874.734          50.000  
G12  20079122.140   105516507.816          50.000                                                  
G19  24532029.560   128916659.688          50.000                                                  
G24  23558556.480   123800973.660          50.000    23558560.140    92448770.680          50.000  
G25  21032900.820   110528581.648          50.000    21032902.880    82537577.012          50.000  
G29  23007709.380   120906309.418          50.000                                                  
E 2  24669831.020   129640828.898          50.000    24669834.680    96809700.586          50.000  
E15  25036156.440   131565845.566          50.000    25036162.440    98247206.504          50.000  
E27  26486836.820   139189233.176          50.000    26486841.680   103939997.285          50.000  
E30  22260217.260   116978204.676          50.000    22260220.980    87353841.684          50.000  
E36  25650145.860   134792385.238          50.000    25650151.220   100656636.520          50.000  
> 2020  6  4 20 57 41.0000000  0 13       0.000000000000
G 2  21243226.360   111633929.328          50.000                                                  
G 5  22553593.560   118519838.102          50.000                                                  
G 6  22907052.200   120377317.016          50.000    22907055.060    89892151.242          50.000  
G12  20079084.660   105516310.902          50.000                                                  
G19  24532563.040   128919463.207          50.000                                                  
G24  23559144.920   123804065.953          50.000    23559148.580    92451079.855          50.000  
G25  21032521.320   110526587.387          50.000    21032523.380    82536087.789          50.000  
G29  23007289.720   120904104.137          50.000                                                  
E 2  24670257.200   129643068.555          50.000    24670260.860    96811373.059          50.000  
E15  25035807.660   131564012.730          50.000    25035813.660    98245837.828          50.000  
E27  26486349.540   139186672.477          50.000    26486354.400   103938085.074          50.000  
E30  22260155.240   116977878.688          50.000    22260158.940    87353598.250          50.000  
E36  25650582.020   134794677.348          50.000    25650587.400   100658348.160          50.000  
> 2020  6  4 20 57 42.0000000  0 13       0.000000000000
G 2  21243512.420   111635432.551          50.000                                                  
G 5  22553057.340   118517020.223          50.000                                                  
G 6  22907632.360   120380365.758          50.000    22907635.220    89894427.898          50.000  
G12  20079047.280   105516114.520          50.000                                                  
G19  24533096.540   128922266.746          50.000                                                  
G24  23559733.400   123807158.375          50.000    23559737.040    92453389.129          50.000  
G25  21032141.900   110524593.555          50.000    21032143.960    82534598.891          50.000  
G29  23006870.100   120901898.988          50.000                                                  
E 2  24670683.460   129645308.527          50.000    24670687.120    96813045.766          50.000  
E15  25035458.940   131562180.172          50.000    25035464.940    98244469.359          50.000  
E27  26485862.280   139184111.941          50.000    26485867.140   103936172.988          50.000  
E30  22260093.280   116977553.129          50.000    22260097.000    87353355.141          50.000  
E36  25651018.220   134796969.516          50.000    25651023.580   100660059.844          50.000  
> 2020  6  4 20 57 43.0000000  0 13       0.000000000000
G 2  21243798.540   111636936.133          50.000                                                  
G 5  22552521.180   118514202.664          50.000                                                  
G 6  22908212.540   120383414.711          50.000    22908215.420    89896704.715          50.000  
G12  20079010.020   105515918.688          50.000                                                  
G19  24533630.040   128925070.297          50.000                                                  
G24  23560321.880   123810250.906          50.000    23560325.540    92455698.488          50.000  
G25  21031762.580   110522600.152          50.000    21031764.640    82533110.313          50.000  
G29  23006450.500   120899693.953          50.000                                                  
E 2  24671109.780   129647548.805          50.000    24671113.440    96814718.699          50.000  
E15  25035110.240   131560347.840          50.000    25035116.260    98243101.059          50.000  
E27  26485375.060   139181551.563          50.000    26485379.920   103934261.016          50.000  
E30  22260031.400   116977227.984          50.000    22260035.120    87353112.336          50.000  
E36  25651454.400   134799261.734          50.000    25651459.780   100661771.563          50.000  
> 2020  6  4 20 57 44.0000000  0 13       0.000000000000
G 2  21244084.740   111638440.066          50.000                                                  
G 5  22551985.080   118511385.418          50.000                                                  
G 6  22908792.780   120386463.871          50.000    22908795.660    89898981.684          50.000  
G12  20078972.860   105515723.402          50.000                                                  
G19  24534163.540   128927873.852          50.000                                                  
G24  23560910.400   123813343.516          50.000    23560914.040    92458007.902          50.000  
G25  21031383.320   110520607.164          50.000    21031385.380    82531622.043          50.000  
G29  23006030.920   120897489.039          50.000                                                  
E 2  24671536.140   129649789.395          50.000    24671539.800    96816391.863          50.000  
E15  25034761.620   131558515.762          50.000    25034767.620    98241732.953          50.000  
E27  26484887.860   139178991.348          50.000    26484892.720   103932349.168          50.000  
E30  22259969.620   116976903.273          50.000    22259973.340    87352869.859          50.000  
E36  25651890.620   134801554.008          50.000    25651895.980   100663483.324          50.000  
> 2020  6  4 20 57 45.0000000  0 13       0.000000000000
G 2  21244370.980   111639944.359          50.000                                                  
G 5  22551449.040   118508568.496          50.000                                                  
G 6  22909373.060   120389513.227          50.000    22909375.940    89901258.801          50.000  
G12  20078935.800   105515528.648          50.000                                                  
G19  24534697.040   128930677.426          50.000                                                  
G24  23561498.920   123816436.234          50.000    23561502.560    92460317.398          50.000  
G25  21031004.140   110518614.590          50.000    21031006.200    82530134.078          50.000  
G29  23005611.360   120895284.254          50.000                                                  
E 2  24671962.560   129652030.281          50.000    24671966.240    96818065.254          50.000  
E15  25034413.020   131556683.918          50.000    25034419.040    98240365.016          50.000  
E27  26484400.700   139176431.281          50.000    26484405.560   103930437.434          50.000  
E30  22259907.900   116976578.961          50.000    22259911.620    87352627.676          50.000  
E36  25652326.820   134803846.328          50.000    25652332.200   100665195.121          50.000  
> 2020  6  4 20 57 46.0000000  0 13       0.000000000000
G 2  21244657.320   111641449.012          50.000                                                  
G 5  22550913.040   118505751.898          50.000                                                  
G 6  22909953.380   120392562.797          50.000    22909956.240    89903536.074          50.000  
G12  20078898.840   105515334.441          50.000                                                  
G19  24535230.540   128933481.012          50.000                                                  
G24  23562087.460   123819529.063          50.000    23562091.120    92462626.977          50.000  
G25  21030625.060   110516622.438          50.000    21030627.120    82528646.434          50.000  
G29  23005191.820   120893079.590          50.000                                                  
E 2  24672389.060   129654271.480          50.000    24672392.720    96819738.875          50.000  
E15  25034064.480   131554852.316          50.000    25034070.500    98238997.262          50.000  
E27  26483913.560   139173871.383          50.000    26483918.420   103928525.820          50.000  
E30  22259846.280   116976255.086          50.000    22259849.980    87352385.824          50.000  
E36  25652763.060   134806138.691          50.000    25652768.420   100666906.953          50.000  
> 2020  6  4 20 57 47.0000000  0 13       0.000000000000
G 2  21244943.700   111642954.016          50.000                                                  
G 5  22550377.120   118502935.617          50.000                                                  
G 6  22910533.720   120395612.555          50.000    22910536.600    89905813.492          50.000  
G12  20078862.000   105515140.777          50.000                                                  
G19  24535764.060   128936284.598          50.000                                                  
G24  23562676.040   123822622.004          50.000    23562679.680    92464936.637          50.000  
G25  21030246.040   110514630.715          50.000    21030248.100    82527159.109          50.000  
G29  23004772.300   120890875.035          50.000                                                  
E 2  24672815.600   129656512.973          50.000    24672819.260    96821412.719          50.000  
E15  25033715.980   131553020.953          50.000    25033722.000    98237629.688          50.000  
E27  26483426.460   139171311.645          50.000    26483431.320   103926614.328          50.000  
E30  22259784.720   116975931.629          50.000    22259788.440    87352144.277          50.000  
E36  25653199.280   134808431.117          50.000    25653204.660   100668618.828          50.000  
> 2020  6  4 20 57 48.0000000  0 13       0.000000000000
G 2  21245230.180   111644459.391          50.000                                                  
G 5  22549841.260   118500119.656          50.000                                                  
G 6  22911114.120   120398662.535          50.000    22911117.000    89908091.074          50.000  
G12  20078825.240   105514947.660          50.000                                                  
G19  24536297.560   128939088.215          50.000                                                  
G24  23563264.620   123825715.051          50.000    23563268.280    92467246.379          50.000  
G25  21029867.100   110512639.414          50.000    21029869.160    82525672.098          50.000  
G29  23004352.820   120888670.613          50.000                                                  
E 2  24673242.200   129658754.797          50.000    24673245.860    96823086.805          50.000  
E15  25033367.540   131551189.859          50.000    25033373.540    98236262.313          50.000  
E27  26482939.400   139168752.063          50.000    26482944.240   103924702.957          50.000  
E30  22259723.260   116975608.609          50.000    22259726.960    87351903.063          50.000  
E36  25653635.540   134810723.598          50.000    25653640.900   100670330.746          50.000  
> 2020  6  4 20 57 49.0000000  0 13       0.000000000000
G 2  21245516.700   111645965.109          50.000                                                  
G 5  22549305.460   118497304.023          50.000                                                  
G 6  22911694.540   120401712.711          50.000    22911697.420    89910368.801          50.000  
G12  20078788.600   105514755.090          50.000                                                  
G19  24536831.080   128941891.832          50.000                                                  
G24  23563853.240   123828808.219          50.000    23563856.880    92469556.211          50.000  
G25  21029488.260   110510648.520          50.000    21029490.320    82524185.391          50.000  
G29  23003933.360   120886466.305          50.000                                                  
E 2  24673668.860   129660996.910          50.000    24673672.520    96824761.109          50.000  
E15  25033019.140   131549358.996          50.000    25033025.140    98234895.109          50.000  
E27  26482452.360   139166192.648          50.000    26482457.200   103922791.703          50.000  
E30  22259661.860   116975286.008          50.000    22259665.580    87351662.160          50.000  
E36  25654071.780   134813016.133          50.000    25654077.160   100672042.703          50.000  
> 2020  6  4 20 57 50.0000000  0 13       0.000000000000
G 2  21245803.300   111647471.188          50.000                                                  
G 5  22548769.740   118494488.734          50.000                                                  
G 6  22912275.020   120404763.086          50.000    22912277.880    89912646.676          50.000  
G12  20078752.060   105514563.059          50.000                                                  
G19  24537364.600   128944695.465          50.000                                                  
G24  23564441.860   123831901.500          50.000    23564445.520    92471866.129          50.000  
G25  21029109.480   110508658.051          50.000    21029111.540    82522699.004          50.000  
G29  23003513.900   120884262.117          50.000                                                  
E 2  24674095.580   129663239.332          50.000    24674099.240    96826435.645          50.000  
E15  25032670.780   131547528.375          50.000    25032676.780    98233528.090          50.000  
E27  26481965.340   139163633.379          50.000    26481970.200   103920880.563          50.000  
E30  22259600.560   116974963.824          50.000    22259604.260    87351421.566          50.000  
E36  25654508.040   134815308.711          50.000    25654513.420   100673754.691          50.000  
> 2020  6  4 20 57 51.0000000  0 13       0.000000000000
G 2  21246089.960   111648977.625          50.000                                                  
G 5  22548234.060   118491673.770          50.000                                                  
G 6  22912855.520   120407813.672          50.000    22912858.400    89914924.707          50.000  
G12  20078715.620   105514371.563          50.000                                                  
G19  24537898.100   128947499.094          50.000                                                  
G24  23565030.520   123834994.898          50.000    23565034.180    92474176.133          50.000  
G25  21028730.780   110506668.008          50.000    21028732.840    82521212.934          50.000  
G29  23003094.480   120882058.043          50.000                                                  
E 2  24674522.360   129665482.059          50.000    24674526.020    96828110.406          50.000  
E15  25032322.480   131545697.996          50.000    25032328.480    98232161.250          50.000  
E27  26481478.360   139161074.273          50.000    26481483.200   103918969.543          50.000  
E30  22259539.320   116974642.066          50.000    22259543.040    87351181.293          50.000  
E36  25654944.320   134817601.352          50.000    25654949.700   100675466.727          50.000  
> 2020  6  4 20 57 52.0000000  0 13       0.000000000000
G 2  21246376.700   111650484.422          50.000                                                  
G 5  22547698.460   118488859.141          50.000                                                  
G 6  22913436.060   120410864.457          50.000    22913438.940    89917202.895          50.000  
G12  20078679.280   105514180.625          50.000                                                  
G19  24538431.620   128950302.750          50.000                                                  
G24  23565619.200   123838088.391          50.000    23565622.840    92476486.207          50.000  
G25  21028352.180   110504678.375          50.000    21028354.240    82519727.168          50.000  
G29  23002675.100   120879854.098          50.000                                                  
E 2  24674949.200   129667725.094          50.000    24674952.860    96829785.402          50.000  
E15  25031974.220   131543867.867          50.000    25031980.220    98230794.594          50.000  
E27  26480991.400   139158515.332          50.000    26480996.260   103917058.645          50.000  
E30  22259478.180   116974320.730          50.000    22259481.900    87350941.336          50.000  
E36  25655380.600   134819894.039          50.000    25655385.980   100677178.797          50.000  
> 2020  6  4 20 57 53.0000000  0 13       0.000000000000
G 2  21246663.500   111651991.563          50.000                                                  
G 5  22547162.920   118486044.820          50.000                                                  
G 6  22914016.660   120413915.441          50.000    22914019.520    89919481.227          50.000  
G12  20078643.040   105513990.219          50.000                                                  
G19  24538965.140   128953106.398          50.000                                                  
G24  23566207.880   123841181.992          50.000    23566211.540    92478796.359          50.000  
G25  21027973.640   110502689.168          50.000    21027975.700    82518241.723          50.000  
G29  23002255.720   120877650.258          50.000                                                  
E 2  24675376.080   129669968.434          50.000    24675379.760    96831460.621          50.000  
E15  25031626.000   131542037.973          50.000    25031632.000    98229428.117          50.000  
E27  26480504.480   139155956.555          50.000    26480509.340   103915147.871          50.000  
E30  22259417.100   116973999.824          50.000    22259420.820    87350701.695          50.000  
E36  25655816.900   134822186.773          50.000    25655822.280   100678890.906          50.000  
> 2020  6  4 20 57 54.0000000  0 13       0.000000000000
G 2  21246950.360   111653499.078          50.000                                                  
G 5  22546627.420   118483230.824          50.000                                                  
G 6  22914597.280   120416966.641          50.000    22914600.160    89921759.715          50.000  
G12  20078606.920   105513800.363          50.000                                                  
G19  24539498.660   128955910.059          50.000                                                  
G24  23566796.600   123844275.719          50.000    23566800.260    92481106.609          50.000  
G25  21027595.180   110500700.387          50.000    21027597.240    82516756.594          50.000  
G29  23001836.360   120875446.559          50.000                                                  
E 2  24675803.040   129672212.094          50.000    24675806.700    96833136.082          50.000  
E15  25031277.820   131540208.332          50.000    25031283.820    98228061.824          50.000  
E27  26480017.600   139153397.922          50.000    26480022.440   103913237.203          50.000  
E30  22259356.120   116973679.332          50.000    22259359.840    87350462.367          50.000  
E36  25656253.200   134824479.570          50.000    25656258.580   100680603.055          50.000  
> 2020  6  4 20 57 55.0000000  0 13       0.000000000000
G 2  21247237.300   111655006.934          50.000                                                  
G 5  22546092.000   118480417.137          50.000                                                  
G 6  22915177.940   120420018.039          50.000    22915180.820    89924038.355          50.000  
G12  20078570.900   105513611.035          50.000                                                  
G19  24540032.180   128958713.730          50.000                                                  
G24  23567385.340   123847369.559          50.000    23567389.000    92483416.945          50.000  
G25  21027216.820   110498712.023          50.000    21027218.880    82515271.777          50.000  
G29  23001417.040   120873242.961          50.000                                                  
E 2  24676230.060   129674456.039          50.000    24676233.720    96834811.754          50.000  
E15  25030929.700   131538378.934          50.000    25030935.700    98226695.715          50.000  
E27  26479530.740   139150839.453          50.000    26479535.580   103911326.664          50.000  
E30  22259295.220   116973359.262          50.000    22259298.940    87350223.355          50.000  
E36  25656689.520   134826772.402          50.000    25656694.880   100682315.234          50.000  
> 2020  6  4 20 57 56.0000000  0 13       0.000000000000
G 2  21247524.300   111656515.152          50.000                                                  
G 5  22545556.640   118477603.785          50.000                                                  
G 6  22915758.640   120423069.645          50.000    22915761.520    89926317.152          50.000  
G12  20078534.960   105513422.266          50.000                                                  
G19  24540565.700   128961517.414          50.000                                                  
G24  23567974.100   123850463.516          50.000    23567977.760    92485727.363          50.000  
G25  21026838.520   110496724.074          50.000    21026840.580    82513787.273          50.000  
G29  23000997.720   120871039.500          50.000                                                  
E 2  24676657.120   129676700.301          50.000    24676660.780    96836487.660          50.000  
E15  25030581.620   131536549.773          50.000    25030587.620    98225329.789          50.000  
E27  26479043.900   139148281.145          50.000    26479048.760   103909416.238          50.000  
E30  22259234.380   116973039.613          50.000    22259238.100    87349984.656          50.000  
E36  25657125.840   134829065.301          50.000    25657131.220   100684027.465          50.000  
> 2020  6  4 20 57 57.0000000  0 13       0.000000000000
G 2  21247811.380   111658023.730          50.000                                                  
G 5  22545021.340   118474790.750          50.000                                                  
G 6  22916339.380   120426121.449          50.000    22916342.260    89928596.094          50.000  
G12  20078499.160   105513234.035          50.000                                                  
G19  24541099.240   128964321.098          50.000                                                  
G24  23568562.880   123853557.559          50.000    23568566.540    92488037.852          50.000  
G25  21026460.300   110494736.559          50.000    21026462.360    82512303.090          50.000  
G29  23000578.440   120868836.145          50.000                                                  
E 2  24677084.240   129678944.863          50.000    24677087.920    96838163.797          50.000  
E15  25030233.600   131534720.867          50.000    25030239.600    98223964.047          50.000  
E27  26478557.100   139145723.004          50.000    26478561.960   103907505.938          50.000  
E30  22259173.640   116972720.406          50.000    22259177.360    87349746.289          50.000  
E36  25657562.180   134831358.246          50.000    25657567.540   100685739.730          50.000  
> 2020  6  4 20 57 58.0000000  0 13       0.000000000000
G 2  21248098.520   111659532.656          50.000                                                  
G 5  22544486.080   118471978.035          50.000                                                  
G 6  22916920.160   120429173.461          50.000    22916923.040    89930875.191          50.000  
G12  20078463.440   105513046.355          50.000                                                  
G19  24541632.760   128967124.793          50.000                                                  
G24  23569151.680   123856651.715          50.000    23569155.340    92490348.422          50.000  
G25  21026082.180   110492749.461          50.000    21026084.240    82510819.215          50.000  
G29  23000159.180   120866632.922          50.000                                                  
E 2  24677511.440   129681189.738          50.000    24677515.100    96839840.160          50.000  
E15  25029885.600   131532892.195          50.000    25029891.620    98222598.480          50.000  
E27  26478070.340   139143165.016          50.000    26478075.180   103905595.754          50.000  
E30  22259112.980   116972401.605          50.000    22259116.700    87349508.223          50.000  
E36  25657998.520   134833651.242          50.000    25658003.900   100687452.031          50.000  
> 2020  6  4 20 57 59.0000000  0 13       0.000000000000
G 2  21248385.720   111661041.938          50.000                                                  
G 5  22543950.900   118469165.645          50.000                                                  
G 6  22917500.980   120432225.672          50.000    22917503.860    89933154.441          50.000  
G12  20078427.820   105512859.223          50.000                                                  
G19  24542166.280   128969928.496          50.000                                                  
G24  23569740.500   123859745.973          50.000    23569744.160    92492659.066          50.000  
G25  21025704.120   110490762.789          50.000    21025706.180    82509335.664          50.000  
G29  22999739.940   120864429.820          50.000                                                  
E 2  24677938.680   129683434.918          50.000    24677942.340    96841516.754          50.000  
E15  25029537.680   131531063.773          50.000    25029543.680    98221233.102          50.000  
E27  26477583.600   139140607.191          50.000    26477588.440   103903685.691          50.000  
E30  22259052.400   116972083.238          50.000    22259056.120    87349270.477          50.000  
E36  25658434.880   134835944.297          50.000    25658440.240   100689164.375          50.000  
> 2020  6  4 20 58  0.0000000  0 13       0.000000000000
G 2  21248673.000   111662551.578          50.000                                                  
G 5  22543415.780   118466353.578          50.000                                                  
G 6  22918081.840   120435278.090          50.000    22918084.720    89935433.844          50.000  
G12  20078392.320   105512672.633          50.000                                                  
G19  24542699.820   128972732.223          50.000                                                  
G24  23570329.340   123862840.340          50.000    23570333.000    92494969.797          50.000  
G25  21025326.160   110488776.531          50.000    21025328.200    82507852.418          50.000  
G29  22999320.720   120862226.832          50.000                                                  
E 2  24678365.980   129685680.406          50.000    24678369.640    96843193.578          50.000  
E15  25029189.780   131529235.598          50.000    25029195.780    98219867.906          50.000  
E27  26477096.880   139138049.535          50.000    26477101.740   103901775.754          50.000  
E30  22258991.900   116971765.293          50.000    22258995.620    87349033.055          50.000  
E36  25658871.240   134838237.402          50.000    25658876.600   100690876.758          50.000  
> 2020  6  4 20 58  1.0000000  0 13       0.000000000000
G 2  21248960.340   111664061.570          50.000                                                  
G 5  22542880.740   118463541.836          50.000                                                  
G 6  22918662.720   120438330.699          50.000    22918665.600    89937713.387          50.000  
G12  20078356.920   105512486.586          50.000                                                  
G19  24543233.360   128975535.949          50.000                                                  
G24  23570918.200   123865934.797          50.000    23570921.840    92497280.590          50.000  
G25  21024948.260   110486790.691          50.000    21024950.320    82506369.488          50.000  
G29  22998901.540   120860023.969          50.000                                                  
E 2  24678793.340   129687926.191          50.000    24678797.000    96844870.629          50.000  
E15  25028841.940   131527407.656          50.000    25028847.940    98218502.887          50.000  
E27  26476610.220   139135492.027          50.000    26476615.060   103899865.926          50.000  
E30  22258931.460   116971447.766          50.000    22258935.180    87348795.938          50.000  
E36  25659307.620   134840530.551          50.000    25659312.980   100692589.172          50.000  
> 2020  6  4 20 58  2.0000000  0 13       0.000000000000
G 2  21249247.760   111665571.918          50.000                                                  
G 5  22542345.740   118460730.414          50.000                                                  
G 6  22919243.660   120441383.527          50.000    22919246.540    89939993.098          50.000  
G12  20078321.620   105512301.078          50.000                                                  
G19  24543766.880   128978339.684          50.000                                                  
G24  23571507.080   123869029.375          50.000    23571510.720    92499591.473          50.000  
G25  21024570.440   110484805.293          50.000    21024572.500    82504886.887          50.000  
G29  22998482.360   120857821.230          50.000                                                  
E 2  24679220.760   129690172.293          50.000    24679224.420    96846547.910          50.000  
E15  25028494.140   131525579.965          50.000    25028500.140    98217138.051          50.000  
E27  26476123.560   139132934.672          50.000    26476128.420   103897956.215          50.000  
E30  22258871.120   116971130.660          50.000    22258874.840    87348559.137          50.000  
E36  25659744.000   134842823.758          50.000    25659749.360   100694301.633          50.000  
> 2020  6  4 20 58  3.0000000  0 13       0.000000000000
G 2  21249535.240   111667082.625          50.000                                                  
G 5  22541810.800   118457919.305          50.000                                                  
G 6  22919824.640   120444436.547          50.000    22919827.500    89942272.949          50.000  
G12  20078286.420   105512116.121          50.000                                                  
G19  24544300.420   128981143.426          50.000                                                  
G24  23572095.980   123872124.059          50.000    23572099.620    92501902.438          50.000  
G25  21024192.720   110482820.305          50.000    21024194.780    82503404.590          50.000  
G29  22998063.220   120855618.605          50.000                                                  
E 2  24679648.240   129692418.699          50.000    24679651.900    96848225.422          50.000  
E15  25028146.380   131523752.520          50.000    25028152.380    98215773.402          50.000  
E27  26475636.940   139130377.500          50.000    26475641.800   103896046.637          50.000  
E30  22258810.860   116970813.977          50.000    22258814.580    87348322.656          50.000  
E36  25660180.380   134845117.008          50.000    25660185.760   100696014.121          50.000  
> 2020  6  4 20 58  4.0000000  0 13       0.000000000000
G 2  21249822.780   111668593.684          50.000                                                  
G 5  22541275.920   118455108.531          50.000                                                  
G 6  22920405.640   120447489.777          50.000    22920408.520    89944552.957          50.000  
G12  20078251.320   105511931.719          50.000                                                  
G19  24544833.960   128983947.184          50.000                                                  
G24  23572684.900   123875218.844          50.000    23572688.540    92504213.477          50.000  
G25  21023815.060   110480835.734          50.000    21023817.120    82501922.605          50.000  
G29  22997644.100   120853416.098          50.000                                                  
E 2  24680075.780   129694665.402          50.000    24680079.440    96849903.156          50.000  
E15  25027798.680   131521925.316          50.000    25027804.680    98214408.930          50.000  
E27  26475150.360   139127820.469          50.000    26475155.200   103894137.168          50.000  
E30  22258750.680   116970497.734          50.000    22258754.400    87348086.496          50.000  
E36  25660616.780   134847410.320          50.000    25660622.160   100697726.660          50.000  
> 2020  6  4 20 58  5.0000000  0 13       0.000000000000
G 2  21250110.400   111670105.109          50.000                                                  
G 5  22540741.120   118452298.066          50.000                                                  
G 6  22920986.700   120450543.215          50.000    22920989.580    89946833.121          50.000  
G12  20078216.340   105511747.852          50.000                                                  
G19  24545367.500   128986750.949          50.000                                                  
G24  23573273.840   123878313.746          50.000    23573277.480    92506524.602          50.000  
G25  21023437.500   110478851.590          50.000    21023439.560    82500440.938          50.000  
G29  22997225.000   120851213.730          50.000                                                  
E 2  24680503.360   129696912.422          50.000    24680507.040    96851581.121          50.000  
E15  25027451.020   131520098.352          50.000    25027457.020    98213044.641          50.000  
E27  26474663.800   139125263.605          50.000    26474668.660   103892227.824          50.000  
E30  22258690.580   116970181.902          50.000    22258694.300    87347850.648          50.000  
E36  25661053.200   134849703.680          50.000    25661058.580   100699439.234          50.000  
> 2020  6  4 20 58  6.0000000  0 13       0.000000000000
G 2  21250398.080   111671616.883          50.000                                                  
G 5  22540206.360   118449487.934          50.000                                                  
G 6  22921567.780   120453596.840          50.000    22921570.660    89949113.426          50.000  
G12  20078181.460   105511564.520          50.000                                                  
G19  24545901.040   128989554.727          50.000                                                  
G24  23573862.800   123881408.762          50.000    23573866.460    92508835.816          50.000  
G25  21023060.000   110476867.859          50.000    21023062.060    82498959.582          50.000  
G29  22996805.920   120849011.461          50.000                                                  
E 2  24680931.020   129699159.746          50.000    24680934.680    96853259.316          50.000  
E15  25027103.400   131518271.645          50.000    25027109.400    98211680.543          50.000  
E27  26474177.280   139122706.902          50.000    26474182.120   103890318.598          50.000  
E30  22258630.560   116969866.496          50.000    22258634.280    87347615.121          50.000  
E36  25661489.620   134851997.094          50.000    25661495.000   100701151.848          50.000  
> 2020  6  4 20 58  7.0000000  0 13       0.000000000000
G 2  21250685.820   111673129.020          50.000                                                  
G 5  22539671.660   118446678.109          50.000                                                  
G 6  22922148.900   120456650.680          50.000    22922151.780    89951393.887          50.000  
G12  20078146.680   105511381.738          50.000                                                  
G19  24546434.580   128992358.516          50.000                                                  
G24  23574451.780   123884503.895          50.000    23574455.440    92511147.113          50.000  
G25  21022682.600   110474884.551          50.000    21022684.660    82497478.539          50.000  
G29  22996386.880   120846809.328          50.000                                                  
E 2  24681358.720   129701407.363          50.000    24681362.400    96854937.730          50.000  
E15  25026755.840   131516445.172          50.000    25026761.840    98210316.617          50.000  
E27  26473690.780   139120150.363          50.000    26473695.640   103888409.496          50.000  
E30  22258570.620   116969551.512          50.000    22258574.340    87347379.902          50.000  
E36  25661926.060   134854290.555          50.000    25661931.420   100702864.496          50.000  
> 2020  6  4 20 58  8.0000000  0 13       0.000000000000
G 2  21250973.640   111674641.504          50.000                                                  
G 5  22539137.040   118443868.617          50.000                                                  
G 6  22922730.080   120459704.715          50.000    22922732.960    89953674.500          50.000  
G12  20078112.000   105511199.496          50.000                                                  
G19  24546968.120   128995162.301          50.000                                                  
G24  23575040.780   123887599.133          50.000    23575044.440    92513458.492          50.000  
G25  21022305.260   110472901.684          50.000    21022307.320    82495997.828          50.000  
G29  22995967.840   120844607.309          50.000                                                  
E 2  24681786.500   129703655.301          50.000    24681790.160    96856616.387          50.000  
E15  25026408.320   131514618.941          50.000    25026414.320    98208952.875          50.000  
E27  26473204.320   139117593.992          50.000    26473209.180   103886500.520          50.000  
E30  22258510.760   116969236.957          50.000    22258514.480    87347145.008          50.000  
E36  25662362.500   134856584.074          50.000    25662367.860   100704577.188          50.000  
> 2020  6  4 20 58  9.0000000  0 13       0.000000000000
G 2  21251261.520   111676154.348          50.000                                                  
G 5  22538602.480   118441059.453          50.000                                                  
G 6  22923311.280   120462758.957          50.000    22923314.160    89955955.262          50.000  
G12  20078077.420   105511017.801          50.000                                                  
G19  24547501.680   128997966.109          50.000                                                  
G24  23575629.820   123890694.477          50.000    23575633.460    92515769.949          50.000  
G25  21021928.020   110470919.227          50.000    21021930.080    82494517.422          50.000  
G29  22995548.840   120842405.418          50.000                                                  
E 2  24682214.320   129705903.539          50.000    24682217.980    96858295.266          50.000  
E15  25026060.840   131512792.957          50.000    25026066.840    98207589.316          50.000  
E27  26472717.880   139115037.762          50.000    26472722.740   103884591.645          50.000  
E30  22258450.980   116968922.820          50.000    22258454.700    87346910.426          50.000  
E36  25662798.940   134858877.641          50.000    25662804.320   100706289.914          50.000  
> 2020  6  4 20 58 10.0000000  0 13       0.000000000000
G 2  21251549.480   111677667.535          50.000                                                  
G 5  22538067.960   118438250.609          50.000                                                  
G 6  22923892.520   120465813.406          50.000    22923895.400    89958236.180          50.000  
G12  20078042.940   105510836.652          50.000                                                  
G19  24548035.220   129000769.922          50.000                                                  
G24  23576218.860   123893789.934          50.000    23576222.520    92518081.492          50.000  
G25  21021550.840   110468937.191          50.000    21021552.900    82493037.332          50.000  
G29  22995129.840   120840203.645          50.000                                                  
E 2  24682642.200   129708152.086          50.000    24682645.880    96859974.371          50.000  
E15  25025713.420   131510967.223          50.000    25025719.420    98206225.945          50.000  
E27  26472231.480   139112481.707          50.000    26472236.340   103882682.906          50.000  
E30  22258391.300   116968609.117          50.000    22258395.020    87346676.168          50.000  
E36  25663235.420   134861171.258          50.000    25663240.780   100708002.680          50.000  
> 2020  6  4 20 58 11.0000000  0 13       0.000000000000
G 2  21251837.500   111679181.094          50.000                                                  
G 5  22537533.520   118435442.094          50.000                                                  
G 6  22924473.800   120468868.047          50.000    22924476.680    89960517.242          50.000  
G12  20078008.580   105510656.039          50.000                                                  
G19  24548568.780   129003573.738          50.000                                                  
G24  23576807.920   123896885.496          50.000    23576811.580    92520393.109          50.000  
G25  21021173.760   110466955.570          50.000    21021175.820    82491557.551          50.000  
G29  22994710.880   120838001.992          50.000                                                  
E 2  24683070.140   129710400.930          50.000    24683073.820    96861653.707          50.000  
E15  25025366.040   131509141.730          50.000    25025372.040    98204862.754          50.000  
E27  26471745.120   139109925.816          50.000    26471749.960   103880774.285          50.000  
E30  22258331.680   116968295.832          50.000    22258335.400    87346442.219          50.000  
E36  25663671.880   134863464.918          50.000    25663677.260   100709715.480          50.000  
> 2020  6  4 20 58 12.0000000  0 13       0.000000000000
G 2  21252125.580   111680695.012          50.000                                                  
G 5  22536999.140   118432633.891          50.000                                                  
G 6  22925055.120   120471922.902          50.000    22925058.000    89962798.465          50.000  
G12  20077974.300   105510475.969          50.000                                                  
G19  24549102.320   129006377.570          50.000                                                  
G24  23577397.020   123899981.160          50.000    23577400.680    92522704.809          50.000  
G25  21020796.760   110464974.391          50.000    21020798.800    82490078.098          50.000  
G29  22994291.940   120835800.461          50.000                                                  
E 2  24683498.140   129712650.094          50.000    24683501.820    96863333.277          50.000  
E15  25025018.700   131507316.480          50.000    25025024.700    98203499.742          50.000  
E27  26471258.780   139107370.078          50.000    26471263.620   103878865.781          50.000  
E30  22258272.140   116967982.969          50.000    22258275.860    87346208.590          50.000  
E36  25664108.360   134865758.648          50.000    25664113.740   100711428.328          50.000  
> 2020  6  4 20 58 13.0000000  0 13       0.000000000000
G 2  21252413.740   111682209.262          50.000                                                  
G 5  22536464.820   118429826.004          50.000                                                  
G 6  22925636.480   120474977.945          50.000    22925639.360    89965079.824          50.000  
G12  20077940.140   105510296.449          50.000                                                  
G19  24549635.880   129009181.414          50.000                                                  
G24  23577986.120   123903076.941          50.000    23577989.780    92525016.586          50.000  
G25  21020419.820   110462993.617          50.000    21020421.880    82488598.949          50.000  
G29  22993873.040   120833599.043          50.000                                                  
E 2  24683926.200   129714899.551          50.000    24683929.880    96865013.063          50.000  
E15  25024671.420   131505491.477          50.000    25024677.420    98202136.918          50.000  
E27  26470772.460   139104814.500          50.000    26470777.320   103876957.398          50.000  
E30  22258212.680   116967670.520          50.000    22258216.400    87345975.270          50.000  
E36  25664544.860   134868052.418          50.000    25664550.220   100713141.207          50.000  
> 2020  6  4 20 58 14.0000000  0 13       0.000000000000
G 2  21252701.960   111683723.871          50.000                                                  
G 5  22535930.560   118427018.457          50.000                                                  
G 6  22926217.860   120478033.195          50.000    22926220.740    89967361.344          50.000  
G12  20077906.080   105510117.469          50.000                                                  
G19  24550169.440   129011985.266          50.000                                                  
G24  23578575.240   123906172.828          50.000    23578578.900    92527328.453          50.000  
G25  21020042.980   110461013.270          50.000    21020045.040    82487120.117          50.000  
G29  22993454.140   120831397.750          50.000                                                  
E 2  24684354.320   129717149.316          50.000    24684358.000    96866693.082          50.000  
E15  25024324.180   131503666.707          50.000    25024330.180    98200774.266          50.000  
E27  26470286.180   139102259.082          50.000    26470291.040   103875049.133          50.000  
E30  22258153.300   116967358.504          50.000    22258157.020    87345742.270          50.000  
E36  25664981.360   134870346.238          50.000    25664986.720   100714854.125          50.000  
> 2020  6  4 20 58 15.0000000  0 13       0.000000000000
G 2  21252990.240   111685238.832          50.000                                                  
G 5  22535396.360   118424211.230          50.000                                                  
G 6  22926799.300   120481088.652          50.000    22926802.180    89969643.016          50.000  
G12  20077872.140   105509939.039          50.000                                                  
G19  24550703.000   129014789.141          50.000                                                  
G24  23579164.400   123909268.832          50.000    23579168.060    92529640.402          50.000  
G25  21019666.200   110459033.340          50.000    21019668.260    82485641.602          50.000  
G29  22993035.280   120829196.586          50.000                                                  
E 2  24684782.500   129719399.387          50.000    24684786.160    96868373.328          50.000  
E15  25023976.980   131501842.188          50.000    25023982.980    98199411.797          50.000  
E27  26469799.940   139099703.828          50.000    26469804.780   103873140.988          50.000  
E30  22258094.020   116967046.918          50.000    22258097.740    87345509.590          50.000  
E36  25665417.860   134872640.117          50.000    25665423.240   100716567.086          50.000  
> 2020  6  4 20 58 16.0000000  0 13       0.000000000000
G 2  21253278.600   111686754.152          50.000                                                  
G 5  22534862.220   118421404.328          50.000                                                  
G 6  22927380.780   120484144.309          50.000    22927383.660    89971924.836          50.000  
G12  20077838.280   105509761.156          50.000                                                  
G19  24551236.560   129017593.020          50.000                                                  
G24  23579753.580   123912364.945          50.000    23579757.240    92531952.430          50.000  
G25  21019289.520   110457053.844          50.000    21019291.580    82484163.406          50.000  
G29  22992616.420   120826995.531          50.000                                                  
E 2  24685210.740   129721649.777          50.000    24685214.400    96870053.813          50.000  
E15  25023629.840   131500017.914          50.000    25023635.840    98198049.516          50.000  
E27  26469313.720   139097148.734          50.000    26469318.560   103871232.965          50.000  
E30  22258034.800   116966735.754          50.000    22258038.520    87345277.227          50.000  
E36  25665854.380   134874934.039          50.000    25665859.760   100718280.078          50.000  
> 2020  6  4 20 58 17.0000000  0 13       0.000000000000
G 2  21253567.020   111688269.824          50.000                                                  
G 5  22534328.140   118418597.746          50.000                                                  
G 6  22927962.280   120487200.172          50.000    22927965.160    89974206.809          50.000  
G12  20077804.540   105509583.820          50.000                                                  
G19  24551770.120   129020396.891          50.000                                                  
G24  23580342.760   123915461.164          50.000    23580346.420    92534264.539          50.000  
G25  21018912.920   110455074.777          50.000    21018914.980    82482685.531          50.000  
G29  22992197.600   120824794.598          50.000                                                  
E 2  24685639.020   129723900.461          50.000    24685642.700    96871734.520          50.000  
E15  25023282.720   131498193.887          50.000    25023288.720    98196687.418          50.000  
E27  26468827.520   139094593.809          50.000    26468832.380   103869325.066          50.000  
E30  22257975.680   116966425.012          50.000    22257979.380    87345045.180          50.000  
E36  25666290.920   134877228.020          50.000    25666296.280   100719993.117          50.000  
> 2020  6  4 20 58 18.0000000  0 13       0.000000000000
G 2  21253855.520   111689785.844          50.000                                                  
G 5  22533794.140   118415791.492          50.000                                                  
G 6  22928543.840   120490256.227          50.000    22928546.720    89976488.926          50.000  
G12  20077770.900   105509407.016          50.000                                                  
G19  24552303.680   129023200.793          50.000                                                  
G24  23580931.980   123918557.492          50.000    23580935.640    92536576.734          50.000  
G25  21018536.400   110453096.125          50.000    21018538.440    82481207.969          50.000  
G29  22991778.800   120822593.781          50.000                                                  
E 2  24686067.380   129726151.449          50.000    24686071.040    96873415.449          50.000  
E15  25022935.680   131496370.102          50.000    25022941.680    98195325.504          50.000  
E27  26468341.380   139092039.039          50.000    26468346.220   103867417.285          50.000  
E30  22257916.620   116966114.691          50.000    22257920.340    87344813.449          50.000  
E36  25666727.460   134879522.043          50.000    25666732.820   100721706.184          50.000  
> 2020  6  4 20 58 19.0000000  0 13       0.000000000000
G 2  21254144.060   111691302.211          50.000                                                  
G 5  22533260.180   118412985.570          50.000                                                  
G 6  22929125.420   120493312.480          50.000    22929128.300    89978771.191          50.000  
G12  20077737.360   105509230.762          50.000                                                  
G19  24552837.240   129026004.691          50.000                                                  
G24  23581521.220   123921653.945          50.000    23581524.880    92538889.016          50.000  
G25  21018159.940   110451117.895          50.000    21018162.000    82479730.719          50.000  
G29  22991360.020   120820393.094          50.000                                                  
E 2  24686495.780   129728402.734          50.000    24686499.440    96875096.602          50.000  
E15  25022588.660   131494546.551          50.000    25022594.660    98193963.762          50.000  
E27  26467855.240   139089484.426          50.000    26467860.080   103865509.621          50.000  
E30  22257857.640   116965804.797          50.000    22257861.360    87344582.031          50.000  
E36  25667164.000   134881816.125          50.000    25667169.380   100723419.297          50.000  
> 2020  6  4 20 58 20.0000000  0 13       0.000000000000
G 2  21254432.700   111692818.953          50.000                                                  
G 5  22532726.300   118410179.984          50.000                                                  
G 6  22929707.040   120496368.945          50.000    22929709.940    89981053.617          50.000  
G12  20077703.920   105509055.055          50.000                                                  
G19  24553370.820   129028808.609          50.000                                                  
G24  23582110.460   123924750.473          50.000    23582114.120    92541201.359          50.000  
G25  21017783.580   110449140.086          50.000    21017785.640    82478253.781          50.000  
G29  22990941.260   120818192.516          50.000                                                  
E 2  24686924.240   129730654.340          50.000    24686927.920    96876778.000          50.000  
E15  25022241.700   131492723.254          50.000    25022247.700    98192602.211          50.000  
E27  26467369.140   139086929.977          50.000    26467374.000   103863602.078          50.000  
E30  22257798.760   116965495.332          50.000    22257802.480    87344350.938          50.000  
E36  25667600.560   134884110.246          50.000    25667605.940   100725132.438          50.000  
> 2020  6  4 20 58 21.0000000  0 13       0.000000000000
G 2  21254721.380   111694336.039          50.000                                                  
G 5  22532192.460   118407374.711          50.000                                                  
G 6  22930288.720   120499425.605          50.000    22930291.600    89983336.188          50.000  
G12  20077670.580   105508879.891          50.000                                                  
G19  24553904.380   129031612.531          50.000                                                  
G24  23582699.740   123927847.102          50.000    23582703.400    92543513.777          50.000  
G25  21017407.300   110447162.707          50.000    21017409.360    82476777.168          50.000  
G29  22990522.540   120815992.063          50.000                                                  
E 2  24687352.760   129732906.238          50.000    24687356.440    96878459.609          50.000  
E15  25021894.780   131490900.199          50.000    25021900.780    98191240.836          50.000  
E27  26466883.080   139084375.688          50.000    26466887.920   103861694.656          50.000  
E30  22257739.940   116965186.277          50.000    22257743.660    87344120.148          50.000  
E36  25668037.120   134886404.422          50.000    25668042.500   100726845.621          50.000  
> 2020  6  4 20 58 22.0000000  0 13       0.000000000000
G 2  21255010.140   111695853.480          50.000                                                  
G 5  22531658.700   118404569.773          50.000                                                  
G 6  22930870.420   120502482.469          50.000    22930873.300    89985618.910          50.000  
G12  20077637.360   105508705.277          50.000                                                  
G19  24554437.960   129034416.469          50.000                                                  
G24  23583289.020   123930943.836          50.000    23583292.680    92545826.270          50.000  
G25  21017031.100   110445185.758          50.000    21017033.160    82475300.875          50.000  
G29  22990103.820   120813791.730          50.000                                                  
E 2  24687781.360   129735158.457          50.000    24687785.020    96880141.457          50.000  
E15  25021547.920   131489077.391          50.000    25021553.920    98189879.648          50.000  
E27  26466397.040   139081821.563          50.000    26466401.900   103859787.355          50.000  
E30  22257681.220   116964877.660          50.000    22257684.940    87343889.688          50.000  
E36  25668473.700   134888698.656          50.000    25668479.080   100728558.848          50.000  
> 2020  6  4 20 58 23.0000000  0 13       0.000000000000
G 2  21255298.980   111697371.285          50.000                                                  
G 5  22531125.000   118401765.168          50.000                                                  
G 6  22931452.160   120505539.531          50.000    22931455.040    89987901.781          50.000  
G12  20077604.240   105508531.199          50.000                                                  
G19  24554971.540   129037220.414          50.000                                                  
G24  23583878.340   123934040.676          50.000    23583882.000    92548138.844          50.000  
G25  21016654.980   110443209.227          50.000    21016657.040    82473824.895          50.000  
G29  22989685.140   120811591.516          50.000                                                  
E 2  24688210.000   129737410.973          50.000    24688213.660    96881823.531          50.000  
E15  25021201.100   131487254.832          50.000    25021207.100    98188518.648          50.000  
E27  26465911.040   139079267.598          50.000    26465915.880   103857880.176          50.000  
E30  22257622.580   116964569.465          50.000    22257626.300    87343659.543          50.000  
E36  25668910.300   134890992.941          50.000    25668915.660   100730272.113          50.000  
> 2020  6  4 20 58 24.0000000  0 13       0.000000000000
G 2  21255587.880   111698889.441          50.000                                                  
G 5  22530591.380   118398960.898          50.000                                                  
G 6  22932033.940   120508596.793          50.000    22932036.820    89990184.797          50.000  
G12  20077571.200   105508357.664          50.000                                                  
G19  24555505.100   129040024.371          50.000                                                  
G24  23584467.660   123937137.637          50.000    23584471.320    92550451.508          50.000  
G25  21016278.940   110441233.109          50.000    21016280.980    82472349.223          50.000  
G29  22989266.480   120809391.426          50.000                                                  
E 2  24688638.680   129739663.793          50.000    24688642.360    96883505.832          50.000  
E15  25020854.320   131485432.508          50.000    25020860.320    98187157.824          50.000  
E27  26465425.080   139076713.805          50.000    26465429.920   103855973.121          50.000  
E30  22257564.000   116964261.691          50.000    22257567.720    87343429.711          50.000  
E36  25669346.900   134893287.270          50.000    25669352.260   100731985.406          50.000  
> 2020  6  4 20 58 25.0000000  0 13       0.000000000000
G 2  21255876.840   111700407.957          50.000                                                  
G 5  22530057.800   118396156.934          50.000                                                  
G 6  22932615.760   120511654.258          50.000    22932618.640    89992467.969          50.000  
G12  20077538.300   105508184.684          50.000                                                  
G19  24556038.680   129042828.336          50.000                                                  
G24  23585057.020   123940234.699          50.000    23585060.680    92552764.250          50.000  
G25  21015902.980   110439257.422          50.000    21015905.020    82470873.871          50.000  
G29  22988847.820   120807191.457          50.000                                                  
E 2  24689067.440   129741916.910          50.000    24689071.120    96885188.355          50.000  
E15  25020507.580   131483610.418          50.000    25020513.580    98185797.176          50.000  
E27  26464939.120   139074160.164          50.000    26464943.980   103854066.184          50.000  
E30  22257505.520   116963954.340          50.000    22257509.240    87343200.199          50.000  
E36  25669783.500   134895581.656          50.000    25669788.880   100733698.746          50.000  
> 2020  6  4 20 58 26.0000000  0 13       0.000000000000
G 2  21256165.860   111701926.824          50.000                                                  
G 5  22529524.280   118393353.297          50.000                                                  
G 6  22933197.600   120514711.922          50.000    22933200.480    89994751.289          50.000  
G12  20077505.480   105508012.238          50.000                                                  
G19  24556572.260   129045632.316          50.000                                                  
G24  23585646.400   123943331.879          50.000    23585650.060    92555077.078          50.000  
G25  21015527.100   110437282.156          50.000    21015529.140    82469398.836          50.000  
G29  22988429.220   120804991.609          50.000                                                  
E 2  24689496.260   129744170.352          50.000    24689499.940    96886871.117          50.000  
E15  25020160.900   131481788.590          50.000    25020166.900    98184436.719          50.000  
E27  26464453.220   139071606.684          50.000    26464458.060   103852159.367          50.000  
E30  22257447.120   116963647.414          50.000    22257450.840    87342971.000          50.000  
E36  25670220.120   134897876.086          50.000    25670225.500   100735412.117          50.000  
> 2020  6  4 20 58 27.0000000  0 13       0.000000000000
G 2  21256454.960   111703446.043          50.000                                                  
G 5  22528990.820   118390549.980          50.000                                                  
G 6  22933779.500   120517769.789          50.000    22933782.380    89997034.762          50.000  
G12  20077472.760   105507840.340          50.000                                                  
G19  24557105.840   129048436.301          50.000                                                  
G24  23586235.780   123946429.156          50.000    23586239.440    92557389.977          50.000  
G25  21015151.300   110435307.313          50.000    21015153.340    82467924.117          50.000  
G29  22988010.620   120802791.887          50.000                                                  
E 2  24689925.140   129746424.086          50.000    24689928.800    96888554.102          50.000  
E15  25019814.260   131479967.000          50.000    25019820.260    98183076.441          50.000  
E27  26463967.340   139069053.371          50.000    26463972.180   103850252.672          50.000  
E30  22257388.780   116963340.906          50.000    22257392.500    87342742.113          50.000  
E36  25670656.740   134900170.570          50.000    25670662.120   100737125.531          50.000  
> 2020  6  4 20 58 28.0000000  0 13       0.000000000000
G 2  21256744.120   111704965.609          50.000                                                  
G 5  22528457.440   118387747.008          50.000                                                  
G 6  22934361.440   120520827.855          50.000    22934364.320    89999318.379          50.000  
G12  20077440.160   105507668.988          50.000                                                  
G19  24557639.440   129051240.293          50.000                                                  
G24  23586825.200   123949526.535          50.000    23586828.860    92559702.953          50.000  
G25  21014775.580   110433332.891          50.000    21014777.620    82466449.711          50.000  
G29  22987592.040   120800592.270          50.000                                                  
E 2  24690354.060   129748678.125          50.000    24690357.740    96890237.313          50.000  
E15  25019467.680   131478145.656          50.000    25019473.680    98181716.348          50.000  
E27  26463481.480   139066500.207          50.000    26463486.340   103848346.090          50.000  
E30  22257330.540   116963034.848          50.000    22257334.260    87342513.563          50.000  
E36  25671093.380   134902465.098          50.000    25671098.760   100738838.977          50.000  
> 2020  6  4 20 58 29.0000000  0 13       0.000000000000
G 2  21257033.360   111706485.539          50.000                                                  
G 5  22527924.100   118384944.348          50.000                                                  
G 6  22934943.400   120523886.125          50.000    22934946.280    90001602.152          50.000  
G12  20077407.660   105507498.172          50.000                                                  
G19  24558173.020   129054044.285          50.000                                                  
G24  23587414.620   123952624.023          50.000    23587418.300    92562016.012          50.000  
G25  21014399.940   110431358.902          50.000    21014401.980    82464975.629          50.000  
G29  22987173.500   120798392.789          50.000                                                  
E 2  24690783.040   129750932.469          50.000    24690786.720    96891920.750          50.000  
E15  25019121.120   131476324.551          50.000    25019127.120    98180356.430          50.000  
E27  26462995.660   139063947.219          50.000    26463000.520   103846439.637          50.000  
E30  22257272.380   116962729.188          50.000    22257276.100    87342285.309          50.000  
E36  25671530.020   134904759.680          50.000    25671535.400   100740552.465          50.000  
> 2020  6  4 20 58 30.0000000  0 13       0.000000000000
G 2  21257322.660   111708005.832          50.000                                                  
G 5  22527390.860   118382141.902          50.000                                                  
G 6  22935525.400   120526944.586          50.000    22935528.280    90003886.086          50.000  
G12  20077375.240   105507327.969          50.000                                                  
G19  24558706.580   129056848.250          50.000                                                  
G24  23588004.120   123955721.348          50.000    23588007.820    92564328.832          50.000  
G25  21014024.380   110429385.305          50.000    21014026.420    82463501.848          50.000  
G29  22986754.960   120796193.434          50.000                                                  
E 2  24691212.100   129753187.059          50.000    24691215.780    96893604.340          50.000  
E15  25018774.620   131474503.699          50.000    25018780.620    98178996.715          50.000  
E27  26462509.880   139061394.371          50.000    26462514.720   103844533.293          50.000  
E30  22257214.300   116962423.926          50.000    22257218.020    87342057.340          50.000  
E36  25671966.680   134907054.309          50.000    25671972.040   100742265.984          50.000  
> 2020  6  4 20 58 31.0000000  0 13       0.000000000000
G 2  21257612.020   111709526.480          50.000                                                  
G 5  22526857.660   118379339.902          50.000                                                  
G 6  22936107.440   120530003.262          50.000    22936110.320    90006170.164          50.000  
G12  20077342.940   105507158.258          50.000                                                  
G19  24559240.180   129059652.277          50.000                                                  
G24  23588593.600   123958819.066          50.000    23588597.280    92566642.059          50.000  
G25  21013648.900   110427412.168          50.000    21013650.940    82462028.402          50.000  
G29  22986336.460   120793994.195          50.000                                                  
E 2  24691641.200   129755442.027          50.000    24691644.880    96895288.246          50.000  
E15  25018428.160   131472683.090          50.000    25018434.160    98177637.168          50.000  
E27  26462024.120   139058841.707          50.000    26462028.960   103842627.086          50.000  
E30  22257156.300   116962119.133          50.000    22257160.020    87341829.734          50.000  
E36  25672403.340   134909348.996          50.000    25672408.720   100743979.547          50.000  
> 2020  6  4 20 58 32.0000000  0 13       0.000000000000
G 2  21257901.460   111711047.469          50.000                                                  
G 5  22526324.500   118376538.223          50.000                                                  
G 6  22936689.540   120533062.133          50.000    22936692.420    90008454.387          50.000  
G12  20077310.740   105506989.090          50.000                                                  
G19  24559773.760   129062456.309          50.000                                                  
G24  23589183.080   123961916.891          50.000    23589186.780    92568955.367          50.000  
G25  21013273.500   110425439.445          50.000    21013275.540    82460555.266          50.000  
G29  22985917.980   120791795.078          50.000                                                  
E 2  24692070.360   129757697.293          50.000    24692074.040    96896972.371          50.000  
E15  25018081.760   131470862.727          50.000    25018087.760    98176277.809          50.000  
E27  26461538.380   139056289.199          50.000    26461543.220   103840720.992          50.000  
E30  22257098.380   116961814.758          50.000    22257102.100    87341602.441          50.000  
E36  25672840.020   134911643.742          50.000    25672845.380   100745693.156          50.000  
> 2020  6  4 20 58 33.0000000  0 13       0.000000000000
G 2  21258190.960   111712568.813          50.000                                                  
G 5  22525791.420   118373736.871          50.000                                                  
G 6  22937271.660   120536121.211          50.000    22937274.540    90010738.758          50.000  
G12  20077278.660   105506820.469          50.000                                                  
G19  24560307.360   129065260.352          50.000                                                  
G24  23589772.600   123965014.805          50.000    23589776.300    92571268.742          50.000  
G25  21012898.180   110423467.160          50.000    21012900.240    82459082.457          50.000  
G29  22985499.520   120789596.078          50.000                                                  
E 2  24692499.580   129759952.867          50.000    24692503.260    96898656.727          50.000  
E15  25017735.400   131469042.602          50.000    25017741.400    98174918.625          50.000  
E27  26461052.680   139053736.859          50.000    26461057.520   103838815.027          50.000  
E30  22257040.540   116961510.816          50.000    22257044.260    87341375.473          50.000  
E36  25673276.700   134913938.527          50.000    25673282.060   100747406.793          50.000  
> 2020  6  4 20 58 34.0000000  0 13       0.000000000000
G 2  21258480.520   111714090.500          50.000                                                  
G 5  22525258.400   118370935.867          50.000                                                  
G 6  22937853.820   120539180.488          50.000    22937856.700    90013023.285          50.000  
G12  20077246.680   105506652.387          50.000                                                  
G19  24560840.960   129068064.414          50.000                                                  
G24  23590362.140   123968112.805          50.000    23590365.820    92573582.184          50.000  
G25  21012522.940   110421495.293          50.000    21012525.000    82457609.961          50.000  
G29  22985081.080   120787397.207          50.000                                                  
E 2  24692928.860   129762208.738          50.000    24692932.540    96900341.305          50.000  
E15  25017389.100   131467222.734          50.000    25017395.080    98173559.633          50.000  
E27  26460567.020   139051184.680          50.000    26460571.860   103836909.180          50.000  
E30  22256982.780   116961207.289          50.000    22256986.500    87341148.813          50.000  
E36  25673713.380   134916233.367          50.000    25673718.760   100749120.473          50.000  
> 2020  6  4 20 58 35.0000000  0 13       0.000000000000
G 2  21258770.160   111715612.543          50.000                                                  
G 5  22524725.440   118368135.160          50.000                                                  
G 6  22938436.020   120542239.965          50.000    22938438.900    90015307.957          50.000  
G12  20077214.800   105506484.863          50.000                                                  
G19  24561374.540   129070868.473          50.000                                                  
G24  23590951.680   123971210.895          50.000    23590955.380    92575895.691          50.000  
G25  21012147.780   110419523.844          50.000    21012149.840    82456137.773          50.000  
G29  22984662.680   120785198.465          50.000                                                  
E 2  24693358.200   129764464.918          50.000    24693361.880    96902026.113          50.000  
E15  25017042.820   131465403.098          50.000    25017048.820    98172200.816          50.000  
E27  26460081.380   139048632.668          50.000    26460086.220   103835003.457          50.000  
E30  22256925.100   116960904.191          50.000    22256928.820    87340922.473          50.000  
E36  25674150.080   134918528.262          50.000    25674155.460   100750834.191          50.000  
> 2020  6  4 20 58 36.0000000  0 13       0.000000000000
G 2  21259059.860   111717134.934          50.000                                                  
G 5  22524192.560   118365334.805          50.000                                                  
G 6  22939018.240   120545299.641          50.000    22939021.120    90017592.777          50.000  
G12  20077183.020   105506317.867          50.000                                                  
G19  24561908.140   129073672.559          50.000                                                  
G24  23591541.240   123974309.074          50.000    23591544.940    92578209.266          50.000  
G25  21011772.720   110417552.828          50.000    21011774.760    82454665.910          50.000  
G29  22984244.280   120782999.824          50.000                                                  
E 2  24693787.600   129766721.406          50.000    24693791.280    96903711.152          50.000  
E15  25016696.600   131463583.711          50.000    25016702.600    98170842.184          50.000  
E27  26459595.780   139046080.813          50.000    26459600.620   103833097.852          50.000  
E30  22256867.500   116960601.508          50.000    22256871.220    87340696.445          50.000  
E36  25674586.800   134920823.203          50.000    25674592.180   100752547.945          50.000  
> 2020  6  4 20 58 37.0000000  0 13       0.000000000000
G 2  21259349.620   111718657.684          50.000                                                  
G 5  22523659.720   118362534.770          50.000                                                  
G 6  22939600.520   120548359.512          50.000    22939603.400    90019877.746          50.000  
G12  20077151.340   105506151.441          50.000                                                  
G19  24562441.740   129076476.645          50.000                                                  
G24  23592130.820   123977407.395          50.000    23592134.520    92580522.945          50.000  
G25  21011397.720   110415582.242          50.000    21011399.780    82453194.371          50.000  
G29  22983825.920   120780801.320          50.000                                                  
E 2  24694217.040   129768978.199          50.000    24694220.720    96905396.422          50.000  
E15  25016350.440   131461764.582          50.000    25016356.420    98169483.742          50.000  
E27  26459110.220   139043529.125          50.000    26459115.060   103831192.371          50.000  
E30  22256809.980   116960299.258          50.000    22256813.700    87340470.734          50.000  
E36  25675023.520   134923118.195          50.000    25675028.900   100754261.738          50.000  
> 2020  6  4 20 58 38.0000000  0 13       0.000000000000
G 2  21259639.460   111720180.797          50.000                                                  
G 5  22523126.960   118359735.051          50.000                                                  
G 6  22940182.840   120551419.586          50.000    22940185.720    90022162.867          50.000  
G12  20077119.780   105505985.551          50.000                                                  
G19  24562975.340   129079280.746          50.000                                                  
G24  23592720.440   123980505.809          50.000    23592724.140    92582836.695          50.000  
G25  21011022.820   110413612.074          50.000    21011024.860    82451723.141          50.000  
G29  22983407.580   120778602.938          50.000                                                  
E 2  24694646.560   129771235.289          50.000    24694650.240    96907081.910          50.000  
E15  25016004.300   131459945.676          50.000    25016010.300    98168125.469          50.000  
E27  26458624.660   139040977.598          50.000    26458629.500   103829287.012          50.000  
E30  22256752.540   116959997.438          50.000    22256756.260    87340245.352          50.000  
E36  25675460.240   134925413.234          50.000    25675465.620   100755975.566          50.000  
> 2020  6  4 20 58 39.0000000  0 13       0.000000000000
G 2  21259929.360   111721704.254          50.000                                                  
G 5  22522594.240   118356935.688          50.000                                                  
G 6  22940765.180   120554479.863          50.000    22940768.060    90024448.137          50.000  
G12  20077088.300   105505820.223          50.000                                                  
G19  24563508.940   129082084.863          50.000                                                  
G24  23593310.060   123983604.320          50.000    23593313.760    92585150.520          50.000  
G25  21010647.980   110411642.332          50.000    21010650.020    82450252.230          50.000  
G29  22982989.260   120776404.664          50.000                                                  
E 2  24695076.120   129773492.691          50.000    24695079.800    96908767.633          50.000  
E15  25015658.220   131458127.016          50.000    25015664.220    98166767.379          50.000  
E27  26458139.160   139038426.227          50.000    26458144.000   103827381.766          50.000  
E30  22256695.180   116959696.031          50.000    22256698.900    87340020.273          50.000  
E36  25675896.980   134927708.328          50.000    25675902.360   100757689.434          50.000  
> 2020  6  4 20 58 40.0000000  0 13       0.000000000000
G 2  21260219.320   111723228.066          50.000                                                  
G 5  22522061.600   118354136.641          50.000                                                  
G 6  22941347.560   120557540.336          50.000    22941350.460    90026733.555          50.000  
G12  20077056.940   105505655.449          50.000                                                  
G19  24564042.560   129084888.984          50.000                                                  
G24  23593899.700   123986702.941          50.000    23593903.400    92587464.422          50.000  
G25  21010273.220   110409673.008          50.000    21010275.280    82448781.633          50.000  
G29  22982570.960   120774206.531          50.000                                                  
E 2  24695505.740   129775750.391          50.000    24695509.420    96910453.574          50.000  
E15  25015312.180   131456308.605          50.000    25015318.180    98165409.477          50.000  
E27  26457653.680   139035875.023          50.000    26457658.520   103825476.648          50.000  
E30  22256637.900   116959395.063          50.000    22256641.620    87339795.523          50.000  
E36  25676333.740   134930003.473          50.000    25676339.120   100759403.340          50.000  
> 2020  6  4 20 58 41.0000000  0 13       0.000000000000
G 2  21260509.360   111724752.230          50.000                                                  
G 5  22521529.020   118351337.910          50.000                                                  
G 6  22941930.000   120560601.012          50.000    22941932.880    90029019.125          50.000  
G12  20077025.700   105505491.219          50.000                                                  
G19  24564576.160   129087693.102          50.000                                                  
G24  23594489.380   123989801.664          50.000    23594493.080    92589778.402          50.000  
G25  21009898.560   110407704.109          50.000    21009900.600    82447311.348          50.000  
G29  22982152.700   120772008.504          50.000                                                  
E 2  24695935.420   129778008.395          50.000    24695939.100    96912139.746          50.000  
E15  25014966.200   131454490.441          50.000    25014972.200    98164051.758          50.000  
E27  26457168.220   139033323.980          50.000    26457173.060   103823571.652          50.000  
E30  22256580.720   116959094.516          50.000    22256584.440    87339571.090          50.000  
E36  25676770.500   134932298.664          50.000    25676775.880   100761117.281          50.000  
> 2020  6  4 20 58 42.0000000  0 13       0.000000000000
G 2  21260799.480   111726276.758          50.000                                                  
G 5  22520996.500   118348539.523          50.000                                                  
G 6  22942512.460   120563661.887          50.000    22942515.340    90031304.840          50.000  
G12  20076994.540   105505327.520          50.000                                                  
G19  24565109.760   129090497.250          50.000                                                  
G24  23595079.060   123992900.480          50.000    23595082.760    92592092.453          50.000  
G25  21009523.960   110405735.641          50.000    21009526.020    82445841.391          50.000  
G29  22981734.440   120769810.602          50.000                                                  
E 2  24696365.180   129780266.715          50.000    24696368.860    96913826.152          50.000  
E15  25014620.260   131452672.516          50.000    25014626.240    98162694.219          50.000  
E27  26456682.800   139030773.105          50.000    26456687.640   103821666.777          50.000  
E30  22256523.600   116958794.391          50.000    22256527.320    87339346.973          50.000  
E36  25677207.260   134934593.898          50.000    25677212.640   100762831.254          50.000  
> 2020  6  4 20 58 43.0000000  0 13       0.000000000000
G 2  21261089.640   111727801.637          50.000                                                  
G 5  22520464.040   118345741.461          50.000                                                  
G 6  22943094.960   120566722.957          50.000    22943097.840    90033590.703          50.000  
G12  20076963.500   105505164.383          50.000                                                  
G19  24565643.380   129093301.402          50.000                                                  
G24  23595668.760   123995999.410          50.000    23595672.460    92594406.586          50.000  
G25  21009149.460   110403767.609          50.000    21009151.520    82444371.758          50.000  
G29  22981316.220   120767612.820          50.000                                                  
E 2  24696794.980   129782525.332          50.000    24696798.660    96915512.785          50.000  
E15  25014274.360   131450854.832          50.000    25014280.360    98161336.859          50.000  
E27  26456197.420   139028222.383          50.000    26456202.260   103819762.020          50.000  
E30  22256466.560   116958494.691          50.000    22256470.280    87339123.176          50.000  
E36  25677644.040   134936889.191          50.000    25677649.420   100764545.273          50.000  
> 2020  6  4 20 58 44.0000000  0 13       0.000000000000
G 2  21261379.880   111729326.863          50.000                                                  
G 5  22519931.660   118342943.723          50.000                                                  
G 6  22943677.500   120569784.223          50.000    22943680.380    90035876.711          50.000  
G12  20076932.560   105505001.781          50.000                                                  
G19  24566177.000   129096105.563          50.000                                                  
G24  23596258.500   123999098.453          50.000    23596262.200    92596720.805          50.000  
G25  21008775.040   110401799.996          50.000    21008777.080    82442902.434          50.000  
G29  22980898.000   120765415.156          50.000                                                  
E 2  24697224.840   129784784.254          50.000    24697228.520    96917199.645          50.000  
E15  25013928.520   131449037.398          50.000    25013934.500    98159979.691          50.000  
E27  26455712.060   139025671.828          50.000    26455716.900   103817857.391          50.000  
E30  22256409.620   116958195.410          50.000    22256413.340    87338899.688          50.000  
E36  25678080.840   134939184.527          50.000    25678086.200   100766259.324          50.000  
> 2020  6  4 20 58 45.0000000  0 13       0.000000000000
G 2  21261670.200   111730852.445          50.000                                                  
G 5  22519399.320   118340146.313          50.000                                                  
G 6  22944260.080   120572845.703          50.000    22944262.960    90038162.883          50.000  
G12  20076901.720   105504839.723          50.000                                                  
G19  24566710.600   129098909.738          50.000                                                  
G24  23596848.240   124002197.594          50.000    23596851.940    92599035.098          50.000  
G25  21008400.680   110399832.801          50.000    21008402.740    82441433.426          50.000  
G29  22980479.820   120763217.617          50.000                                                  
E 2  24697654.740   129787043.473          50.000    24697658.420    96918886.727          50.000  
E15  25013582.720   131447220.195          50.000    25013588.700    98158622.691          50.000  
E27  26455226.740   139023121.441          50.000    26455231.580   103815952.887          50.000  
E30  22256352.740   116957896.555          50.000    22256356.460    87338676.520          50.000  
E36  25678517.640   134941479.918          50.000    25678523.000   100767973.418          50.000  
> 2020  6  4 20 58 46.0000000  0 13       0.000000000000
G 2  21261960.560   111732378.375          50.000                                                  
G 5  22518867.040   118337349.219          50.000                                                  
G 6  22944842.700   120575907.367          50.000    22944845.580    90040449.188          50.000  
G12  20076870.980   105504678.203          50.000                                                  
G19  24567244.220   129101713.914          50.000                                                  
G24  23597438.000   124005296.852          50.000    23597441.700    92601349.473          50.000  
G25  21008026.420   110397866.027          50.000    21008028.460    82439964.730          50.000  
G29  22980061.680   120761020.199          50.000                                                  
E 2  24698084.720   129789303.004          50.000    24698088.400    96920574.043          50.000  
E15  25013236.960   131445403.250          50.000    25013242.940    98157265.887          50.000  
E27  26454741.440   139020571.199          50.000    26454746.280   103814048.492          50.000  
E30  22256295.960   116957598.117          50.000    22256299.680    87338453.664          50.000  
E36  25678954.440   134943775.344          50.000    25678959.820   100769687.539          50.000  
> 2020  6  4 20 58 47.0000000  0 13       0.000000000000
G 2  21262251.000   111733904.672          50.000                                                  
G 5  22518334.840   118334552.457          50.000                                                  
G 6  22945425.340   120578969.234          50.000    22945428.220    90042735.645          50.000  
G12  20076840.340   105504517.234          50.000                                                  
G19  24567777.840   129104518.102          50.000                                                  
G24  23598027.800   124008396.230          50.000    23598031.500    92603663.945          50.000  
G25  21007652.240   110395899.691          50.000    21007654.280    82438496.363          50.000  
G29  22979643.540   120758822.895          50.000                                                  
E 2  24698514.760   129791562.832          50.000    24698518.440    96922261.578          50.000  
E15  25012891.260   131443586.539          50.000    25012897.240    98155909.258          50.000  
E27  26454256.180   139018021.137          50.000    26454261.020   103812144.227          50.000  
E30  22256239.240   116957300.117          50.000    22256242.960    87338231.137          50.000  
E36  25679391.260   134946070.836          50.000    25679396.620   100771401.707          50.000  
> 2020  6  4 20 58 48.0000000  0 13       0.000000000000
G 2  21262541.520   111735431.309          50.000                                                  
G 5  22517802.700   118331756.031          50.000                                                  
G 6  22946008.040   120582031.301          50.000    22946010.920    90045022.254          50.000  
G12  20076809.800   105504356.793          50.000                                                  
G19  24568311.460   129107322.301          50.000                                                  
G24  23598617.620   124011495.730          50.000    23598621.320    92605978.504          50.000  
G25  21007278.120   110393933.758          50.000    21007280.180    82437028.301          50.000  
G29  22979225.420   120756625.711          50.000                                                  
E 2  24698944.840   129793822.965          50.000    24698948.520    96923949.344          50.000  
E15  25012545.580   131441770.078          50.000    25012551.580    98154552.813          50.000  
E27  26453770.960   139015471.230          50.000    26453775.780   103810240.078          50.000  
E30  22256182.620   116957002.531          50.000    22256186.340    87338008.918          50.000  
E36  25679828.080   134948366.367          50.000    25679833.460   100773115.906          50.000  
> 2020  6  4 20 58 49.0000000  0 13       0.000000000000
G 2  21262832.080   111736958.301          50.000                                                  
G 5  22517270.620   118328959.938          50.000                                                  
G 6  22946590.760   120585093.566          50.000    22946593.640    90047309.012          50.000  
G12  20076779.380   105504196.906          50.000                                                  
G19  24568845.080   129110126.516          50.000                                                  
G24  23599207.440   124014595.316          50.000    23599211.140    92608293.129          50.000  
G25  21006904.100   110391968.273          50.000    21006906.160    82435560.566          50.000  
G29  22978807.340   120754428.652          50.000                                                  
E 2  24699374.980   129796083.402          50.000    24699378.660    96925637.336          50.000  
E15  25012199.980   131439953.859          50.000    25012205.960    98153196.551          50.000  
E27  26453285.760   139012921.484          50.000    26453290.580   103808336.055          50.000  
E30  22256126.080   116956705.379          50.000    22256129.780    87337787.023          50.000  
E36  25680264.920   134950661.957          50.000    25680270.280   100774830.148          50.000  
> 2020  6  4 20 58 50.0000000  0 13       0.000000000000
G 2  21263122.740   111738485.648          50.000                                                  
G 5  22516738.600   118326164.176          50.000                                                  
G 6  22947173.520   120588156.035          50.000    22947176.420    90049595.918          50.000  
G12  20076749.060   105504037.570          50.000                                                  
G19  24569378.700   129112930.738          50.000                                                  
G24  23599797.280   124017694.973          50.000    23599800.980    92610607.805          50.000  
G25  21006530.160   110390003.207          50.000    21006532.220    82434093.148          50.000  
G29  22978389.260   120752231.715          50.000                                                  
E 2  24699805.200   129798344.152          50.000    24699808.880    96927325.563          50.000  
E15  25011854.400   131438137.883          50.000    25011860.380    98151840.469          50.000  
E27  26452800.580   139010371.918          50.000    26452805.420   103806432.164          50.000  
E30  22256069.600   116956408.656          50.000    22256073.320    87337565.445          50.000  
E36  25680701.760   134952957.590          50.000    25680707.140   100776544.426          50.000  
> 2020  6  4 20 58 51.0000000  0 13       0.000000000000
G 2  21263413.440   111740013.348          50.000                                                  
G 5  22516206.640   118323368.738          50.000                                                  
G 6  22947756.340   120591218.699          50.000    22947759.220    90051882.969          50.000  
G12  20076718.840   105503878.777          50.000                                                  
G19  24569912.340   129115734.973          50.000                                                  
G24  23600387.140   124020794.723          50.000    23600390.860    92612922.555          50.000  
G25  21006156.300   110388038.570          50.000    21006158.360    82432626.047          50.000  
G29  22977971.220   120750034.895          50.000                                                  
E 2  24700235.460   129800605.207          50.000    24700239.140    96929014.016          50.000  
E15  25011508.880   131436322.145          50.000    25011514.860    98150484.566          50.000  
E27  26452315.440   139007822.500          50.000    26452320.280   103804528.383          50.000  
E30  22256013.220   116956112.352          50.000    22256016.940    87337344.184          50.000  
E36  25681138.620   134955253.273          50.000    25681143.980   100778258.738          50.000  
> 2020  6  4 20 58 52.0000000  0 13       0.000000000000
G 2  21263704.220   111741541.395          50.000                                                  
G 5  22515674.740   118320573.633          50.000                                                  
G 6  22948339.180   120594281.563          50.000    22948342.060    90054170.172          50.000  
G12  20076688.720   105503720.527          50.000                                                  
G19  24570445.960   129118539.219          50.000                                                  
G24  23600977.040   124023894.609          50.000    23600980.740    92615237.402          50.000  
G25  21005782.520   110386074.359          50.000    21005784.580    82431159.270          50.000  
G29  22977553.200   120747838.195          50.000                                                  
E 2  24700665.780   129802866.555          50.000    24700669.460    96930702.688          50.000  
E15  25011163.400   131434506.656          50.000    25011169.380    98149128.848          50.000  
E27  26451830.340   139005273.246          50.000    26451835.160   103802624.723          50.000  
E30  22255956.920   116955816.465          50.000    22255960.640    87337123.234          50.000  
E36  25681575.480   134957549.008          50.000    25681580.860   100779973.086          50.000  
> 2020  6  4 20 58 53.0000000  0 13       0.000000000000
G 2  21263995.060   111743069.801          50.000                                                  
G 5  22515142.920   118317778.859          50.000                                                  
G 6  22948922.060   120597344.621          50.000    22948924.940    90056457.520          50.000  
G12  20076658.720   105503562.828          50.000                                                  
G19  24570979.600   129121343.477          50.000                                                  
G24  23601566.940   124026994.586          50.000    23601570.640    92617552.320          50.000  
G25  21005408.820   110384110.570          50.000    21005410.880    82429692.805          50.000  
G29  22977135.200   120745641.613          50.000                                                  
E 2  24701096.160   129805128.211          50.000    24701099.840    96932391.590          50.000  
E15  25010817.980   131432691.422          50.000    25010823.960    98147773.316          50.000  
E27  26451345.260   139002724.156          50.000    26451350.080   103800721.184          50.000  
E30  22255900.700   116955521.012          50.000    22255904.400    87336902.605          50.000  
E36  25682012.360   134959844.793          50.000    25682017.720   100781687.473          50.000  
> 2020  6  4 20 58 54.0000000  0 13       0.000000000000
G 2  21264285.980   111744598.555          50.000                                                  
G 5  22514611.140   118314984.398          50.000                                                  
G 6  22949504.980   120600407.879          50.000    22949507.860    90058745.020          50.000  
G12  20076628.800   105503405.660          50.000                                                  
G19  24571513.240   129124147.742          50.000                                                  
G24  23602156.860   124030094.684          50.000    23602160.580    92619867.328          50.000  
G25  21005035.220   110382147.203          50.000    21005037.260    82428226.656          50.000  
G29  22976717.240   120743445.152          50.000                                                  
E 2  24701526.600   129807390.172          50.000    24701530.280    96934080.711          50.000  
E15  25010472.600   131430876.418          50.000    25010478.580    98146417.961          50.000  
E27  26450860.220   139000175.238          50.000    26450865.040   103798817.773          50.000  
E30  22255844.560   116955225.977          50.000    22255848.260    87336682.289          50.000  
E36  25682449.240   134962140.621          50.000    25682454.600   100783401.891          50.000  
> 2020  6  4 20 58 55.0000000  0 13       0.000000000000
G 2  21264576.960   111746127.648          50.000                                                  
G 5  22514079.440   118312190.281          50.000                                                  
G 6  22950087.920   120603471.328          50.000    22950090.820    90061032.664          50.000  
G12  20076599.000   105503249.047          50.000                                                  
G19  24572046.860   129126952.016          50.000                                                  
G24  23602746.820   124033194.863          50.000    23602750.520    92622182.402          50.000  
G25  21004661.680   110380184.266          50.000    21004663.720    82426760.828          50.000  
G29  22976299.280   120741248.805          50.000                                                  
E 2  24701957.100   129809652.422          50.000    24701960.760    96935770.055          50.000  
E15  25010127.260   131429061.660          50.000    25010133.240    98145062.785          50.000  
E27  26450375.200   138997626.461          50.000    26450380.020   103796914.469          50.000  
E30  22255788.500   116954931.363          50.000    22255792.200    87336462.281          50.000  
E36  25682886.120   134964436.496          50.000    25682891.500   100785116.344          50.000  
> 2020  6  4 20 58 56.0000000  0 13       0.000000000000
G 2  21264868.000   111747657.109          50.000                                                  
G 5  22513547.800   118309396.477          50.000                                                  
G 6  22950670.920   120606534.969          50.000    22950673.800    90063320.449          50.000  
G12  20076569.300   105503092.969          50.000                                                  
G19  24572580.500   129129756.305          50.000                                                  
G24  23603336.780   124036295.133          50.000    23603340.480    92624497.539          50.000  
G25  21004288.220   110378221.750          50.000    21004290.260    82425295.320          50.000  
G29  22975881.360   120739052.586          50.000                                                  
E 2  24702387.640   129811914.996          50.000    24702391.320    96937459.641          50.000  
E15  25009781.960   131427247.141          50.000    25009787.940    98143707.785          50.000  
E27  26449890.220   138995077.859          50.000    26449895.040   103795011.293          50.000  
E30  22255732.500   116954637.176          50.000    22255736.220    87336242.594          50.000  
E36  25683323.040   134966732.430          50.000    25683328.400   100786830.836          50.000  
> 2020  6  4 20 58 57.0000000  0 13       0.000000000000
G 2  21265159.120   111749186.914          50.000                                                  
G 5  22513016.220   118306603.008          50.000                                                  
G 6  22951253.960   120609598.824          50.000    22951256.840    90065608.395          50.000  
G12  20076539.700   105502937.445          50.000                                                  
G19  24573114.140   129132560.602          50.000                                                  
G24  23603926.760   124039395.508          50.000    23603930.460    92626812.758          50.000  
G25  21003914.840   110376259.668          50.000    21003916.900    82423830.133          50.000  
G29  22975463.440   120736856.477          50.000                                                  
E 2  24702818.260   129814177.863          50.000    24702821.940    96939149.441          50.000  
E15  25009436.720   131425432.875          50.000    25009442.700    98142352.977          50.000  
E27  26449405.260   138992529.422          50.000    26449410.100   103793108.238          50.000  
E30  22255676.600   116954343.418          50.000    22255680.320    87336023.230          50.000  
E36  25683759.940   134969028.410          50.000    25683765.320   100788545.363          50.000  
> 2020  6  4 20 58 58.0000000  0 13       0.000000000000
G 2  21265450.300   111750717.070          50.000                                                  
G 5  22512484.700   118303809.859          50.000                                                  
G 6  22951837.020   120612662.863          50.000    22951839.900    90067896.480          50.000  
G12  20076510.220   105502782.457          50.000                                                  
G19  24573647.800   129135364.902          50.000                                                  
G24  23604516.760   124042496.004          50.000    23604520.460    92629128.063          50.000  
G25  21003541.560   110374297.996          50.000    21003543.600    82422365.254          50.000  
G29  22975045.560   120734660.504          50.000                                                  
E 2  24703248.920   129816441.039          50.000    24703252.600    96940839.473          50.000  
E15  25009091.520   131423618.855          50.000    25009097.500    98140998.352          50.000  
E27  26448920.340   138989981.152          50.000    26448925.180   103791205.309          50.000  
E30  22255620.800   116954050.090          50.000    22255624.500    87335804.184          50.000  
E36  25684196.860   134971324.438          50.000    25684202.240   100790259.930          50.000  
> 2020  6  4 20 58 59.0000000  0 13       0.000000000000
G 2  21265741.540   111752247.586          50.000                                                  
G 5  22511953.240   118301017.066          50.000                                                  
G 6  22952420.140   120615727.113          50.000    22952423.020    90070184.719          50.000  
G12  20076480.820   105502628.023          50.000                                                  
G19  24574181.440   129138169.211          50.000                                                  
G24  23605106.780   124045596.590          50.000    23605110.480    92631443.441          50.000  
G25  21003168.340   110372336.770          50.000    21003170.400    82420900.703          50.000  
G29  22974627.700   120732464.637          50.000                                                  
E 2  24703679.660   129818704.523          50.000    24703683.320    96942529.734          50.000  
E15  25008746.380   131421805.078          50.000    25008752.360    98139643.906          50.000  
E27  26448435.460   138987433.047          50.000    26448440.280   103789302.504          50.000  
E30  22255565.060   116953757.191          50.000    22255568.760    87335585.461          50.000  
E36  25684633.800   134973620.523          50.000    25684639.160   100791974.539          50.000  
> 2020  6  4 20 59  0.0000000  0 13       0.000000000000
G 2  21266032.860   111753778.441          50.000                                                  
G 5  22511421.860   118298224.582          50.000                                                  
G 6  22953003.280   120618791.547          50.000    22953006.160    90072473.102          50.000  
G12  20076451.540   105502474.129          50.000                                                  
G19  24574715.080   129140973.527          50.000                                                  
G24  23605696.840   124048697.285          50.000    23605700.540    92633758.898          50.000  
G25  21002795.220   110370375.953          50.000    21002797.260    82419436.461          50.000  
G29  22974209.880   120730268.910          50.000                                                  
E 2  24704110.440   129820968.313          50.000    24704114.120    96944220.227          50.000  
E15  25008401.260   131419991.543          50.000    25008407.240    98138289.645          50.000  
E27  26447950.600   138984885.105          50.000    26447955.420   103787399.820          50.000  
E30  22255509.400   116953464.711          50.000    22255513.100    87335367.051          50.000  
E36  25685070.740   134975916.645          50.000    25685076.100   100793689.172          50.000  
> 2020  6  4 20 59  1.0000000  0 13       0.000000000000
G 2  21266324.240   111755309.656          50.000                                                  
G 5  22510890.520   118295432.449          50.000                                                  
G 6  22953586.460   120621856.188          50.000    22953589.340    90074761.633          50.000  
G12  20076422.360   105502320.785          50.000                                                  
G19  24575248.720   129143777.855          50.000                                                  
G24  23606286.900   124051798.074          50.000    23606290.600    92636074.426          50.000  
G25  21002422.160   110368415.566          50.000    21002424.200    82417972.539          50.000  
G29  22973792.060   120728073.289          50.000                                                  
E 2  24704541.280   129823232.398          50.000    24704544.960    96945910.938          50.000  
E15  25008056.220   131418178.258          50.000    25008062.180    98136935.566          50.000  
E27  26447465.780   138982337.320          50.000    26447470.600   103785497.254          50.000  
E30  22255453.820   116953172.648          50.000    22255457.540    87335148.953          50.000  
E36  25685507.680   134978212.824          50.000    25685513.060   100795403.852          50.000  
> 2020  6  4 20 59  2.0000000  0 13       0.000000000000
G 2  21266615.680   111756841.223          50.000                                                  
G 5  22510359.260   118292640.637          50.000                                                  
G 6  22954169.680   120624921.023          50.000    22954172.560    90077050.313          50.000  
G12  20076393.280   105502167.984          50.000                                                  
G19  24575782.380   129146582.195          50.000                                                  
G24  23606876.980   124054898.961          50.000    23606880.680    92638390.023          50.000  
G25  21002049.200   110366455.617          50.000    21002051.240    82416508.945          50.000  
G29  22973374.280   120725877.797          50.000                                                  
E 2  24704972.180   129825496.785          50.000    24704975.860    96947601.879          50.000  
E15  25007711.200   131416365.215          50.000    25007717.180    98135581.672          50.000  
E27  26446980.980   138979789.703          50.000    26446985.800   103783594.813          50.000  
E30  22255398.320   116952881.016          50.000    22255402.040    87334931.172          50.000  
E36  25685944.640   134980509.051          50.000    25685950.000   100797118.566          50.000  
> 2020  6  4 20 59  3.0000000  0 13       0.000000000000
G 2  21266907.200   111758373.141          50.000                                                  
G 5  22509828.060   118289849.152          50.000                                                  
G 6  22954752.940   120627986.059          50.000    22954755.820    90079339.141          50.000  
G12  20076364.320   105502015.730          50.000                                                  
G19  24576316.020   129149386.543          50.000                                                  
G24  23607467.080   124057999.957          50.000    23607470.780    92640705.707          50.000  
G25  21001676.320   110364496.086          50.000    21001678.360    82415045.664          50.000  
G29  22972956.500   120723682.434          50.000                                                  
E 2  24705403.140   129827761.484          50.000    24705406.820    96949293.047          50.000  
E15  25007366.240   131414552.414          50.000    25007372.220    98134227.961          50.000  
E27  26446496.220   138977242.254          50.000    26446501.040   103781692.500          50.000  
E30  22255342.900   116952589.816          50.000    22255346.620    87334713.719          50.000  
E36  25686381.600   134982805.324          50.000    25686386.980   100798833.316          50.000  
> 2020  6  4 20 59  4.0000000  0 13       0.000000000000
G 2  21267198.780   111759905.398          50.000                                                  
G 5  22509296.920   118287057.984          50.000                                                  
G 6  22955336.220   120631051.285          50.000    22955339.100    90081628.109          50.000  
G12  20076335.440   105501864.020          50.000                                                  
G19  24576849.680   129152190.902          50.000                                                  
G24  23608057.200   124061101.043          50.000    23608060.900    92643021.453          50.000  
G25  21001303.500   110362536.980          50.000    21001305.540    82413582.699          50.000  
G29  22972538.760   120721487.176          50.000                                                  
E 2  24705834.160   129830026.480          50.000    24705837.820    96950984.441          50.000  
E15  25007021.320   131412739.848          50.000    25007027.300    98132874.422          50.000  
E27  26446011.480   138974694.965          50.000    26446016.300   103779790.305          50.000  
E30  22255287.580   116952299.043          50.000    22255291.300    87334496.586          50.000  
E36  25686818.580   134985101.648          50.000    25686823.960   100800548.102          50.000  
> 2020  6  4 20 59  5.0000000  0 13       0.000000000000
G 2  21267490.420   111761438.012          50.000                                                  
G 5  22508765.840   118284267.160          50.000                                                  
G 6  22955919.560   120634116.711          50.000    22955922.440    90083917.230          50.000  
G12  20076306.680   105501712.863          50.000                                                  
G19  24577383.340   129154995.273          50.000                                                  
G24  23608647.340   124064202.246          50.000    23608651.020    92645337.289          50.000  
G25  21000930.780   110360578.309          50.000    21000932.820    82412120.059          50.000  
G29  22972121.040   120719292.047          50.000                                                  
E 2  24706265.220   129832291.785          50.000    24706268.900    96952676.063          50.000  
E15  25006676.440   131410927.539          50.000    25006682.420    98131521.074          50.000  
E27  26445526.780   138972147.844          50.000    26445531.600   103777888.234          50.000  
E30  22255232.320   116952008.691          50.000    22255236.040    87334279.762          50.000  
E36  25687255.560   134987398.023          50.000    25687260.940   100802262.926          50.000  
> 2020  6  4 20 59  6.0000000  0 13       0.000000000000
G 2  21267782.140   111762970.969          50.000                                                  
G 5  22508234.840   118281476.676          50.000                                                  
G 6  22956502.940   120637182.348          50.000    22956505.800    90086206.508          50.000  
G12  20076278.020   105501562.242          50.000                                                  
G19  24577916.980   129157799.652          50.000                                                  
G24  23609237.480   124067303.527          50.000    23609241.180    92647653.184          50.000  
G25  21000558.140   110358620.055          50.000    21000560.180    82410657.734          50.000  
G29  22971703.340   120717097.031          50.000                                                  
E 2  24706696.360   129834557.398          50.000    24706700.040    96954367.914          50.000  
E15  25006331.620   131409115.461          50.000    25006337.600    98130167.902          50.000  
E27  26445042.100   138969600.879          50.000    26445046.920   103775986.281          50.000  
E30  22255177.160   116951718.762          50.000    22255180.860    87334063.258          50.000  
E36  25687692.560   134989694.449          50.000    25687697.940   100803977.789          50.000  
> 2020  6  4 20 59  7.0000000  0 13       0.000000000000
G 2  21268073.920   111764504.289          50.000                                                  
G 5  22507703.880   118278686.508          50.000                                                  
G 6  22957086.340   120640248.168          50.000    22957089.220    90088495.922          50.000  
G12  20076249.460   105501412.176          50.000                                                  
G19  24578450.640   129160604.031          50.000                                                  
G24  23609827.660   124070404.926          50.000    23609831.360    92649969.164          50.000  
G25  21000185.580   110356662.242          50.000    21000187.620    82409195.730          50.000  
G29  22971285.660   120714902.133          50.000                                                  
E 2  24707127.540   129836823.305          50.000    24707131.220    96956059.988          50.000  
E15  25005986.840   131407303.637          50.000    25005992.820    98128814.914          50.000  
E27  26444557.460   138967054.082          50.000    26444562.280   103774084.453          50.000  
E30  22255122.060   116951429.254          50.000    22255125.780    87333847.066          50.000  
E36  25688129.560   134991990.914          50.000    25688134.940   100805692.684          50.000  
> 2020  6  4 20 59  8.0000000  0 13       0.000000000000
G 2  21268365.760   111766037.965          50.000                                                  
G 5  22507173.000   118275896.680          50.000                                                  
G 6  22957669.780   120643314.199          50.000    22957672.660    90090785.488          50.000  
G12  20076221.000   105501262.660          50.000                                                  
G19  24578984.300   129163408.441          50.000                                                  
G24  23610417.860   124073506.422          50.000    23610421.560    92652285.215          50.000  
G25  20999813.100   110354704.855          50.000    20999815.140    82407734.047          50.000  
G29  22970868.020   120712707.355          50.000                                                  
E 2  24707558.800   129839089.523          50.000    24707562.480    96957752.293          50.000  
E15  25005642.100   131405492.063          50.000    25005648.080    98127462.117          50.000  
E27  26444072.860   138964507.461          50.000    26444077.680   103772182.754          50.000  
E30  22255067.060   116951140.184          50.000    22255070.760    87333631.199          50.000  
E36  25688566.580   134994287.441          50.000    25688571.960   100807407.621          50.000  
> 2020  6  4 20 59  9.0000000  0 13       0.000000000000
G 2  21268657.680   111767571.988          50.000                                                  
G 5  22506642.160   118273107.191          50.000                                                  
G 6  22958253.260   120646380.418          50.000    22958256.140    90093075.195          50.000  
G12  20076192.660   105501113.680          50.000                                                  
G19  24579517.960   129166212.840          50.000                                                  
G24  23611008.080   124076608.035          50.000    23611011.780    92654601.352          50.000  
G25  20999440.700   110352747.887          50.000    20999442.740    82406272.676          50.000  
G29  22970450.380   120710512.699          50.000                                                  
E 2  24707990.100   129841356.043          50.000    24707993.780    96959444.824          50.000  
E15  25005297.420   131403680.727          50.000    25005303.400    98126109.496          50.000  
E27  26443588.280   138961960.992          50.000    26443593.100   103770281.176          50.000  
E30  22255012.120   116950851.531          50.000    22255015.840    87333415.648          50.000  
E36  25689003.600   134996584.012          50.000    25689008.980   100809122.590          50.000  
> 2020  6  4 20 59 10.0000000  0 13       0.000000000000
G 2  21268949.660   111769106.359          50.000                                                  
G 5  22506111.400   118270318.000          50.000                                                  
G 6  22958836.780   120649446.824          50.000    22958839.660    90095365.043          50.000  
G12  20076164.420   105500965.266          50.000                                                  
G19  24580051.640   129169017.258          50.000                                                  
G24  23611598.300   124079709.691          50.000    23611602.000    92656917.523          50.000  
G25  20999068.380   110350791.348          50.000    20999070.420    82404811.625          50.000  
G29  22970032.780   120708318.176          50.000                                                  
E 2  24708421.460   129843622.859          50.000    24708425.140    96961137.574          50.000  
E15  25004952.780   131401869.633          50.000    25004958.760    98124757.059          50.000  
E27  26443103.740   138959414.691          50.000    26443108.560   103768379.715          50.000  
E30  22254957.280   116950563.305          50.000    22254961.000    87333200.418          50.000  
E36  25689440.640   134998880.625          50.000    25689446.000   100810837.590          50.000  
> 2020  6  4 20 59 11.0000000  0 13       0.000000000000
G 2  21269241.700   111770641.086          50.000                                                  
G 5  22505580.700   118267529.164          50.000                                                  
G 6  22959420.340   120652513.434          50.000    22959423.220    90097655.043          50.000  
G12  20076136.280   105500817.383          50.000                                                  
G19  24580585.300   129171821.676          50.000                                                  
G24  23612188.560   124082811.469          50.000    23612192.260    92659233.785          50.000  
G25  20998696.160   110348835.234          50.000    20998698.180    82403350.891          50.000  
G29  22969615.200   120706123.758          50.000                                                  
E 2  24708852.880   129845889.988          50.000    24708856.560    96962830.559          50.000  
E15  25004608.180   131400058.773          50.000    25004614.160    98123404.793          50.000  
E27  26442619.220   138956868.543          50.000    26442624.040   103766478.371          50.000  
E30  22254902.520   116950275.504          50.000    22254906.220    87332985.500          50.000  
E36  25689877.680   135001177.293          50.000    25689883.060   100812552.637          50.000  
> 2020  6  4 20 59 12.0000000  0 13       0.000000000000
G 2  21269533.820   111772176.168          50.000                                                  
G 5  22505050.060   118264740.652          50.000                                                  
G 6  22960003.940   120655580.250          50.000    22960006.820    90099945.199          50.000  
G12  20076108.240   105500670.047          50.000                                                  
G19  24581118.960   129174626.102          50.000                                                  
G24  23612778.820   124085913.363          50.000    23612782.520    92661550.133          50.000  
G25  20998324.000   110346879.547          50.000    20998326.040    82401890.477          50.000  
G29  22969197.640   120703929.469          50.000                                                  
E 2  24709284.360   129848157.410          50.000    24709288.040    96964523.766          50.000  
E15  25004263.640   131398248.180          50.000    25004269.620    98122052.727          50.000  
E27  26442134.740   138954322.582          50.000    26442139.560   103764577.168          50.000  
E30  22254847.820   116949988.129          50.000    22254851.540    87332770.902          50.000  
E36  25690314.720   135003474.004          50.000    25690320.100   100814267.715          50.000  
> 2020  6  4 20 59 13.0000000  0 13       0.000000000000
G 2  21269826.000   111773711.594          50.000                                                  
G 5  22504519.500   118261952.484          50.000                                                  
G 6  22960587.580   120658647.246          50.000    22960590.440    90102235.488          50.000  
G12  20076080.300   105500523.262          50.000                                                  
G19  24581652.620   129177430.543          50.000                                                  
G24  23613369.120   124089015.371          50.000    23613372.820    92663866.566          50.000  
G25  20997951.920   110344924.297          50.000    20997953.960    82400430.387          50.000  
G29  22968780.100   120701735.297          50.000                                                  
E 2  24709715.900   129850425.145          50.000    24709719.580    96966217.199          50.000  
E15  25003919.140   131396437.816          50.000    25003925.120    98120700.832          50.000  
E27  26441650.280   138951776.773          50.000    26441655.100   103762676.078          50.000  
E30  22254793.220   116949701.184          50.000    22254796.940    87332556.621          50.000  
E36  25690751.800   135005770.781          50.000    25690757.160   100815982.836          50.000  
> 2020  6  4 20 59 14.0000000  0 13       0.000000000000
G 2  21270118.260   111775247.367          50.000                                                  
G 5  22503988.980   118259164.637          50.000                                                  
G 6  22961171.240   120661714.445          50.000    22961174.120    90104525.926          50.000  
G12  20076052.480   105500377.020          50.000                                                  
G19  24582186.300   129180234.984          50.000                                                  
G24  23613959.440   124092117.484          50.000    23613963.140    92666183.078          50.000  
G25  20997579.940   110342969.461          50.000    20997581.960    82398970.605          50.000  
G29  22968362.580   120699541.246          50.000                                                  
E 2  24710147.480   129852693.180          50.000    24710151.160    96967910.863          50.000  
E15  25003574.680   131394627.703          50.000    25003580.660    98119349.125          50.000  
E27  26441165.860   138949231.125          50.000    26441170.680   103760775.109          50.000  
E30  22254738.700   116949414.664          50.000    22254742.420    87332342.664          50.000  
E36  25691188.860   135008067.590          50.000    25691194.240   100817697.984          50.000  
> 2020  6  4 20 59 15.0000000  0 13       0.000000000000
G 2  21270410.580   111776783.500          50.000                                                  
G 5  22503458.540   118256377.125          50.000                                                  
G 6  22961754.940   120664781.848          50.000    22961757.820    90106816.516          50.000  
G12  20076024.740   105500231.316          50.000                                                  
G19  24582719.960   129183039.438          50.000                                                  
G24  23614549.760   124095219.703          50.000    23614553.460    92668499.668          50.000  
G25  20997208.020   110341015.070          50.000    20997210.060    82397511.160          50.000  
G29  22967945.100   120697347.316          50.000                                                  
E 2  24710579.140   129854961.520          50.000    24710582.820    96969604.750          50.000  
E15  25003230.280   131392817.832          50.000    25003236.260    98117997.598          50.000  
E27  26440681.480   138946685.648          50.000    26440686.300   103758874.266          50.000  
E30  22254684.260   116949128.563          50.000    22254687.960    87332129.016          50.000  
E36  25691625.940   135010364.449          50.000    25691631.320   100819413.172          50.000  
> 2020  6  4 20 59 16.0000000  0 13       0.000000000000
G 2  21270702.960   111778319.980          50.000                                                  
G 5  22502928.160   118253589.957          50.000                                                  
G 6  22962338.700   120667849.438          50.000    22962341.560    90109107.250          50.000  
G12  20075997.120   105500086.164          50.000                                                  
G19  24583253.640   129185843.906          50.000                                                  
G24  23615140.120   124098322.035          50.000    23615143.820    92670816.344          50.000  
G25  20996836.200   110339061.094          50.000    20996838.220    82396052.020          50.000  
G29  22967527.620   120695153.508          50.000                                                  
E 2  24711010.840   129857230.168          50.000    24711014.520    96971298.871          50.000  
E15  25002885.920   131391008.207          50.000    25002891.900    98116646.258          50.000  
E27  26440197.120   138944140.336          50.000    26440201.940   103756973.547          50.000  
E30  22254629.900   116948842.891          50.000    22254633.600    87331915.691          50.000  
E36  25692063.020   135012661.359          50.000    25692068.400   100821128.398          50.000  
> 2020  6  4 20 59 17.0000000  0 13       0.000000000000
G 2  21270995.400   111779856.813          50.000                                                  
G 5  22502397.840   118250803.117          50.000                                                  
G 6  22962922.480   120670917.230          50.000    22962925.360    90111398.133          50.000  
G12  20075969.620   105499941.566          50.000                                                  
G19  24583787.320   129188648.367          50.000                                                  
G24  23615730.500   124101424.465          50.000    23615734.200    92673133.090          50.000  
G25  20996464.440   110337107.551          50.000    20996466.480    82394593.207          50.000  
G29  22967110.180   120692959.813          50.000                                                  
E 2  24711442.620   129859499.105          50.000    24711446.300    96972993.207          50.000  
E15  25002541.600   131389198.820          50.000    25002547.580    98115295.090          50.000  
E27  26439712.800   138941595.180          50.000    26439717.620   103755072.945          50.000  
E30  22254575.620   116948557.648          50.000    22254579.320    87331702.684          50.000  
E36  25692500.120   135014958.320          50.000    25692505.500   100822843.656          50.000  
> 2020  6  4 20 59 18.0000000  0 13       0.000000000000
G 2  21271287.920   111781394.000          50.000                                                  
G 5  22501867.580   118248016.609          50.000                                                  
G 6  22963506.300   120673985.223          50.000    22963509.180    90113689.164          50.000  
G12  20075942.200   105499797.512          50.000                                                  
G19  24584321.000   129191452.855          50.000                                                  
G24  23616320.900   124104527.000          50.000    23616324.600    92675449.918          50.000  
G25  20996092.780   110335154.438          50.000    20996094.820    82393134.711          50.000  
G29  22966692.760   120690766.238          50.000                                                  
E 2  24711874.440   129861768.352          50.000    24711878.120    96974687.773          50.000  
E15  25002197.340   131387389.684          50.000    25002203.300    98113944.113          50.000  
E27  26439228.500   138939050.203          50.000    26439233.320   103753172.477          50.000  
E30  22254521.420   116948272.840          50.000    22254525.140    87331490.000          50.000  
E36  25692937.240   135017255.332          50.000    25692942.600   100824558.957          50.000  
> 2020  6  4 20 59 19.0000000  0 13       0.000000000000
G 2  21271580.500   111782931.531          50.000                                                  
G 5  22501337.400   118245230.438          50.000                                                  
G 6  22964090.140   120677053.398          50.000    22964093.020    90115980.332          50.000  
G12  20075914.880   105499654.000          50.000                                                  
G19  24584854.680   129194257.348          50.000                                                  
G24  23616911.300   124107629.625          50.000    23616915.000    92677766.813          50.000  
G25  20995721.200   110333201.742          50.000    20995723.220    82391676.531          50.000  
G29  22966275.360   120688572.789          50.000                                                  
E 2  24712306.320   129864037.910          50.000    24712310.000    96976382.574          50.000  
E15  25001853.100   131385580.777          50.000    25001859.080    98112593.309          50.000  
E27  26438744.240   138936505.383          50.000    26438749.060   103751272.125          50.000  
E30  22254467.300   116947988.441          50.000    22254471.020    87331277.629          50.000  
E36  25693374.340   135019552.387          50.000    25693379.720   100826274.289          50.000  
> 2020  6  4 20 59 20.0000000  0 13       0.000000000000
G 2  21271873.160   111784469.414          50.000                                                  
G 5  22500807.260   118242444.598          50.000                                                  
G 6  22964674.040   120680121.777          50.000    22964676.920    90118271.656          50.000  
G12  20075887.680   105499511.039          50.000                                                  
G19  24585388.340   129197061.848          50.000                                                  
G24  23617501.740   124110732.355          50.000    23617505.440    92680083.785          50.000  
G25  20995349.700   110331249.488          50.000    20995351.720    82390218.680          50.000  
G29  22965857.980   120686379.461          50.000                                                  
E 2  24712738.260   129866307.766          50.000    24712741.940    96978077.594          50.000  
E15  25001508.940   131383772.137          50.000    25001514.900    98111242.699          50.000  
E27  26438260.000   138933960.738          50.000    26438264.820   103749371.906          50.000  
E30  22254413.260   116947704.469          50.000    22254416.980    87331065.570          50.000  
E36  25693811.480   135021849.492          50.000    25693816.840   100827989.660          50.000  
> 2020  6  4 20 59 21.0000000  0 13       0.000000000000
G 2  21272165.860   111786007.648          50.000                                                  
G 5  22500277.200   118239659.086          50.000                                                  
G 6  22965257.980   120683190.359          50.000    22965260.860    90120563.125          50.000  
G12  20075860.580   105499368.625          50.000                                                  
G19  24585922.040   129199866.367          50.000                                                  
G24  23618092.180   124113835.188          50.000    23618095.880    92682400.836          50.000  
G25  20994978.260   110329297.641          50.000    20994980.300    82388761.133          50.000  
G29  22965440.620   120684186.258          50.000                                                  
E 2  24713170.260   129868577.934          50.000    24713173.940    96979772.848          50.000  
E15  25001164.800   131381963.727          50.000    25001170.780    98109892.262          50.000  
E27  26437775.800   138931416.242          50.000    26437780.620   103747471.793          50.000  
E30  22254359.300   116947420.938          50.000    22254363.020    87330853.844          50.000  
E36  25694248.600   135024146.645          50.000    25694253.980   100829705.066          50.000  
> 2020  6  4 20 59 22.0000000  0 13       0.000000000000
G 2  21272458.640   111787546.223          50.000                                                  
G 5  22499747.200   118236873.910          50.000                                                  
G 6  22965841.940   120686259.125          50.000    22965844.820    90122854.738          50.000  
G12  20075833.580   105499226.758          50.000                                                  
G19  24586455.720   129202670.891          50.000                                                  
G24  23618682.660   124116938.109          50.000    23618686.360    92684717.949          50.000  
G25  20994606.940   110327346.254          50.000    20994608.960    82387303.926          50.000  
G29  22965023.300   120681993.168          50.000                                                  
E 2  24713602.320   129870848.391          50.000    24713606.000    96981468.320          50.000  
E15  25000820.720   131380155.563          50.000    25000826.700    98108542.016          50.000  
E27  26437291.640   138928871.918          50.000    26437296.460   103745571.813          50.000  
E30  22254305.440   116947137.820          50.000    22254309.140    87330642.422          50.000  
E36  25694685.740   135026443.844          50.000    25694691.120   100831420.508          50.000  
> 2020  6  4 20 59 23.0000000  0 13       0.000000000000
G 2  21272751.500   111789085.145          50.000                                                  
G 5  22499217.260   118234089.063          50.000                                                  
G 6  22966425.940   120689328.090          50.000    22966428.820    90125146.496          50.000  
G12  20075806.700   105499085.438          50.000                                                  
G19  24586989.400   129205475.410          50.000                                                  
G24  23619273.140   124120041.137          50.000    23619276.840    92687035.145          50.000  
G25  20994235.680   110325395.281          50.000    20994237.700    82385847.031          50.000  
G29  22964605.980   120679800.215          50.000                                                  
E 2  24714034.420   129873119.156          50.000    24714038.100    96983164.020          50.000  
E15  25000476.680   131378347.648          50.000    25000482.660    98107191.949          50.000  
E27  26436807.500   138926327.770          50.000    26436812.320   103743671.961          50.000  
E30  22254251.640   116946855.133          50.000    22254255.360    87330431.324          50.000  
E36  25695122.900   135028741.094          50.000    25695128.280   100833135.984          50.000  
> 2020  6  4 20 59 24.0000000  0 13       0.000000000000
G 2  21273044.420   111790624.438          50.000                                                  
G 5  22498687.380   118231304.559          50.000                                                  
G 6  22967010.000   120692397.262          50.000    22967012.880    90127438.410          50.000  
G12  20075779.900   105498944.664          50.000                                                  
G19  24587523.080   129208279.957          50.000                                                  
G24  23619863.640   124123144.250          50.000    23619867.340    92689352.402          50.000  
G25  20993864.500   110323444.746          50.000    20993866.540    82384390.465          50.000  
G29  22964188.700   120677607.359          50.000                                                  
E 2  24714466.600   129875390.227          50.000    24714470.280    96984859.949          50.000  
E15  25000132.700   131376539.973          50.000    25000138.680    98105842.059          50.000  
E27  26436323.400   138923783.785          50.000    26436328.220   103741772.234          50.000  
E30  22254197.920   116946572.871          50.000    22254201.640    87330220.543          50.000  
E36  25695560.060   135031038.395          50.000    25695565.440   100834851.500          50.000  
> 2020  6  4 20 59 25.0000000  0 13       0.000000000000
G 2  21273337.400   111792164.063          50.000                                                  
G 5  22498157.560   118228520.375          50.000                                                  
G 6  22967594.080   120695466.617          50.000    22967596.960    90129730.457          50.000  
G12  20075753.220   105498804.430          50.000                                                  
G19  24588056.780   129211084.500          50.000                                                  
G24  23620454.160   124126247.461          50.000    23620457.860    92691669.734          50.000  
G25  20993493.400   110321494.637          50.000    20993495.440    82382934.215          50.000  
G29  22963771.440   120675414.637          50.000                                                  
E 2  24714898.820   129877661.602          50.000    24714902.500    96986556.105          50.000  
E15  24999788.760   131374732.539          50.000    24999794.720    98104492.355          50.000  
E27  26435839.320   138921239.945          50.000    26435844.140   103739872.613          50.000  
E30  22254144.300   116946291.031          50.000    22254148.000    87330010.078          50.000  
E36  25695997.240   135033335.742          50.000    25696002.620   100836567.051          50.000  
> 2020  6  4 20 59 26.0000000  0 13       0.000000000000
G 2  21273630.440   111793704.113          50.000                                                  
G 5  22497627.820   118225736.531          50.000                                                  
G 6  22968178.200   120698536.098          50.000    22968181.080    90132022.668          50.000  
G12  20075726.640   105498664.766          50.000                                                  
G19  24588590.540   129213888.703          50.000                                                  
G24  23621044.740   124129350.563          50.000    23621048.460    92693986.969          50.000  
G25  20993122.380   110319545.020          50.000    20993124.380    82381478.488          50.000  
G29  22963354.180   120673222.102          50.000                                                  
E 2  24715331.120   129879933.270          50.000    24715334.800    96988252.480          50.000  
E15  24999444.860   131372925.402          50.000    24999450.820    98103142.895          50.000  
E27  26435355.300   138918696.152          50.000    26435360.140   103737972.945          50.000  
E30  22254090.720   116946009.719          50.000    22254094.420    87329800.074          50.000  
E36  25696434.420   135035633.125          50.000    25696439.800   100838282.621          50.000  
> 2020  6  4 20 59 27.0000000  0 13       0.000000000000
G 2  21273923.540   111795244.434          50.000                                                  
G 5  22497098.140   118222953.016          50.000                                                  
G 6  22968762.360   120701605.844          50.000    22968765.240    90134315.008          50.000  
G12  20075700.160   105498525.621          50.000                                                  
G19  24589124.240   129216693.258          50.000                                                  
G24  23621635.300   124132453.938          50.000    23621639.020    92696304.422          50.000  
G25  20992751.440   110317595.754          50.000    20992753.440    82380022.867          50.000  
G29  22962936.980   120671029.609          50.000                                                  
E 2  24715763.460   129882205.242          50.000    24715767.140    96989949.078          50.000  
E15  24999101.000   131371118.449          50.000    24999106.980    98101793.543          50.000  
E27  26434871.300   138916152.645          50.000    26434876.140   103736073.570          50.000  
E30  22254037.260   116945728.738          50.000    22254040.960    87329590.250          50.000  
E36  25696871.620   135037930.563          50.000    25696876.980   100839998.238          50.000  
> 2020  6  4 20 59 28.0000000  0 13       0.000000000000
G 2  21274216.740   111796785.102          50.000                                                  
G 5  22496568.520   118220169.828          50.000                                                  
G 6  22969346.560   120704675.777          50.000    22969349.420    90136607.488          50.000  
G12  20075673.800   105498387.031          50.000                                                  
G19  24589657.940   129219497.832          50.000                                                  
G24  23622225.880   124135557.438          50.000    23622229.600    92698621.969          50.000  
G25  20992380.600   110315646.906          50.000    20992382.600    82378567.559          50.000  
G29  22962519.780   120668837.242          50.000                                                  
E 2  24716195.860   129884477.520          50.000    24716199.540    96991645.906          50.000  
E15  24998757.200   131369311.750          50.000    24998763.180    98100444.383          50.000  
E27  26434387.320   138913609.309          50.000    26434392.160   103734174.324          50.000  
E30  22253983.860   116945448.176          50.000    22253987.560    87329380.738          50.000  
E36  25697308.820   135040228.043          50.000    25697314.200   100841713.887          50.000  
> 2020  6  4 20 59 29.0000000  0 13       0.000000000000
G 2  21274509.980   111798326.121          50.000                                                  
G 5  22496038.960   118217386.973          50.000                                                  
G 6  22969930.800   120707745.914          50.000    22969933.660    90138900.117          50.000  
G12  20075647.520   105498248.977          50.000                                                  
G19  24590191.620   129222302.398          50.000                                                  
G24  23622816.480   124138661.031          50.000    23622820.200    92700939.582          50.000  
G25  20992009.840   110313698.500          50.000    20992011.820    82377112.578          50.000  
G29  22962102.620   120666644.988          50.000                                                  
E 2  24716628.320   129886750.094          50.000    24716632.000    96993342.957          50.000  
E15  24998413.440   131367505.281          50.000    24998419.420    98099095.398          50.000  
E27  26433903.360   138911066.133          50.000    26433908.200   103732275.199          50.000  
E30  22253930.560   116945168.035          50.000    22253934.260    87329171.539          50.000  
E36  25697746.020   135042525.578          50.000    25697751.400   100843429.574          50.000  
> 2020  6  4 20 59 30.0000000  0 13       0.000000000000
G 2  21274803.300   111799867.484          50.000                                                  
G 5  22495509.480   118214604.461          50.000                                                  
G 6  22970515.060   120710816.242          50.000    22970517.920    90141192.895          50.000  
G12  20075621.360   105498111.473          50.000                                                  
G19  24590725.320   129225106.988          50.000                                                  
G24  23623407.100   124141764.707          50.000    23623410.800    92703257.262          50.000  
G25  20991639.140   110311750.516          50.000    20991641.140    82375657.914          50.000  
G29  22961685.460   120664452.852          50.000                                                  
E 2  24717060.840   129889022.973          50.000    24717064.520    96995040.234          50.000  
E15  24998069.740   131365699.074          50.000    24998075.700    98097746.605          50.000  
E27  26433419.460   138908523.121          50.000    26433424.300   103730376.195          50.000  
E30  22253877.340   116944888.320          50.000    22253881.040    87328962.660          50.000  
E36  25698183.240   135044823.156          50.000    25698188.620   100845145.297          50.000  
> 2020  6  4 20 59 31.0000000  0 13       0.000000000000
G 2  21275096.680   111801409.195          50.000                                                  
G 5  22494980.040   118211822.273          50.000                                                  
G 6  22971099.360   120713886.762          50.000    22971102.240    90143485.809          50.000  
G12  20075595.300   105497974.520          50.000                                                  
G19  24591259.020   129227911.578          50.000                                                  
G24  23623997.740   124144868.488          50.000    23624001.440    92705575.012          50.000  
G25  20991268.540   110309802.969          50.000    20991270.540    82374203.578          50.000  
G29  22961268.340   120662260.848          50.000                                                  
E 2  24717493.420   129891296.152          50.000    24717497.100    96996737.738          50.000  
E15  24997726.080   131363893.090          50.000    24997732.040    98096397.980          50.000  
E27  26432935.560   138905980.277          50.000    26432940.400   103728477.320          50.000  
E30  22253824.200   116944609.031          50.000    22253827.900    87328754.102          50.000  
E36  25698620.460   135047120.777          50.000    25698625.840   100846861.051          50.000  
> 2020  6  4 20 59 32.0000000  0 13       0.000000000000
G 2  21275390.120   111802951.258          50.000                                                  
G 5  22494450.680   118209040.426          50.000                                                  
G 6  22971683.700   120716957.480          50.000    22971686.580    90145778.875          50.000  
G12  20075569.340   105497838.109          50.000                                                  
G19  24591792.740   129230716.180          50.000                                                  
G24  23624588.380   124147972.379          50.000    23624592.100    92707892.852          50.000  
G25  20990898.020   110307855.848          50.000    20990900.020    82372749.559          50.000  
G29  22960851.240   120660068.957          50.000                                                  
E 2  24717926.040   129893569.637          50.000    24717929.740    96998435.469          50.000  
E15  24997382.460   131362087.371          50.000    24997388.440    98095049.551          50.000  
E27  26432451.720   138903437.602          50.000    26432456.560   103726578.566          50.000  
E30  22253771.140   116944330.180          50.000    22253774.820    87328545.867          50.000  
E36  25699057.700   135049418.453          50.000    25699063.080   100848576.844          50.000  
> 2020  6  4 20 59 33.0000000  0 13       0.000000000000
G 2  21275683.640   111804493.672          50.000                                                  
G 5  22493921.380   118206258.906          50.000                                                  
G 6  22972268.080   120720028.395          50.000    22972270.960    90148072.086          50.000  
G12  20075543.500   105497702.242          50.000                                                  
G19  24592326.440   129233520.793          50.000                                                  
G24  23625179.060   124151076.379          50.000    23625182.780    92710210.770          50.000  
G25  20990527.580   110305909.164          50.000    20990529.580    82371295.863          50.000  
G29  22960434.160   120657877.199          50.000                                                  
E 2  24718358.740   129895843.426          50.000    24718362.420    97000133.422          50.000  
E15  24997038.900   131360281.883          50.000    24997044.860    98093701.297          50.000  
E27  26431967.900   138900895.098          50.000    26431972.740   103724679.941          50.000  
E30  22253718.140   116944051.742          50.000    22253721.840    87328337.941          50.000  
E36  25699494.940   135051716.176          50.000    25699500.340   100850292.672          50.000  
> 2020  6  4 20 59 34.0000000  0 13       0.000000000000
G 2  21275977.220   111806036.426          50.000                                                  
G 5  22493392.140   118203477.727          50.000                                                  
G 6  22972852.500   120723099.508          50.000    22972855.380    90150365.449          50.000  
G12  20075517.760   105497566.926          50.000                                                  
G19  24592860.140   129236325.414          50.000                                                  
G24  23625769.760   124154180.500          50.000    23625773.480    92712528.777          50.000  
G25  20990157.220   110303962.879          50.000    20990159.220    82369842.469          50.000  
G29  22960017.120   120655685.547          50.000                                                  
E 2  24718791.480   129898117.516          50.000    24718795.180    97001831.605          50.000  
E15  24996695.360   131358476.645          50.000    24996701.340    98092353.230          50.000  
E27  26431484.100   138898352.758          50.000    26431488.940   103722781.438          50.000  
E30  22253665.240   116943773.738          50.000    22253668.940    87328130.340          50.000  
E36  25699932.200   135054013.941          50.000    25699937.580   100852008.535          50.000  
> 2020  6  4 20 59 35.0000000  0 13       0.000000000000
G 2  21276270.860   111807579.547          50.000                                                  
G 5  22492862.960   118200696.910          50.000                                                  
G 6  22973436.960   120726170.809          50.000    22973439.820    90152658.949          50.000  
G12  20075492.100   105497432.152          50.000                                                  
G19  24593393.860   129239130.051          50.000                                                  
G24  23626360.480   124157284.719          50.000    23626364.200    92714846.859          50.000  
G25  20989786.940   110302017.051          50.000    20989788.940    82368389.410          50.000  
G29  22959600.080   120653494.027          50.000                                                  
E 2  24719224.300   129900391.902          50.000    24719227.980    97003530.008          50.000  
E15  24996351.900   131356671.652          50.000    24996357.860    98091005.344          50.000  
E27  26431000.340   138895810.570          50.000    26431005.180   103720883.055          50.000  
E30  22253612.420   116943496.156          50.000    22253616.120    87327923.051          50.000  
E36  25700369.460   135056311.758          50.000    25700374.840   100853724.434          50.000  
> 2020  6  4 20 59 36.0000000  0 13       0.000000000000
G 2  21276564.580   111809123.004          50.000                                                  
G 5  22492333.860   118197916.422          50.000                                                  
G 6  22974021.440   120729242.309          50.000    22974024.320    90154952.598          50.000  
G12  20075466.560   105497297.938          50.000                                                  
G19  24593927.560   129241934.680          50.000                                                  
G24  23626951.220   124160389.012          50.000    23626954.920    92717164.996          50.000  
G25  20989416.740   110300071.648          50.000    20989418.740    82366936.676          50.000  
G29  22959183.080   120651302.621          50.000                                                  
E 2  24719657.160   129902666.605          50.000    24719660.840    97005228.648          50.000  
E15  24996008.460   131354866.902          50.000    24996014.440    98089657.641          50.000  
E27  26430516.620   138893268.559          50.000    26430521.460   103718984.797          50.000  
E30  22253559.700   116943219.008          50.000    22253563.400    87327716.090          50.000  
E36  25700806.740   135058609.625          50.000    25700812.120   100855440.371          50.000  
> 2020  6  4 20 59 37.0000000  0 13       0.000000000000
G 2  21276858.360   111810666.820          50.000                                                  
G 5  22491804.820   118195136.273          50.000                                                  
G 6  22974605.980   120732314.000          50.000    22974608.840    90157246.395          50.000  
G12  20075441.140   105497164.266          50.000                                                  
G19  24594461.280   129244739.332          50.000                                                  
G24  23627541.960   124163493.387          50.000    23627545.680    92719483.195          50.000  
G25  20989046.640   110298126.680          50.000    20989048.620    82365484.266          50.000  
G29  22958766.080   120649111.328          50.000                                                  
E 2  24720090.080   129904941.602          50.000    24720093.760    97006927.508          50.000  
E15  24995665.080   131353062.391          50.000    24995671.040    98088310.113          50.000  
E27  26430032.920   138890726.711          50.000    26430037.760   103717086.660          50.000  
E30  22253507.040   116942942.273          50.000    22253510.740    87327509.438          50.000  
E36  25701244.020   135060907.543          50.000    25701249.400   100857156.348          50.000  
> 2020  6  4 20 59 38.0000000  0 13       0.000000000000
G 2  21277152.200   111812210.980          50.000                                                  
G 5  22491275.840   118192356.457          50.000                                                  
G 6  22975190.540   120735385.879          50.000    22975193.400    90159540.328          50.000  
G12  20075415.800   105497031.141          50.000                                                  
G19  24594994.980   129247543.992          50.000                                                  
G24  23628132.720   124166597.875          50.000    23628136.440    92721801.477          50.000  
G25  20988676.600   110296182.129          50.000    20988678.600    82364032.164          50.000  
G29  22958349.120   120646920.164          50.000                                                  
E 2  24720523.060   129907216.906          50.000    24720526.740    97008626.594          50.000  
E15  24995321.740   131351258.129          50.000    24995327.720    98086962.773          50.000  
E27  26429549.260   138888185.031          50.000    26429554.100   103715188.652          50.000  
E30  22253454.460   116942665.969          50.000    22253458.160    87327303.105          50.000  
E36  25701681.320   135063205.496          50.000    25701686.700   100858872.348          50.000  
> 2020  6  4 20 59 39.0000000  0 13       0.000000000000
G 2  21277446.120   111813755.488          50.000                                                  
G 5  22490746.920   118189576.980          50.000                                                  
G 6  22975775.140   120738457.957          50.000    22975778.020    90161834.406          50.000  
G12  20075390.580   105496898.563          50.000                                                  
G19  24595528.700   129250348.660          50.000                                                  
G24  23628723.520   124169702.477          50.000    23628727.240    92724119.844          50.000  
G25  20988306.660   110294238.023          50.000    20988308.640    82362580.395          50.000  
G29  22957932.180   120644729.117          50.000                                                  
E 2  24720956.100   129909492.508          50.000    24720959.780    97010325.906          50.000  
E15  24994978.460   131349454.121          50.000    24994984.420    98085615.625          50.000  
E27  26429065.640   138885643.520          50.000    26429070.480   103713290.770          50.000  
E30  22253401.960   116942390.090          50.000    22253405.660    87327097.090          50.000  
E36  25702118.620   135065503.504          50.000    25702124.000   100860588.391          50.000  
> 2020  6  4 20 59 40.0000000  0 13       0.000000000000
G 2  21277740.100   111815300.348          50.000                                                  
G 5  22490218.060   118186797.824          50.000                                                  
G 6  22976359.780   120741530.227          50.000    22976362.640    90164128.629          50.000  
G12  20075365.460   105496766.539          50.000                                                  
G19  24596062.420   129253153.340          50.000                                                  
G24  23629314.320   124172807.164          50.000    23629318.040    92726438.277          50.000  
G25  20987936.780   110292294.340          50.000    20987938.780    82361128.941          50.000  
G29  22957515.260   120642538.191          50.000                                                  
E 2  24721389.180   129911768.414          50.000    24721392.880    97012025.445          50.000  
E15  24994635.200   131347650.340          50.000    24994641.180    98084268.645          50.000  
E27  26428582.040   138883102.160          50.000    26428586.880   103711393.000          50.000  
E30  22253349.560   116942114.641          50.000    22253353.260    87326891.395          50.000  
E36  25702555.920   135067801.559          50.000    25702561.300   100862304.465          50.000  
> 2020  6  4 20 59 41.0000000  0 13       0.000000000000
G 2  21278034.140   111816845.559          50.000                                                  
G 5  22489689.280   118184019.008          50.000                                                  
G 6  22976944.460   120744602.695          50.000    22976947.320    90166423.004          50.000  
G12  20075340.440   105496635.059          50.000                                                  
G19  24596596.140   129255958.020          50.000                                                  
G24  23629905.140   124175911.941          50.000    23629908.860    92728756.773          50.000  
G25  20987567.000   110290351.074          50.000    20987569.000    82359677.801          50.000  
G29  22957098.380   120640347.395          50.000                                                  
E 2  24721822.340   129914044.621          50.000    24721826.020    97013725.207          50.000  
E15  24994292.000   131345846.805          50.000    24994297.980    98082921.848          50.000  
E27  26428098.460   138880560.984          50.000    26428103.300   103709495.367          50.000  
E30  22253297.220   116941839.629          50.000    22253300.920    87326686.031          50.000  
E36  25702993.240   135070099.660          50.000    25702998.620   100864020.578          50.000  
> 2020  6  4 20 59 42.0000000  0 13       0.000000000000
G 2  21278328.260   111818391.121          50.000                                                  
G 5  22489160.560   118181240.535          50.000                                                  
G 6  22977529.160   120747675.359          50.000    22977532.040    90168717.523          50.000  
G12  20075315.520   105496504.117          50.000                                                  
G19  24597129.860   129258762.723          50.000                                                  
G24  23630496.000   124179016.805          50.000    23630499.720    92731075.340          50.000  
G25  20987197.300   110288408.262          50.000    20987199.300    82358226.996          50.000  
G29  22956681.500   120638156.703          50.000                                                  
E 2  24722255.540   129916321.133          50.000    24722259.240    97015425.195          50.000  
E15  24993948.860   131344043.527          50.000    24993954.840    98081575.242          50.000  
E27  26427614.920   138878019.969          50.000    26427619.780   103707597.855          50.000  
E30  22253244.980   116941565.035          50.000    22253248.680    87326480.973          50.000  
E36  25703430.560   135072397.813          50.000    25703435.960   100865736.730          50.000  
> 2020  6  4 20 59 43.0000000  0 13       0.000000000000
G 2  21278622.440   111819937.020          50.000                                                  
G 5  22488631.900   118178462.391          50.000                                                  
G 6  22978113.920   120750748.219          50.000    22978116.780    90171012.188          50.000  
G12  20075290.720   105496373.730          50.000                                                  
G19  24597663.580   129261567.438          50.000                                                  
G24  23631086.860   124182121.777          50.000    23631090.580    92733393.984          50.000  
G25  20986827.680   110286465.879          50.000    20986829.680    82356776.516          50.000  
G29  22956264.660   120635966.145          50.000                                                  
E 2  24722688.820   129918597.949          50.000    24722692.500    97017125.414          50.000  
E15  24993605.760   131342240.484          50.000    24993611.720    98080228.816          50.000  
E27  26427131.420   138875479.117          50.000    26427136.260   103705700.461          50.000  
E30  22253192.800   116941290.863          50.000    22253196.500    87326276.234          50.000  
E36  25703867.900   135074696.012          50.000    25703873.300   100867452.914          50.000  
> 2020  6  4 20 59 44.0000000  0 13       0.000000000000
G 2  21278916.680   111821483.277          50.000                                                  
G 5  22488103.300   118175684.574          50.000                                                  
G 6  22978698.700   120753821.270          50.000    22978701.580    90173306.996          50.000  
G12  20075266.020   105496243.883          50.000                                                  
G19  24598197.300   129264372.148          50.000                                                  
G24  23631677.740   124185226.867          50.000    23631681.460    92735712.715          50.000  
G25  20986458.140   110284523.906          50.000    20986460.120    82355326.344          50.000  
G29  22955847.840   120633775.699          50.000                                                  
E 2  24723122.140   129920875.055          50.000    24723125.820    97018825.848          50.000  
E15  24993262.700   131340437.684          50.000    24993268.660    98078882.566          50.000  
E27  26426647.940   138872938.430          50.000    26426652.800   103703803.195          50.000  
E30  22253140.720   116941017.121          50.000    22253144.420    87326071.813          50.000  
E36  25704305.240   135076994.254          50.000    25704310.640   100869169.129          50.000  
> 2020  6  4 20 59 45.0000000  0 13       0.000000000000
G 2  21279211.000   111823029.883          50.000                                                  
G 5  22487574.760   118172907.094          50.000                                                  
G 6  22979283.520   120756894.512          50.000    22979286.400    90175601.945          50.000  
G12  20075241.420   105496114.598          50.000                                                  
G19  24598731.040   129267176.871          50.000                                                  
G24  23632268.640   124188332.051          50.000    23632272.360    92738031.520          50.000  
G25  20986088.680   110282582.375          50.000    20986090.660    82353876.496          50.000  
G29  22955431.040   120631585.383          50.000                                                  
E 2  24723555.520   129923152.477          50.000    24723559.220    97020526.516          50.000  
E15  24992919.680   131338635.137          50.000    24992925.660    98077536.508          50.000  
E27  26426164.500   138870397.918          50.000    26426169.360   103701906.059          50.000  
E30  22253088.700   116940743.797          50.000    22253092.400    87325867.707          50.000  
E36  25704742.600   135079292.547          50.000    25704748.000   100870885.387          50.000  
> 2020  6  4 20 59 46.0000000  0 13       0.000000000000
G 2  21279505.380   111824576.840          50.000                                                  
G 5  22487046.300   118170129.941          50.000                                                  
G 6  22979868.380   120759967.953          50.000    22979871.260    90177897.043          50.000  
G12  20075216.920   105495985.855          50.000                                                  
G19  24599264.760   129269981.613          50.000                                                  
G24  23632859.560   124191437.313          50.000    23632863.280    92740350.379          50.000  
G25  20985719.300   110280641.266          50.000    20985721.300    82352426.965          50.000  
G29  22955014.260   120629395.180          50.000                                                  
E 2  24723988.960   129925430.199          50.000    24723992.660    97022227.410          50.000  
E15  24992576.720   131336832.820          50.000    24992582.680    98076190.621          50.000  
E27  26425681.100   138867857.566          50.000    26425685.940   103700009.043          50.000  
E30  22253036.780   116940470.914          50.000    22253040.480    87325663.930          50.000  
E36  25705179.960   135081590.883          50.000    25705185.360   100872601.672          50.000  
> 2020  6  4 20 59 47.0000000  0 13       0.000000000000
G 2  21279799.820   111826124.137          50.000                                                  
G 5  22486517.880   118167353.129          50.000                                                  
G 6  22980453.280   120763041.582          50.000    22980456.160    90180192.285          50.000  
G12  20075192.520   105495857.652          50.000                                                  
G19  24599798.480   129272786.352          50.000                                                  
G24  23633450.480   124194542.680          50.000    23633454.220    92742669.316          50.000  
G25  20985350.000   110278700.578          50.000    20985352.000    82350977.750          50.000  
G29  22954597.500   120627205.098          50.000                                                  
E 2  24724422.460   129927708.219          50.000    24724426.140    97023928.527          50.000  
E15  24992233.800   131335030.754          50.000    24992239.780    98074844.922          50.000  
E27  26425197.720   138865317.387          50.000    26425202.560   103698112.152          50.000  
E30  22252984.940   116940198.445          50.000    22252988.640    87325460.461          50.000  
E36  25705617.340   135083889.266          50.000    25705622.720   100874317.996          50.000  
> 2020  6  4 20 59 48.0000000  0 13       0.000000000000
G 2  21280094.340   111827671.785          50.000                                                  
G 5  22485989.540   118164576.645          50.000                                                  
G 6  22981038.220   120766115.410          50.000    22981041.100    90182487.672          50.000  
G12  20075168.240   105495730.000          50.000                                                  
G19  24600332.220   129275591.105          50.000                                                  
G24  23634041.440   124197648.152          50.000    23634045.180    92744988.336          50.000  
G25  20984980.780   110276760.324          50.000    20984982.780    82349528.855          50.000  
G29  22954180.760   120625015.137          50.000                                                  
E 2  24724856.000   129929986.535          50.000    24724859.700    97025629.867          50.000  
E15  24991890.920   131333228.926          50.000    24991896.900    98073499.398          50.000  
E27  26424714.380   138862777.359          50.000    26424719.220   103696215.379          50.000  
E30  22252933.160   116939926.406          50.000    22252936.860    87325257.313          50.000  
E36  25706054.720   135086187.699          50.000    25706060.100   100876034.355          50.000  
> 2020  6  4 20 59 49.0000000  0 13       0.000000000000
G 2  21280388.900   111829219.773          50.000                                                  
G 5  22485461.260   118161800.496          50.000                                                  
G 6  22981623.180   120769189.426          50.000    22981626.060    90184783.203          50.000  
G12  20075144.060   105495602.898          50.000                                                  
G19  24600865.960   129278395.879          50.000                                                  
G24  23634632.420   124200753.730          50.000    23634636.140    92747307.434          50.000  
G25  20984611.660   110274820.520          50.000    20984613.660    82348080.301          50.000  
G29  22953764.060   120622825.301          50.000                                                  
E 2  24725289.620   129932265.164          50.000    24725293.320    97027331.438          50.000  
E15  24991548.100   131331427.352          50.000    24991554.080    98072154.066          50.000  
E27  26424231.060   138860237.520          50.000    26424235.900   103694318.746          50.000  
E30  22252881.480   116939654.797          50.000    22252885.180    87325054.488          50.000  
E36  25706492.100   135088486.176          50.000    25706497.500   100877750.746          50.000  
> 2020  6  4 20 59 50.0000000  0 13       0.000000000000
G 2  21280683.540   111830768.113          50.000                                                  
G 5  22484933.040   118159024.684          50.000                                                  
G 6  22982208.180   120772263.637          50.000    22982211.060    90187078.875          50.000  
G12  20075119.980   105495476.348          50.000                                                  
G19  24601399.700   129281200.656          50.000                                                  
G24  23635223.420   124203859.414          50.000    23635227.140    92749626.605          50.000  
G25  20984242.600   110272881.141          50.000    20984244.600    82346632.063          50.000  
G29  22953347.360   120620635.590          50.000                                                  
E 2  24725723.300   129934544.098          50.000    24725726.980    97029033.234          50.000  
E15  24991205.320   131329626.016          50.000    24991211.300    98070808.910          50.000  
E27  26423747.780   138857697.832          50.000    26423752.620   103692422.223          50.000  
E30  22252829.880   116939383.613          50.000    22252833.580    87324851.980          50.000  
E36  25706929.500   135090784.711          50.000    25706934.900   100879467.184          50.000  
> 2020  6  4 20 59 51.0000000  0 13       0.000000000000
G 2  21280978.260   111832316.805          50.000                                                  
G 5  22484404.900   118156249.219          50.000                                                  
G 6  22982793.240   120775338.043          50.000    22982796.120    90189374.695          50.000  
G12  20075096.000   105495350.348          50.000                                                  
G19  24601933.440   129284005.438          50.000                                                  
G24  23635814.440   124206965.215          50.000    23635818.160    92751945.871          50.000  
G25  20983873.640   110270942.180          50.000    20983875.640    82345184.137          50.000  
G29  22952930.700   120618446.000          50.000                                                  
E 2  24726157.020   129936823.328          50.000    24726160.720    97030735.254          50.000  
E15  24990862.580   131327824.934          50.000    24990868.560    98069463.949          50.000  
E27  26423264.520   138855158.316          50.000    26423269.380   103690525.832          50.000  
E30  22252778.360   116939112.863          50.000    22252782.060    87324649.793          50.000  
E36  25707366.920   135093083.281          50.000    25707372.300   100881183.645          50.000  
> 2020  6  4 20 59 52.0000000  0 13       0.000000000000
G 2  21281273.040   111833865.836          50.000                                                  
G 5  22483876.800   118153474.082          50.000                                                  
G 6  22983378.320   120778412.637          50.000    22983381.200    90191670.656          50.000  
G12  20075072.120   105495224.891          50.000                                                  
G19  24602467.160   129286810.234          50.000                                                  
G24  23636405.460   124210071.082          50.000    23636409.200    92754265.184          50.000  
G25  20983504.740   110269003.664          50.000    20983506.740    82343736.543          50.000  
G29  22952514.060   120616256.527          50.000                                                  
E 2  24726590.800   129939102.855          50.000    24726594.500    97032437.496          50.000  
E15  24990519.900   131326024.086          50.000    24990525.880    98068119.156          50.000  
E27  26422781.300   138852618.969          50.000    26422786.160   103688629.563          50.000  
E30  22252726.920   116938842.531          50.000    22252730.620    87324447.922          50.000  
E36  25707804.340   135095381.906          50.000    25707809.720   100882900.148          50.000  
> 2020  6  4 20 59 53.0000000  0 13       0.000000000000
G 2  21281567.880   111835415.223          50.000                                                  
G 5  22483348.780   118150699.289          50.000                                                  
G 6  22983963.420   120781487.426          50.000    22983966.320    90193966.762          50.000  
G12  20075048.360   105495099.980          50.000                                                  
G19  24603000.900   129289615.023          50.000                                                  
G24  23636996.520   124213177.035          50.000    23637000.240    92756584.563          50.000  
G25  20983135.940   110267065.566          50.000    20983137.940    82342289.262          50.000  
G29  22952097.460   120614067.180          50.000                                                  
E 2  24727024.640   129941382.691          50.000    24727028.340    97034139.969          50.000  
E15  24990177.260   131324223.484          50.000    24990183.240    98066774.551          50.000  
E27  26422298.120   138850079.797          50.000    26422302.960   103686733.426          50.000  
E30  22252675.560   116938572.637          50.000    22252679.280    87324246.375          50.000  
E36  25708241.760   135097680.574          50.000    25708247.160   100884616.684          50.000  
> 2020  6  4 20 59 54.0000000  0 13       0.000000000000
G 2  21281862.780   111836964.957          50.000                                                  
G 5  22482820.820   118147924.828          50.000                                                  
G 6  22984548.580   120784562.410          50.000    22984551.460    90196263.012          50.000  
G12  20075024.700   105494975.617          50.000                                                  
G19  24603534.660   129292419.836          50.000                                                  
G24  23637587.580   124216283.082          50.000    23637591.320    92758904.008          50.000  
G25  20982767.220   110265127.914          50.000    20982769.220    82340842.309          50.000  
G29  22951680.860   120611877.938          50.000                                                  
E 2  24727458.540   129943662.828          50.000    24727462.240    97035842.668          50.000  
E15  24989834.660   131322423.129          50.000    24989840.640    98065430.129          50.000  
E27  26421814.960   138847540.781          50.000    26421819.820   103684837.406          50.000  
E30  22252624.280   116938303.160          50.000    22252628.000    87324045.141          50.000  
E36  25708679.200   135099979.293          50.000    25708684.580   100886333.254          50.000  
> 2020  6  4 20 59 55.0000000  0 13       0.000000000000
G 2  21282157.760   111838515.043          50.000                                                  
G 5  22482292.920   118145150.703          50.000                                                  
G 6  22985133.780   120787637.582          50.000    22985136.660    90198559.402          50.000  
G12  20075001.140   105494851.813          50.000                                                  
G19  24604068.400   129295224.656          50.000                                                  
G24  23638178.660   124219389.242          50.000    23638182.400    92761223.539          50.000  
G25  20982398.580   110263190.672          50.000    20982400.580    82339395.668          50.000  
G29  22951264.280   120609688.824          50.000                                                  
E 2  24727892.500   129945943.262          50.000    24727896.200    97037545.590          50.000  
E15  24989492.120   131320623.020          50.000    24989498.100    98064085.891          50.000  
E27  26421331.840   138845001.945          50.000    26421336.680   103682941.523          50.000  
E30  22252573.100   116938034.105          50.000    22252576.800    87323844.223          50.000  
E36  25709116.640   135102278.051          50.000    25709122.040   100888049.859          50.000  
> 2020  6  4 20 59 56.0000000  0 13       0.000000000000
G 2  21282452.800   111840065.473          50.000                                                  
G 5  22481765.100   118142376.914          50.000                                                  
G 6  22985719.000   120790712.949          50.000    22985721.880    90200855.938          50.000  
G12  20074977.680   105494728.555          50.000                                                  
G19  24604602.140   129298029.492          50.000                                                  
G24  23638769.780   124222495.500          50.000    23638773.500    92763543.145          50.000  
G25  20982030.020   110261253.887          50.000    20982032.020    82337949.367          50.000  
G29  22950847.740   120607499.832          50.000                                                  
E 2  24728326.520   129948224.000          50.000    24728330.200    97039248.734          50.000  
E15  24989149.620   131318823.160          50.000    24989155.600    98062741.840          50.000  
E27  26420848.760   138842463.270          50.000    26420853.600   103681045.758          50.000  
E30  22252521.980   116937765.488          50.000    22252525.680    87323643.633          50.000  
E36  25709554.080   135104576.859          50.000    25709559.480   100889766.500          50.000  
> 2020  6  4 20 59 57.0000000  0 12       0.000000000000
G 2  21282747.900   111841616.254          50.000                                                  
G 5  22481237.320   118139603.465          50.000                                                  
G 6  22986304.260   120793788.520          50.000    22986307.160    90203152.629          50.000  
G12  20074954.340   105494605.840          50.000                                                  
G24  23639360.900   124225601.840          50.000    23639364.620    92765862.813          50.000  
G25  20981661.540   110259317.520          50.000    20981663.540    82336503.379          50.000  
G29  22950431.200   120605310.957          50.000                                                  
E 2  24728760.580   129950505.039          50.000    24728764.280    97040952.105          50.000  
E15  24988807.160   131317023.527          50.000    24988813.140    98061397.957          50.000  
E27  26420365.700   138839924.758          50.000    26420370.540   103679150.117          50.000  
E30  22252470.940   116937497.297          50.000    22252474.660    87323443.355          50.000  
E36  25709991.540   135106875.715          50.000    25709996.940   100891483.172          50.000  
> 2020  6  4 20 59 58.0000000  0 12       0.000000000000
G 2  21283043.080   111843167.383          50.000                                                  
G 5  22480709.620   118136830.355          50.000                                                  
G 6  22986889.560   120796864.281          50.000    22986892.460    90205449.465          50.000  
G12  20074931.100   105494483.676          50.000                                                  
G24  23639952.020   124228708.262          50.000    23639955.760    92768182.539          50.000  
G25  20981293.160   110257381.586          50.000    20981295.160    82335057.715          50.000  
G29  22950014.700   120603122.199          50.000                                                  
E 2  24729194.720   129952786.387          50.000    24729198.400    97042655.707          50.000  
E15  24988464.760   131315224.145          50.000    24988470.720    98060054.262          50.000  
E27  26419882.660   138837386.410          50.000    26419887.520   103677254.594          50.000  
E30  22252420.000   116937229.535          50.000    22252423.700    87323243.406          50.000  
E36  25710429.020   135109174.621          50.000    25710434.420   100893199.887          50.000  
> 2020  6  4 20 59 59.0000000  0 12       0.000000000000
G 2  21283338.320   111844718.852          50.000                                                  
G 5  22480181.980   118134057.586          50.000                                                  
G 6  22987474.900   120799940.230          50.000    22987477.800    90207746.434          50.000  
G12  20074907.960   105494362.055          50.000                                                  
G24  23640543.180   124231814.781          50.000    23640546.920    92770502.340          50.000  
G25  20980924.840   110255446.086          50.000    20980926.840    82333612.371          50.000  
G29  22949598.220   120600933.570          50.000                                                  
E 2  24729628.900   129955068.027          50.000    24729632.600    97044359.527          50.000  
E15  24988122.400   131313425.020          50.000    24988128.360    98058710.758          50.000  
E27  26419399.660   138834848.230          50.000    26419404.520   103675359.199          50.000  
E30  22252369.120   116936962.191          50.000    22252372.840    87323043.762          50.000  
E36  25710866.500   135111473.570          50.000    25710871.900   100894916.633          50.000  
> 2020  6  4 21  0  0.0000000  0 12       0.000000000000
G 2  21283633.620   111846270.676          50.000                                                  
G 5  22479654.400   118131285.152          50.000                                                  
G 6  22988060.280   120803016.371          50.000    22988063.160    90210043.551          50.000  
G12  20074884.920   105494240.988          50.000                                                  
G24  23641134.360   124234921.395          50.000    23641138.100    92772822.207          50.000  
G25  20980556.620   110253511.020          50.000    20980558.620    82332167.352          50.000  
G29  22949181.760   120598745.059          50.000                                                  
E 2  24730063.140   129957349.977          50.000    24730066.840    97046063.574          50.000  
E15  24987780.080   131311626.125          50.000    24987786.060    98057367.426          50.000  
E27  26418916.700   138832310.227          50.000    26418921.560   103673463.934          50.000  
E30  22252318.340   116936695.281          50.000    22252322.040    87322844.445          50.000  
E36  25711303.980   135113772.563          50.000    25711309.380   100896633.410          50.000  
> 2020  6  4 21  0  1.0000000  0 12       0.000000000000
G 2  21283928.980   111847822.844          50.000                                                  
G 5  22479126.900   118128513.055          50.000                                                  
G 6  22988645.680   120806092.703          50.000    22988648.580    90212340.805          50.000  
G12  20074861.980   105494120.461          50.000                                                  
G24  23641725.540   124238028.094          50.000    23641729.280    92775142.141          50.000  
G25  20980188.460   110251576.363          50.000    20980190.460    82330722.641          50.000  
G29  22948765.320   120596556.656          50.000                                                  
E 2  24730497.440   129959632.223          50.000    24730501.140    97047767.848          50.000  
E15  24987437.800   131309827.469          50.000    24987443.780    98056024.273          50.000  
E27  26418433.760   138829772.379          50.000    26418438.620   103671568.789          50.000  
E30  22252267.620   116936428.785          50.000    22252271.340    87322645.438          50.000  
E36  25711741.480   135116071.605          50.000    25711746.880   100898350.227          50.000  
> 2020  6  4 21  0  2.0000000  0 12       0.000000000000
G 2  21284224.420   111849375.363          50.000                                                  
G 5  22478599.460   118125741.301          50.000                                                  
G 6  22989231.140   120809169.234          50.000    22989234.020    90214638.211          50.000  
G12  20074839.160   105494000.500          50.000                                                  
G24  23642316.760   124241134.906          50.000    23642320.500    92777462.160          50.000  
G25  20979820.400   110249642.164          50.000    20979822.400    82329278.270          50.000  
G29  22948348.920   120594368.391          50.000                                                  
E 2  24730931.800   129961914.777          50.000    24730935.500    97049472.352          50.000  
E15  24987095.580   131308029.070          50.000    24987101.560    98054681.313          50.000  
E27  26417950.860   138827234.719          50.000    26417955.720   103669673.781          50.000  
E30  22252217.000   116936162.734          50.000    22252220.720    87322446.762          50.000  
E36  25712179.000   135118370.695          50.000    25712184.400   100900067.074          50.000  
> 2020  6  4 21  0  3.0000000  0 12       0.000000000000
G 2  21284519.920   111850928.227          50.000                                                  
G 5  22478072.080   118122969.875          50.000                                                  
G 6  22989816.620   120812245.945          50.000    22989819.520    90216935.754          50.000  
G12  20074816.440   105493881.074          50.000                                                  
G24  23642907.980   124244241.809          50.000    23642911.720    92779782.246          50.000  
G25  20979452.420   110247708.387          50.000    20979454.420    82327834.215          50.000  
G29  22947932.520   120592180.238          50.000                                                  
E 2  24731366.220   129964197.625          50.000    24731369.920    97051177.070          50.000  
E15  24986753.420   131306230.914          50.000    24986759.380    98053338.531          50.000  
E27  26417468.000   138824697.207          50.000    26417472.860   103667778.883          50.000  
E30  22252166.460   116935897.102          50.000    22252170.160    87322248.398          50.000  
E36  25712616.500   135120669.828          50.000    25712621.900   100901783.957          50.000  
> 2020  6  4 21  0  4.0000000  0 12       0.000000000000
G 2  21284815.500   111852481.434          50.000                                                  
G 5  22477544.760   118120198.793          50.000                                                  
G 6  22990402.140   120815322.859          50.000    22990405.040    90219233.449          50.000  
G12  20074793.820   105493762.207          50.000                                                  
G24  23643499.240   124247348.809          50.000    23643502.980    92782102.406          50.000  
G25  20979084.520   110245775.039          50.000    20979086.520    82326390.480          50.000  
G29  22947516.160   120589992.211          50.000                                                  
E 2  24731800.680   129966480.773          50.000    24731804.380    97052882.020          50.000  
E15  24986411.280   131304433.000          50.000    24986417.260    98051995.934          50.000  
E27  26416985.160   138822159.887          50.000    26416990.020   103665884.129          50.000  
E30  22252116.000   116935631.910          50.000    22252119.700    87322050.363          50.000  
E36  25713054.020   135122969.020          50.000    25713059.440   100903500.883          50.000  
> 2020  6  4 21  0  5.0000000  0 12       0.000000000000
G 2  21285111.140   111854034.992          50.000                                                  
G 5  22477017.500   118117428.051          50.000                                                  
G 6  22990987.700   120818399.961          50.000    22990990.580    90221531.281          50.000  
G12  20074771.300   105493643.883          50.000                                                  
G24  23644090.500   124250455.910          50.000    23644094.240    92784422.641          50.000  
G25  20978716.700   110243842.125          50.000    20978718.700    82324947.070          50.000  
G29  22947099.820   120587804.297          50.000                                                  
E 2  24732235.220   129968764.234          50.000    24732238.920    97054587.199          50.000  
E15  24986069.200   131302635.344          50.000    24986075.180    98050653.527          50.000  
E27  26416502.360   138819622.719          50.000    26416507.220   103663989.492          50.000  
E30  22252065.620   116935367.137          50.000    22252069.320    87321852.645          50.000  
E36  25713491.560   135125268.254          50.000    25713496.960   100905217.840          50.000  
> 2020  6  4 21  0  6.0000000  0 12       0.000000000000
G 2  21285406.840   111855588.891          50.000                                                  
G 5  22476490.320   118114657.629          50.000                                                  
G 6  22991573.300   120821477.258          50.000    22991576.180    90223829.258          50.000  
G12  20074748.900   105493526.113          50.000                                                  
G24  23644681.780   124253563.109          50.000    23644685.520    92786742.949          50.000  
G25  20978348.960   110241909.645          50.000    20978350.960    82323503.980          50.000  
G29  22946683.500   120585616.504          50.000                                                  
E 2  24732669.800   129971047.996          50.000    24732673.520    97056292.602          50.000  
E15  24985727.160   131300837.918          50.000    24985733.140    98049311.293          50.000  
E27  26416019.600   138817085.719          50.000    26416024.440   103662094.977          50.000  
E30  22252015.320   116935102.797          50.000    22252019.020    87321655.246          50.000  
E36  25713929.100   135127567.531          50.000    25713934.500   100906934.832          50.000  
> 2020  6  4 21  0  7.0000000  0 12       0.000000000000
G 2  21285702.600   111857143.137          50.000                                                  
G 5  22475963.180   118111887.559          50.000                                                  
G 6  22992158.920   120824554.746          50.000    22992161.820    90226127.379          50.000  
G12  20074726.600   105493408.879          50.000                                                  
G24  23645273.100   124256670.426          50.000    23645276.840    92789063.344          50.000  
G25  20977981.300   110239977.594          50.000    20977983.320    82322061.215          50.000  
G29  22946267.200   120583428.824          50.000                                                  
E 2  24733104.460   129973332.047          50.000    24733108.160    97057998.223          50.000  
E15  24985385.180   131299040.742          50.000    24985391.160    98047969.242          50.000  
E27  26415536.840   138814548.879          50.000    26415541.700   103660200.582          50.000  
E30  22251965.100   116934838.871          50.000    22251968.800    87321458.156          50.000  
E36  25714366.660   135129866.848          50.000    25714372.060   100908651.852          50.000  
> 2020  6  4 21  0  8.0000000  0 12       0.000000000000
G 2  21285998.440   111858697.734          50.000                                                  
G 5  22475436.120   118109117.832          50.000                                                  
G 6  22992744.580   120827632.426          50.000    22992747.480    90228425.641          50.000  
G12  20074704.400   105493292.203          50.000                                                  
G24  23645864.420   124259777.824          50.000    23645868.160    92791383.797          50.000  
G25  20977613.740   110238045.977          50.000    20977615.740    82320618.773          50.000  
G29  22945850.920   120581241.277          50.000                                                  
E 2  24733539.160   129975616.402          50.000    24733542.860    97059704.070          50.000  
E15  24985043.240   131297243.797          50.000    24985049.220    98046627.371          50.000  
E27  26415054.140   138812012.211          50.000    26415059.000   103658306.316          50.000  
E30  22251914.960   116934575.379          50.000    22251918.660    87321261.391          50.000  
E36  25714804.220   135132166.219          50.000    25714809.620   100910368.910          50.000  
> 2020  6  4 21  0  9.0000000  0 12       0.000000000000
G 2  21286294.320   111860252.676          50.000                                                  
G 5  22474909.140   118106348.430          50.000                                                  
G 6  22993330.300   120830710.289          50.000    22993333.180    90230724.047          50.000  
G12  20074682.300   105493176.078          50.000                                                  
G24  23646455.760   124262885.316          50.000    23646459.500    92793704.324          50.000  
G25  20977246.240   110236114.785          50.000    20977248.260    82319176.652          50.000  
G29  22945434.680   120579053.836          50.000                                                  
E 2  24733973.920   129977901.063          50.000    24733977.620    97061410.145          50.000  
E15  24984701.340   131295447.105          50.000    24984707.320    98045285.684          50.000  
E27  26414571.460   138809475.711          50.000    26414576.320   103656412.176          50.000  
E30  22251864.900   116934312.301          50.000    22251868.600    87321064.938          50.000  
E36  25715241.780   135134465.629          50.000    25715247.180   100912086.000          50.000  
> 2020  6  4 21  0 10.0000000  0 12       0.000000000000
G 2  21286590.300   111861807.969          50.000                                                  
G 5  22474382.200   118103579.367          50.000                                                  
G 6  22993916.020   120833788.352          50.000    22993918.920    90233022.594          50.000  
G12  20074660.300   105493060.500          50.000                                                  
G24  23647047.120   124265992.891          50.000    23647050.860    92796024.910          50.000  
G25  20976878.840   110234184.043          50.000    20976880.840    82317734.863          50.000  
G29  22945018.440   120576866.539          50.000                                                  
E 2  24734408.740   129980186.031          50.000    24734412.440    97063116.449          50.000  
E15  24984359.480   131293650.652          50.000    24984365.460    98043944.172          50.000  
E27  26414088.820   138806939.375          50.000    26414093.660   103654518.160          50.000  
E30  22251814.920   116934049.668          50.000    22251818.640    87320868.813          50.000  
E36  25715679.360   135136765.094          50.000    25715684.760   100913803.129          50.000  
> 2020  6  4 21  0 11.0000000  0 12       0.000000000000
G 2  21286886.320   111863363.602          50.000                                                  
G 5  22473855.320   118100810.645          50.000                                                  
G 6  22994501.800   120836866.598          50.000    22994504.700    90235321.281          50.000  
G12  20074638.420   105492945.461          50.000                                                  
G24  23647638.480   124269100.555          50.000    23647642.240    92798345.566          50.000  
G25  20976511.520   110232253.719          50.000    20976513.520    82316293.383          50.000  
G29  22944602.240   120574679.340          50.000                                                  
E 2  24734843.600   129982471.285          50.000    24734847.320    97064822.969          50.000  
E15  24984017.680   131291854.449          50.000    24984023.660    98042602.852          50.000  
E27  26413606.200   138804403.223          50.000    26413611.060   103652624.277          50.000  
E30  22251765.020   116933787.465          50.000    22251768.740    87320673.012          50.000  
E36  25716116.940   135139064.605          50.000    25716122.360   100915520.293          50.000  
> 2020  6  4 21  0 12.0000000  0 12       0.000000000000
G 2  21287182.420   111864919.582          50.000                                                  
G 5  22473328.520   118098042.254          50.000                                                  
G 6  22995087.620   120839945.047          50.000    22995090.520    90237620.121          50.000  
G12  20074616.640   105492830.973          50.000                                                  
G24  23648229.880   124272208.301          50.000    23648233.620    92800666.285          50.000  
G25  20976144.280   110230323.832          50.000    20976146.280    82314852.234          50.000  
G29  22944186.060   120572492.270          50.000                                                  
E 2  24735278.540   129984756.848          50.000    24735282.240    97066529.719          50.000  
E15  24983675.920   131290058.488          50.000    24983681.900    98041261.711          50.000  
E27  26413123.620   138801867.219          50.000    26413128.480   103650730.504          50.000  
E30  22251715.220   116933525.676          50.000    22251718.920    87320477.516          50.000  
E36  25716554.540   135141364.152          50.000    25716559.940   100917237.488          50.000  
> 2020  6  4 21  0 13.0000000  0 12       0.000000000000
G 2  21287478.580   111866475.910          50.000                                                  
G 5  22472801.780   118095274.203          50.000                                                  
G 6  22995673.460   120843023.676          50.000    22995676.360    90239919.094          50.000  
G12  20074594.960   105492717.039          50.000                                                  
G24  23648821.280   124275316.152          50.000    23648825.040    92802987.078          50.000  
G25  20975777.100   110228394.363          50.000    20975779.120    82313411.395          50.000  
G29  22943769.900   120570305.328          50.000                                                  
E 2  24735713.520   129987042.715          50.000    24735717.240    97068236.691          50.000  
E15  24983334.220   131288262.770          50.000    24983340.200    98039920.754          50.000  
E27  26412641.080   138799331.402          50.000    26412645.920   103648836.875          50.000  
E30  22251665.480   116933264.320          50.000    22251669.200    87320282.348          50.000  
E36  25716992.140   135143663.750          50.000    25716997.540   100918954.715          50.000  
> 2020  6  4 21  0 14.0000000  0 12       0.000000000000
G 2  21287774.820   111868032.586          50.000                                                  
G 5  22472275.120   118092506.500          50.000                                                  
G 6  22996259.360   120846102.500          50.000    22996262.260    90242218.215          50.000  
G12  20074573.380   105492603.652          50.000                                                  
G24  23649412.700   124278424.094          50.000    23649416.460    92805307.938          50.000  
G25  20975410.040   110226465.359          50.000    20975412.040    82311970.906          50.000  
G29  22943353.760   120568118.488          50.000                                                  
E 2  24736148.580   129989328.887          50.000    24736152.280    97069943.898          50.000  
E15  24982992.560   131286467.301          50.000    24982998.520    98038579.977          50.000  
E27  26412158.560   138796795.750          50.000    26412163.420   103646943.367          50.000  
E30  22251615.840   116933003.387          50.000    22251619.540    87320087.492          50.000  
E36  25717429.760   135145963.406          50.000    25717435.160   100920671.988          50.000  
> 2020  6  4 21  0 15.0000000  0 12       0.000000000000
G 2  21288071.100   111869589.609          50.000                                                  
G 5  22471748.500   118089739.133          50.000                                                  
G 6  22996845.280   120849181.523          50.000    22996848.180    90244517.480          50.000  
G12  20074551.920   105492490.813          50.000                                                  
G24  23650004.160   124281532.137          50.000    23650007.900    92807628.875          50.000  
G25  20975043.040   110224536.773          50.000    20975045.040    82310530.727          50.000  
G29  22942937.640   120565931.789          50.000                                                  
E 2  24736583.680   129991615.363          50.000    24736587.380    97071651.332          50.000  
E15  24982650.940   131284672.078          50.000    24982656.920    98037239.391          50.000  
E27  26411676.080   138794260.262          50.000    26411680.920   103645049.984          50.000  
E30  22251566.260   116932742.895          50.000    22251569.980    87319892.969          50.000  
E36  25717867.380   135148263.094          50.000    25717872.780   100922389.285          50.000  
> 2020  6  4 21  0 16.0000000  0 12       0.000000000000
G 2  21288367.460   111871146.980          50.000                                                  
G 5  22471221.960   118086972.098          50.000                                                  
G 6  22997431.220   120852260.727          50.000    22997434.140    90246816.883          50.000  
G12  20074530.540   105492378.527          50.000                                                  
G24  23650595.620   124284640.277          50.000    23650599.360    92809949.887          50.000  
G25  20974676.120   110222608.613          50.000    20974678.140    82309090.863          50.000  
G29  22942521.560   120563745.203          50.000                                                  
E 2  24737018.840   129993902.117          50.000    24737022.540    97073358.969          50.000  
E15  24982309.360   131282877.094          50.000    24982315.340    98035898.977          50.000  
E27  26411193.620   138791724.941          50.000    26411198.480   103643156.723          50.000  
E30  22251516.780   116932482.816          50.000    22251520.480    87319698.754          50.000  
E36  25718305.000   135150562.832          50.000    25718310.420   100924106.621          50.000  
> 2020  6  4 21  0 17.0000000  0 12       0.000000000000
G 2  21288663.900   111872704.699          50.000                                                  
G 5  22470695.480   118084205.410          50.000                                                  
G 6  22998017.220   120855340.129          50.000    22998020.120    90249116.434          50.000  
G12  20074509.280   105492266.793          50.000                                                  
G24  23651187.100   124287748.520          50.000    23651190.860    92812270.973          50.000  
G25  20974309.300   110220680.879          50.000    20974311.300    82307651.324          50.000  
G29  22942105.480   120561558.746          50.000                                                  
E 2  24737454.060   129996189.195          50.000    24737457.760    97075066.848          50.000  
E15  24981967.840   131281082.352          50.000    24981973.820    98034558.746          50.000  
E27  26410711.200   138789189.793          50.000    26410716.060   103641263.594          50.000  
E30  22251467.380   116932223.172          50.000    22251471.080    87319504.863          50.000  
E36  25718742.640   135152862.613          50.000    25718748.060   100925823.988          50.000  
> 2020  6  4 21  0 18.0000000  0 12       0.000000000000
G 2  21288960.380   111874262.766          50.000                                                  
G 5  22470169.060   118081439.066          50.000                                                  
G 6  22998603.260   120858419.723          50.000    22998606.160    90251416.129          50.000  
G12  20074488.140   105492155.605          50.000                                                  
G24  23651778.600   124290856.848          50.000    23651782.360    92814592.121          50.000  
G25  20973942.540   110218753.594          50.000    20973944.560    82306212.113          50.000  
G29  22941689.440   120559372.406          50.000                                                  
E 2  24737889.340   129998476.566          50.000    24737893.040    97076774.949          50.000  
E15  24981626.360   131279287.852          50.000    24981632.340    98033218.695          50.000  
E27  26410228.820   138786654.816          50.000    26410233.660   103639370.586          50.000  
E30  22251418.040   116931963.949          50.000    22251421.760    87319311.285          50.000  
E36  25719180.280   135155162.449          50.000    25719185.700   100927541.391          50.000  
> 2020  6  4 21  0 19.0000000  0 12       0.000000000000
G 2  21289256.940   111875821.176          50.000                                                  
G 5  22469642.700   118078673.055          50.000                                                  
G 6  22999189.320   120861499.500          50.000    22999192.220    90253715.957          50.000  
G12  20074467.080   105492044.969          50.000                                                  
G24  23652370.120   124293965.277          50.000    23652373.880    92816913.348          50.000  
G25  20973575.880   110216826.738          50.000    20973577.880    82304773.227          50.000  
G29  22941273.420   120557186.188          50.000                                                  
E 2  24738324.660   130000764.242          50.000    24738328.380    97078483.273          50.000  
E15  24981284.920   131277493.609          50.000    24981290.900    98031878.840          50.000  
E27  26409746.460   138784119.996          50.000    26409751.320   103637477.703          50.000  
E30  22251368.800   116931705.156          50.000    22251372.520    87319118.031          50.000  
E36  25719617.940   135157462.324          50.000    25719623.360   100929258.828          50.000  
> 2020  6  4 21  0 20.0000000  0 12       0.000000000000
G 2  21289553.580   111877379.934          50.000                                                  
G 5  22469116.420   118075907.391          50.000                                                  
G 6  22999775.420   120864579.473          50.000    22999778.320    90256015.934          50.000  
G12  20074446.140   105491934.879          50.000                                                  
G24  23652961.660   124297073.801          50.000    23652965.420    92819234.645          50.000  
G25  20973209.300   110214900.313          50.000    20973211.300    82303334.664          50.000  
G29  22940857.420   120555000.094          50.000                                                  
E 2  24738760.060   130003052.215          50.000    24738763.780    97080191.824          50.000  
E15  24980943.540   131275699.598          50.000    24980949.520    98030539.152          50.000  
E27  26409264.140   138781585.355          50.000    26409269.000   103635584.949          50.000  
E30  22251319.640   116931446.789          50.000    22251323.360    87318925.090          50.000  
E36  25720055.600   135159762.242          50.000    25720061.020   100930976.297          50.000  
> 2020  6  4 21  0 21.0000000  0 12       0.000000000000
G 2  21289850.260   111878939.039          50.000                                                  
G 5  22468590.200   118073142.063          50.000                                                  
G 6  23000361.560   120867659.633          50.000    23000364.460    90258316.051          50.000  
G12  20074425.300   105491825.348          50.000                                                  
G24  23653553.200   124300182.414          50.000    23653556.960    92821556.012          50.000  
G25  20972842.800   110212974.316          50.000    20972844.800    82301896.418          50.000  
G29  22940441.460   120552814.113          50.000                                                  
E 2  24739195.500   130005340.492          50.000    24739199.220    97081900.598          50.000  
E15  24980602.200   131273905.828          50.000    24980608.180    98029199.652          50.000  
E27  26408781.840   138779050.879          50.000    26408786.700   103633692.320          50.000  
E30  22251270.560   116931188.852          50.000    22251274.280    87318732.477          50.000  
E36  25720493.280   135162062.211          50.000    25720498.700   100932693.805          50.000  
> 2020  6  4 21  0 22.0000000  0 12       0.000000000000
G 2  21290147.020   111880498.496          50.000                                                  
G 5  22468064.040   118070377.090          50.000                                                  
G 6  23000947.740   120870739.980          50.000    23000950.660    90260616.301          50.000  
G12  20074404.560   105491716.363          50.000                                                  
G24  23654144.780   124303291.125          50.000    23654148.540    92823877.449          50.000  
G25  20972476.380   110211048.762          50.000    20972478.380    82300458.500          50.000  
G29  22940025.500   120550628.246          50.000                                                  
E 2  24739631.020   130007629.063          50.000    24739634.720    97083609.590          50.000  
E15  24980260.900   131272112.301          50.000    24980266.900    98027860.320          50.000  
E27  26408299.580   138776516.559          50.000    26408304.440   103631799.793          50.000  
E30  22251221.560   116930931.344          50.000    22251225.280    87318540.180          50.000  
E36  25720930.960   135164362.223          50.000    25720936.380   100934411.340          50.000  
> 2020  6  4 21  0 23.0000000  0 12       0.000000000000
G 2  21290443.840   111882058.293          50.000                                                  
G 5  22467537.960   118067612.445          50.000                                                  
G 6  23001533.960   120873820.523          50.000    23001536.860    90262916.707          50.000  
G12  20074383.920   105491607.922          50.000                                                  
G24  23654736.360   124306399.898          50.000    23654740.120    92826198.930          50.000  
G25  20972110.040   110209123.633          50.000    20972112.040    82299020.906          50.000  
G29  22939609.580   120548442.512          50.000                                                  
E 2  24740066.580   130009917.938          50.000    24740070.280    97085318.813          50.000  
E15  24979919.660   131270319.035          50.000    24979925.640    98026521.195          50.000  
E27  26407817.360   138773982.422          50.000    26407822.220   103629907.418          50.000  
E30  22251172.640   116930674.254          50.000    22251176.360    87318348.199          50.000  
E36  25721368.660   135166662.281          50.000    25721374.080   100936128.910          50.000  
> 2020  6  4 21  0 24.0000000  0 12       0.000000000000
G 2  21290740.720   111883618.434          50.000                                                  
G 5  22467011.920   118064848.145          50.000                                                  
G 6  23002120.200   120876901.258          50.000    23002123.120    90265217.250          50.000  
G12  20074363.400   105491500.047          50.000                                                  
G24  23655327.960   124309508.777          50.000    23655331.720    92828520.492          50.000  
G25  20971743.780   110207198.945          50.000    20971745.800    82297583.637          50.000  
G29  22939193.660   120546256.895          50.000                                                  
E 2  24740502.200   130012207.117          50.000    24740505.900    97087028.266          50.000  
E15  24979578.460   131268526.000          50.000    24979584.440    98025182.238          50.000  
E27  26407335.160   138771448.461          50.000    26407340.020   103628015.176          50.000  
E30  22251123.800   116930417.609          50.000    22251127.520    87318156.547          50.000  
E36  25721806.360   135168962.383          50.000    25721811.780   100937846.516          50.000  
> 2020  6  4 21  0 25.0000000  0 12       0.000000000000
G 2  21291037.680   111885178.914          50.000                                                  
G 5  22466485.960   118062084.168          50.000                                                  
G 6  23002706.480   120879982.188          50.000    23002709.400    90267517.941          50.000  
G12  20074342.980   105491392.699          50.000                                                  
G24  23655919.600   124312617.758          50.000    23655923.360    92830842.129          50.000  
G25  20971377.620   110205274.684          50.000    20971379.620    82296146.688          50.000  
G29  22938777.780   120544071.402          50.000                                                  
E 2  24740937.880   130014496.598          50.000    24740941.580    97088737.938          50.000  
E15  24979237.320   131266733.219          50.000    24979243.300    98023843.473          50.000  
E27  26406853.000   138768914.656          50.000    26406857.860   103626123.047          50.000  
E30  22251075.040   116930161.375          50.000    22251078.760    87317965.199          50.000  
E36  25722244.060   135171262.539          50.000    25722249.480   100939564.164          50.000  
> 2020  6  4 21  0 26.0000000  0 12       0.000000000000
G 2  21291334.700   111886739.750          50.000                                                  
G 5  22465960.060   118059320.539          50.000                                                  
G 6  23003292.800   120883063.305          50.000    23003295.720    90269818.773          50.000  
G12  20074322.660   105491285.914          50.000                                                  
G24  23656511.220   124315726.813          50.000    23656515.000    92833163.824          50.000  
G25  20971011.520   110203350.855          50.000    20971013.540    82294710.063          50.000  
G29  22938361.920   120541886.031          50.000                                                  
E 2  24741373.600   130016786.375          50.000    24741377.320    97090447.836          50.000  
E15  24978896.200   131264940.672          50.000    24978902.180    98022504.883          50.000  
E27  26406370.880   138766381.027          50.000    26406375.740   103624231.051          50.000  
E30  22251026.380   116929905.578          50.000    22251030.080    87317774.180          50.000  
E36  25722681.780   135173562.734          50.000    25722687.200   100941281.840          50.000  
> 2020  6  4 21  0 27.0000000  0 12       0.000000000000
G 2  21291631.780   111888300.930          50.000                                                  
G 5  22465434.220   118056557.254          50.000                                                  
G 6  23003879.160   120886144.605          50.000    23003882.080    90272119.738          50.000  
G12  20074302.440   105491179.672          50.000                                                  
G24  23657102.900   124318835.992          50.000    23657106.660    92835485.609          50.000  
G25  20970645.520   110201427.469          50.000    20970647.520    82293273.766          50.000  
G29  22937946.080   120539700.770          50.000                                                  
E 2  24741809.400   130019076.457          50.000    24741813.120    97092157.961          50.000  
E15  24978555.140   131263148.383          50.000    24978561.140    98021166.480          50.000  
E27  26405888.780   138763847.563          50.000    26405893.640   103622339.176          50.000  
E30  22250977.780   116929650.211          50.000    22250981.500    87317583.484          50.000  
E36  25723119.500   135175862.984          50.000    25723124.920   100942999.555          50.000  
> 2020  6  4 21  0 28.0000000  0 12       0.000000000000
G 2  21291928.940   111889862.453          50.000                                                  
G 5  22464908.460   118053794.313          50.000                                                  
G 6  23004465.560   120889226.105          50.000    23004468.480    90274420.855          50.000  
G12  20074282.340   105491073.984          50.000                                                  
G24  23657694.580   124321945.266          50.000    23657698.340    92837807.465          50.000  
G25  20970279.600   110199504.504          50.000    20970281.600    82291837.785          50.000  
G29  22937530.280   120537515.645          50.000                                                  
E 2  24742245.240   130021366.848          50.000    24742248.960    97093868.313          50.000  
E15  24978214.140   131261356.340          50.000    24978220.120    98019828.266          50.000  
E27  26405406.700   138761314.281          50.000    26405411.560   103620447.438          50.000  
E30  22250929.280   116929395.277          50.000    22250932.980    87317393.109          50.000  
E36  25723557.240   135178163.266          50.000    25723562.660   100944717.297          50.000  
> 2020  6  4 21  0 29.0000000  0 12       0.000000000000
G 2  21292226.160   111891424.324          50.000                                                  
G 5  22464382.760   118051031.711          50.000                                                  
G 6  23005051.980   120892307.789          50.000    23005054.900    90276722.113          50.000  
G12  20074262.340   105490968.848          50.000                                                  
G24  23658286.260   124325054.621          50.000    23658290.020    92840129.383          50.000  
G25  20969913.760   110197581.984          50.000    20969915.760    82290402.137          50.000  
G29  22937114.480   120535330.625          50.000                                                  
E 2  24742681.160   130023657.523          50.000    24742684.860    97095578.879          50.000  
E15  24977873.160   131259564.520          50.000    24977879.140    98018490.219          50.000  
E27  26404924.680   138758781.160          50.000    26404929.540   103618555.820          50.000  
E30  22250880.840   116929140.746          50.000    22250884.560    87317203.039          50.000  
E36  25723994.980   135180463.602          50.000    25724000.400   100946435.074          50.000  
> 2020  6  4 21  0 30.0000000  0 12       0.000000000000
G 2  21292523.440   111892986.543          50.000                                                  
G 5  22463857.120   118048269.461          50.000                                                  
G 6  23005638.460   120895389.664          50.000    23005641.360    90279023.508          50.000  
G12  20074242.420   105490864.250          50.000                                                  
G24  23658877.980   124328164.066          50.000    23658881.740    92842451.371          50.000  
G25  20969548.000   110195659.906          50.000    20969550.000    82288966.816          50.000  
G29  22936698.720   120533145.734          50.000                                                  
E 2  24743117.120   130025948.504          50.000    24743120.840    97097289.676          50.000  
E15  24977532.240   131257772.957          50.000    24977538.220    98017152.363          50.000  
E27  26404442.680   138756248.211          50.000    26404447.540   103616664.332          50.000  
E30  22250832.500   116928886.668          50.000    22250836.200    87317013.301          50.000  
E36  25724432.740   135182763.980          50.000    25724438.160   100948152.891          50.000  
> 2020  6  4 21  0 31.0000000  0 12       0.000000000000
G 2  21292820.780   111894549.105          50.000                                                  
G 5  22463331.540   118045507.531          50.000                                                  
G 6  23006224.960   120898471.727          50.000    23006227.860    90281325.047          50.000  
G12  20074222.640   105490760.219          50.000                                                  
G24  23659469.700   124331273.605          50.000    23659473.480    92844773.426          50.000  
G25  20969182.320   110193738.250          50.000    20969184.320    82287531.813          50.000  
G29  22936282.960   120530960.957          50.000                                                  
E 2  24743553.140   130028239.789          50.000    24743556.860    97099000.699          50.000  
E15  24977191.380   131255981.641          50.000    24977197.360    98015814.691          50.000  
E27  26403960.700   138753715.422          50.000    26403965.560   103614772.961          50.000  
E30  22250784.220   116928633.008          50.000    22250787.940    87316823.879          50.000  
E36  25724870.500   135185064.406          50.000    25724875.920   100949870.738          50.000  
> 2020  6  4 21  0 32.0000000  0 12       0.000000000000
G 2  21293118.200   111896112.020          50.000                                                  
G 5  22462806.040   118042745.941          50.000                                                  
G 6  23006811.500   120901553.980          50.000    23006814.400    90283626.727          50.000  
G12  20074202.940   105490656.730          50.000                                                  
G24  23660061.460   124334383.246          50.000    23660065.220    92847095.551          50.000  
G25  20968816.720   110191817.031          50.000    20968818.740    82286097.137          50.000  
G29  22935867.240   120528776.305          50.000                                                  
E 2  24743989.220   130030531.371          50.000    24743992.940    97100711.941          50.000  
E15  24976850.540   131254190.566          50.000    24976856.520    98014477.199          50.000  
E27  26403478.760   138751182.816          50.000    26403483.620   103612881.727          50.000  
E30  22250736.040   116928379.785          50.000    22250739.760    87316634.781          50.000  
E36  25725308.260   135187364.875          50.000    25725313.680   100951588.617          50.000  
> 2020  6  4 21  0 33.0000000  0 12       0.000000000000
G 2  21293415.680   111897675.273          50.000                                                  
G 5  22462280.580   118039984.699          50.000                                                  
G 6  23007398.060   120904636.426          50.000    23007400.980    90285928.547          50.000  
G12  20074183.360   105490553.789          50.000                                                  
G24  23660653.220   124337492.961          50.000    23660656.980    92849417.738          50.000  
G25  20968451.220   110189896.246          50.000    20968453.220    82284662.785          50.000  
G29  22935451.540   120526591.773          50.000                                                  
E 2  24744425.340   130032823.262          50.000    24744429.060    97102423.414          50.000  
E15  24976509.760   131252399.730          50.000    24976515.740    98013139.887          50.000  
E27  26402996.860   138748650.371          50.000    26403001.720   103610990.617          50.000  
E30  22250687.940   116928126.984          50.000    22250691.660    87316446.000          50.000  
E36  25725746.040   135189665.395          50.000    25725751.460   100953306.535          50.000  
> 2020  6  4 21  0 34.0000000  0 12       0.000000000000
G 2  21293713.220   111899238.859          50.000                                                  
G 5  22461755.200   118037223.793          50.000                                                  
G 6  23007984.680   120907719.066          50.000    23007987.600    90288230.520          50.000  
G12  20074163.880   105490451.402          50.000                                                  
G24  23661245.000   124340602.781          50.000    23661248.780    92851740.004          50.000  
G25  20968085.780   110187975.902          50.000    20968087.800    82283228.758          50.000  
G29  22935035.860   120524407.352          50.000                                                  
E 2  24744861.540   130035115.438          50.000    24744865.260    97104135.102          50.000  
E15  24976169.020   131250609.145          50.000    24976175.020    98011802.762          50.000  
E27  26402514.980   138746118.105          50.000    26402519.860   103609099.637          50.000  
E30  22250639.920   116927874.605          50.000    22250643.640    87316257.535          50.000  
E36  25726183.820   135191965.953          50.000    25726189.240   100955024.480          50.000  
> 2020  6  4 21  0 35.0000000  0 12       0.000000000000
G 2  21294010.840   111900802.805          50.000                                                  
G 5  22461229.900   118034463.227          50.000                                                  
G 6  23008571.320   120910801.883          50.000    23008574.240    90290532.617          50.000  
G12  20074144.500   105490349.563          50.000                                                  
G24  23661836.800   124343712.684          50.000    23661840.580    92854062.328          50.000  
G25  20967720.440   110186055.992          50.000    20967722.460    82281795.059          50.000  
G29  22934620.220   120522223.063          50.000                                                  
E 2  24745297.780   130037407.922          50.000    24745301.500    97105847.020          50.000  
E15  24975828.340   131248818.801          50.000    24975834.320    98010465.816          50.000  
E27  26402033.140   138743586.004          50.000    26402038.020   103607208.781          50.000  
E30  22250591.980   116927622.668          50.000    22250595.700    87316069.398          50.000  
E36  25726621.620   135194266.563          50.000    25726627.040   100956742.465          50.000  
> 2020  6  4 21  0 36.0000000  0 12       0.000000000000
G 2  21294308.520   111902367.098          50.000                                                  
G 5  22460704.640   118031702.992          50.000                                                  
G 6  23009158.000   120913884.898          50.000    23009160.920    90292834.867          50.000  
G12  20074125.220   105490248.270          50.000                                                  
G24  23662428.620   124346822.680          50.000    23662432.400    92856384.723          50.000  
G25  20967355.180   110184136.512          50.000    20967357.200    82280361.680          50.000  
G29  22934204.580   120520038.895          50.000                                                  
E 2  24745734.100   130039700.715          50.000    24745737.820    97107559.168          50.000  
E15  24975487.700   131247028.719          50.000    24975493.680    98009129.063          50.000  
E27  26401551.340   138741054.082          50.000    26401556.200   103605318.059          50.000  
E30  22250544.120   116927371.148          50.000    22250547.840    87315881.574          50.000  
E36  25727059.420   135196567.215          50.000    25727064.840   100958460.484          50.000  
> 2020  6  4 21  0 37.0000000  0 12       0.000000000000
G 2  21294606.260   111903931.734          50.000                                                  
G 5  22460179.460   118028943.109          50.000                                                  
G 6  23009744.720   120916968.105          50.000    23009747.640    90295137.258          50.000  
G12  20074106.060   105490147.527          50.000                                                  
G24  23663020.460   124349932.742          50.000    23663024.220    92858707.172          50.000  
G25  20966990.000   110182217.449          50.000    20966992.000    82278928.613          50.000  
G29  22933788.980   120517854.840          50.000                                                  
E 2  24746170.460   130041993.797          50.000    24746174.180    97109271.531          50.000  
E15  24975147.100   131245238.863          50.000    24975153.100    98007792.484          50.000  
E27  26401069.560   138738522.316          50.000    26401074.420   103603427.453          50.000  
E30  22250496.340   116927120.059          50.000    22250500.060    87315694.070          50.000  
E36  25727497.240   135198867.914          50.000    25727502.660   100960178.535          50.000  
> 2020  6  4 21  0 38.0000000  0 12       0.000000000000
G 2  21294904.060   111905496.703          50.000                                                  
G 5  22459654.340   118026183.574          50.000                                                  
G 6  23010331.480   120920051.492          50.000    23010334.400    90297439.785          50.000  
G12  20074087.000   105490047.336          50.000                                                  
G24  23663612.300   124353042.941          50.000    23663616.080    92861029.719          50.000  
G25  20966624.900   110180298.844          50.000    20966626.920    82277495.887          50.000  
G29  22933373.380   120515670.914          50.000                                                  
E 2  24746606.880   130044287.188          50.000    24746610.600    97110984.129          50.000  
E15  24974806.560   131243449.246          50.000    24974812.540    98006456.078          50.000  
E27  26400587.820   138735990.719          50.000    26400592.680   103601536.977          50.000  
E30  22250448.640   116926869.406          50.000    22250452.360    87315506.895          50.000  
E36  25727935.060   135201168.652          50.000    25727940.480   100961896.617          50.000  
> 2020  6  4 21  0 39.0000000  0 12       0.000000000000
G 2  21295201.940   111907062.023          50.000                                                  
G 5  22459129.280   118023424.367          50.000                                                  
G 6  23010918.260   120923135.070          50.000    23010921.180    90299742.453          50.000  
G12  20074068.040   105489947.695          50.000                                                  
G24  23664204.180   124356153.219          50.000    23664207.940    92863352.324          50.000  
G25  20966259.880   110178380.660          50.000    20966261.900    82276063.473          50.000  
G29  22932957.820   120513487.098          50.000                                                  
E 2  24747043.360   130046580.871          50.000    24747047.080    97112696.941          50.000  
E15  24974466.060   131241659.879          50.000    24974472.040    98005119.859          50.000  
E27  26400106.100   138733459.293          50.000    26400110.980   103599646.621          50.000  
E30  22250401.020   116926619.164          50.000    22250404.740    87315320.027          50.000  
E36  25728372.880   135203469.441          50.000    25728378.320   100963614.734          50.000  
> 2020  6  4 21  0 40.0000000  0 12       0.000000000000
G 2  21295499.880   111908627.684          50.000                                                  
G 5  22458604.280   118020665.508          50.000                                                  
G 6  23011505.080   120926218.840          50.000    23011508.020    90302045.266          50.000  
G12  20074049.180   105489848.602          50.000                                                  
G24  23664796.060   124359263.609          50.000    23664799.840    92865675.016          50.000  
G25  20965894.960   110176462.922          50.000    20965896.960    82274631.395          50.000  
G29  22932542.280   120511303.406          50.000                                                  
E 2  24747479.880   130048874.855          50.000    24747483.620    97114409.980          50.000  
E15  24974125.600   131239870.758          50.000    24974131.580    98003783.828          50.000  
E27  26399624.440   138730928.043          50.000    26399629.300   103597756.402          50.000  
E30  22250353.500   116926369.359          50.000    22250357.220    87315133.480          50.000  
E36  25728810.720   135205770.270          50.000    25728816.140   100965332.883          50.000  
> 2020  6  4 21  0 41.0000000  0 12       0.000000000000
G 2  21295797.880   111910193.684          50.000                                                  
G 5  22458079.360   118017906.996          50.000                                                  
G 6  23012091.960   120929302.797          50.000    23012094.880    90304348.219          50.000  
G12  20074030.440   105489750.063          50.000                                                  
G24  23665387.980   124362374.098          50.000    23665391.760    92867997.777          50.000  
G25  20965530.100   110174545.605          50.000    20965532.120    82273199.633          50.000  
G29  22932126.760   120509119.836          50.000                                                  
E 2  24747916.480   130051169.137          50.000    24747920.200    97116123.238          50.000  
E15  24973785.180   131238081.879          50.000    24973791.180    98002447.977          50.000  
E27  26399142.780   138728396.969          50.000    26399147.660   103595866.313          50.000  
E30  22250306.040   116926119.984          50.000    22250309.760    87314947.258          50.000  
E36  25729248.560   135208071.145          50.000    25729254.000   100967051.066          50.000  
> 2020  6  4 21  0 42.0000000  0 12       0.000000000000
G 2  21296095.960   111911760.035          50.000                                                  
G 5  22457554.500   118015148.828          50.000                                                  
G 6  23012678.840   120932386.945          50.000    23012681.780    90306651.313          50.000  
G12  20074011.800   105489652.070          50.000                                                  
G24  23665979.900   124365484.672          50.000    23665983.680    92870320.605          50.000  
G25  20965165.340   110172628.754          50.000    20965167.360    82271768.215          50.000  
G29  22931711.280   120506936.383          50.000                                                  
E 2  24748353.140   130053463.730          50.000    24748356.860    97117836.730          50.000  
E15  24973444.820   131236293.258          50.000    24973450.820    98001112.316          50.000  
E27  26398661.180   138725866.055          50.000    26398666.040   103593976.344          50.000  
E30  22250258.660   116925871.039          50.000    22250262.400    87314761.355          50.000  
E36  25729686.420   135210372.066          50.000    25729691.860   100968769.285          50.000  
> 2020  6  4 21  0 43.0000000  0 12       0.000000000000
G 2  21296394.080   111913326.730          50.000                                                  
G 5  22457029.700   118012391.000          50.000                                                  
G 6  23013265.780   120935471.277          50.000    23013268.700    90308954.543          50.000  
G12  20073993.260   105489554.637          50.000                                                  
G24  23666571.840   124368595.301          50.000    23666575.620    92872643.473          50.000  
G25  20964800.660   110170712.301          50.000    20964802.660    82270337.098          50.000  
G29  22931295.800   120504753.055          50.000                                                  
E 2  24748789.840   130055758.621          50.000    24748793.560    97119550.445          50.000  
E15  24973104.500   131234504.867          50.000    24973110.500    97999776.832          50.000  
E27  26398179.600   138723335.316          50.000    26398184.460   103592086.504          50.000  
E30  22250211.380   116925622.520          50.000    22250215.100    87314575.773          50.000  
E36  25730124.280   135212673.031          50.000    25730129.720   100970487.535          50.000  
> 2020  6  4 21  0 44.0000000  0 12       0.000000000000
G 2  21296692.280   111914893.770          50.000                                                  
G 5  22456504.980   118009633.516          50.000                                                  
G 6  23013852.760   120938555.801          50.000    23013855.680    90311257.922          50.000  
G12  20073974.820   105489457.746          50.000                                                  
G24  23667163.800   124371706.016          50.000    23667167.580    92874966.406          50.000  
G25  20964436.060   110168796.301          50.000    20964438.060    82268906.316          50.000  
G29  22930880.360   120502569.852          50.000                                                  
E 2  24749226.600   130058053.801          50.000    24749230.320    97121264.379          50.000  
E15  24972764.240   131232716.719          50.000    24972770.220    97998441.523          50.000  
E27  26397698.040   138720804.746          50.000    26397702.900   103590196.793          50.000  
E30  22250164.180   116925374.430          50.000    22250167.900    87314390.508          50.000  
E36  25730562.160   135214974.051          50.000    25730567.580   100972205.824          50.000  
> 2020  6  4 21  0 45.0000000  0 12       0.000000000000
G 2  21296990.560   111916461.148          50.000                                                  
G 5  22455980.320   118006876.379          50.000                                                  
G 6  23014439.760   120941640.523          50.000    23014442.680    90313561.441          50.000  
G12  20073956.500   105489361.414          50.000                                                  
G24  23667755.780   124374816.848          50.000    23667759.560    92877289.426          50.000  
G25  20964071.540   110166880.734          50.000    20964073.560    82267475.859          50.000  
G29  22930464.920   120500386.770          50.000                                                  
E 2  24749663.420   130060349.293          50.000    24749667.140    97122978.539          50.000  
E15  24972424.020   131230928.816          50.000    24972430.000    97997106.402          50.000  
E27  26397216.520   138718274.344          50.000    26397221.400   103588307.203          50.000  
E30  22250117.040   116925126.762          50.000    22250120.760    87314205.563          50.000  
E36  25731000.040   135217275.102          50.000    25731005.460   100973924.141          50.000  
> 2020  6  4 21  0 46.0000000  0 12       0.000000000000
G 2  21297288.880   111918028.871          50.000                                                  
G 5  22455455.720   118004119.574          50.000                                                  
G 6  23015026.800   120944725.414          50.000    23015029.720    90315865.094          50.000  
G12  20073938.260   105489265.621          50.000                                                  
G24  23668347.760   124377927.758          50.000    23668351.540    92879612.508          50.000  
G25  20963707.100   110164965.590          50.000    20963709.120    82266045.719          50.000  
G29  22930049.520   120498203.793          50.000                                                  
E 2  24750100.300   130062645.074          50.000    24750104.020    97124692.922          50.000  
E15  24972083.840   131229141.164          50.000    24972089.820    97995771.465          50.000  
E27  26396735.040   138715744.102          50.000    26396739.900   103586417.738          50.000  
E30  22250070.000   116924879.520          50.000    22250073.720    87314020.930          50.000  
E36  25731437.920   135219576.199          50.000    25731443.360   100975642.492          50.000  
> 2020  6  4 21  0 47.0000000  0 12       0.000000000000
G 2  21297587.280   111919596.941          50.000                                                  
G 5  22454931.180   118001363.121          50.000                                                  
G 6  23015613.880   120947810.512          50.000    23015616.800    90318168.895          50.000  
G12  20073920.140   105489170.387          50.000                                                  
G24  23668939.780   124381038.754          50.000    23668943.560    92881935.648          50.000  
G25  20963342.740   110163050.891          50.000    20963344.760    82264615.910          50.000  
G29  22929634.140   120496020.953          50.000                                                  
E 2  24750537.240   130064941.168          50.000    24750540.960    97126407.531          50.000  
E15  24971743.700   131227353.750          50.000    24971749.700    97994436.707          50.000  
E27  26396253.580   138713214.055          50.000    26396258.460   103584528.414          50.000  
E30  22250023.040   116924632.727          50.000    22250026.760    87313836.637          50.000  
E36  25731875.820   135221877.348          50.000    25731881.260   100977360.879          50.000  
> 2020  6  4 21  0 48.0000000  0 12       0.000000000000
G 2  21297885.740   111921165.348          50.000                                                  
G 5  22454406.720   117998607.016          50.000                                                  
G 6  23016200.980   120950895.793          50.000    23016203.920    90320472.836          50.000  
G12  20073902.120   105489075.695          50.000                                                  
G24  23669531.800   124384149.836          50.000    23669535.580    92884258.852          50.000  
G25  20962978.480   110161136.629          50.000    20962980.500    82263186.430          50.000  
G29  22929218.780   120493838.223          50.000                                                  
E 2  24750974.220   130067237.555          50.000    24750977.960    97128122.367          50.000  
E15  24971403.620   131225566.586          50.000    24971409.620    97993102.133          50.000  
E27  26395772.160   138710684.152          50.000    26395777.040   103582639.203          50.000  
E30  22249976.160   116924386.352          50.000    22249979.880    87313652.652          50.000  
E36  25732313.720   135224178.539          50.000    25732319.160   100979079.297          50.000  
> 2020  6  4 21  0 49.0000000  0 12       0.000000000000
G 2  21298184.260   111922734.098          50.000                                                  
G 5  22453882.320   117995851.246          50.000                                                  
G 6  23016788.140   120953981.254          50.000    23016791.060    90322776.910          50.000  
G12  20073884.220   105488981.563          50.000                                                  
G24  23670123.840   124387260.996          50.000    23670127.620    92886582.121          50.000  
G25  20962614.300   110159222.805          50.000    20962616.300    82261757.273          50.000  
G29  22928803.460   120491655.613          50.000                                                  
E 2  24751411.280   130069534.234          50.000    24751415.000    97129837.414          50.000  
E15  24971063.580   131223779.656          50.000    24971069.580    97991767.738          50.000  
E27  26395290.780   138708154.441          50.000    26395295.640   103580750.129          50.000  
E30  22249929.360   116924140.402          50.000    22249933.080    87313468.988          50.000  
E36  25732751.640   135226479.773          50.000    25732757.080   100980797.746          50.000  
> 2020  6  4 21  0 50.0000000  0 12       0.000000000000
G 2  21298482.860   111924303.191          50.000                                                  
G 5  22453357.980   117993095.828          50.000                                                  
G 6  23017375.320   120957066.918          50.000    23017378.260    90325081.137          50.000  
G12  20073866.420   105488887.977          50.000                                                  
G24  23670715.900   124390372.281          50.000    23670719.680    92888905.477          50.000  
G25  20962250.180   110157309.406          50.000    20962252.200    82260328.438          50.000  
G29  22928388.140   120489473.141          50.000                                                  
E 2  24751848.380   130071831.227          50.000    24751852.100    97131552.695          50.000  
E15  24970723.600   131221992.973          50.000    24970729.580    97990433.523          50.000  
E27  26394809.420   138705624.898          50.000    26394814.300   103578861.184          50.000  
E30  22249882.640   116923894.887          50.000    22249886.360    87313285.648          50.000  
E36  25733189.560   135228781.059          50.000    25733195.000   100982516.234          50.000  
> 2020  6  4 21  0 51.0000000  0 12       0.000000000000
G 2  21298781.520   111925872.629          50.000                                                  
G 5  22452833.700   117990340.750          50.000                                                  
G 6  23017962.540   120960152.758          50.000    23017965.480    90327385.496          50.000  
G12  20073848.720   105488794.945          50.000                                                  
G24  23671307.980   124393483.664          50.000    23671311.760    92891228.910          50.000  
G25  20961886.180   110155396.457          50.000    20961888.180    82258899.938          50.000  
G29  22927972.860   120487290.773          50.000                                                  
E 2  24752285.540   130074128.516          50.000    24752289.280    97133268.199          50.000  
E15  24970383.640   131220206.543          50.000    24970389.640    97989099.496          50.000  
E27  26394328.100   138703095.527          50.000    26394332.980   103576972.363          50.000  
E30  22249836.000   116923649.805          50.000    22249839.720    87313102.625          50.000  
E36  25733627.500   135231082.387          50.000    25733632.940   100984234.754          50.000  
> 2020  6  4 21  0 52.0000000  0 12       0.000000000000
G 2  21299080.240   111927442.410          50.000                                                  
G 5  22452309.500   117987586.004          50.000                                                  
G 6  23018549.800   120963238.777          50.000    23018552.720    90329689.988          50.000  
G12  20073831.120   105488702.457          50.000                                                  
G24  23671900.080   124396595.137          50.000    23671903.860    92893552.410          50.000  
G25  20961522.240   110153483.945          50.000    20961524.240    82257471.762          50.000  
G29  22927557.600   120485108.543          50.000                                                  
E 2  24752722.760   130076426.105          50.000    24752726.500    97134983.926          50.000  
E15  24970043.740   131218420.359          50.000    24970049.740    97987765.652          50.000  
E27  26393846.820   138700566.320          50.000    26393851.680   103575083.664          50.000  
E30  22249789.440   116923405.152          50.000    22249793.180    87312919.926          50.000  
E36  25734065.440   135233383.762          50.000    25734070.880   100985953.305          50.000  
> 2020  6  4 21  0 53.0000000  0 12       0.000000000000
G 2  21299379.020   111929012.535          50.000                                                  
G 5  22451785.360   117984831.602          50.000                                                  
G 6  23019137.080   120966324.996          50.000    23019140.020    90331994.629          50.000  
G12  20073813.620   105488610.520          50.000                                                  
G24  23672492.200   124399706.711          50.000    23672495.980    92895875.980          50.000  
G25  20961158.380   110151571.863          50.000    20961160.400    82256043.902          50.000  
G29  22927142.360   120482926.414          50.000                                                  
E 2  24753160.040   130078724.000          50.000    24753163.760    97136699.879          50.000  
E15  24969703.900   131216634.422          50.000    24969709.880    97986431.992          50.000  
E27  26393365.560   138698037.297          50.000    26393370.420   103573195.102          50.000  
E30  22249742.980   116923160.914          50.000    22249746.700    87312737.535          50.000  
E36  25734503.380   135235685.184          50.000    25734508.820   100987671.895          50.000  
> 2020  6  4 21  0 54.0000000  0 12       0.000000000000
G 2  21299677.880   111930583.000          50.000                                                  
G 5  22451261.280   117982077.555          50.000                                                  
G 6  23019724.420   120969411.398          50.000    23019727.340    90334299.406          50.000  
G12  20073796.240   105488519.133          50.000                                                  
G24  23673084.320   124402818.336          50.000    23673088.100    92898199.594          50.000  
G25  20960794.600   110149660.207          50.000    20960796.620    82254616.367          50.000  
G29  22926727.140   120480744.414          50.000                                                  
E 2  24753597.360   130081022.188          50.000    24753601.100    97138416.051          50.000  
E15  24969364.080   131214848.723          50.000    24969370.080    97985098.512          50.000  
E27  26392884.340   138695508.426          50.000    26392889.200   103571306.656          50.000  
E30  22249696.580   116922917.109          50.000    22249700.300    87312555.469          50.000  
E36  25734941.340   135237986.641          50.000    25734946.780   100989390.508          50.000  
> 2020  6  4 21  0 55.0000000  0 12       0.000000000000
G 2  21299976.800   111932153.813          50.000                                                  
G 5  22450737.280   117979323.855          50.000                                                  
G 6  23020311.780   120972497.988          50.000    23020314.720    90336604.324          50.000  
G12  20073778.960   105488428.297          50.000                                                  
G24  23673676.460   124405930.082          50.000    23673680.260    92900523.297          50.000  
G25  20960430.920   110147749.000          50.000    20960432.940    82253189.168          50.000  
G29  22926311.940   120478562.543          50.000                                                  
E 2  24754034.760   130083320.676          50.000    24754038.500    97140132.449          50.000  
E15  24969024.320   131213063.238          50.000    24969030.320    97983765.184          50.000  
E27  26392403.140   138692979.742          50.000    26392408.020   103569418.352          50.000  
E30  22249650.280   116922673.742          50.000    22249654.000    87312373.727          50.000  
E36  25735379.300   135240288.152          50.000    25735384.740   100991109.160          50.000  
> 2020  6  4 21  0 56.0000000  0 12       0.000000000000
G 2  21300275.780   111933724.969          50.000                                                  
G 5  22450213.320   117976570.488          50.000                                                  
G 6  23020899.180   120975584.770          50.000    23020902.120    90338909.383          50.000  
G12  20073761.780   105488338.020          50.000                                                  
G24  23674268.640   124409041.918          50.000    23674272.420    92902847.066          50.000  
G25  20960067.320   110145838.227          50.000    20960069.320    82251762.289          50.000  
G29  22925896.780   120476380.785          50.000                                                  
E 2  24754472.200   130085619.457          50.000    24754475.940    97141849.066          50.000  
E15  24968684.620   131211278.031          50.000    24968690.620    97982432.070          50.000  
E27  26391921.980   138690451.227          50.000    26391926.860   103567530.168          50.000  
E30  22249604.040   116922430.785          50.000    22249607.780    87312192.293          50.000  
E36  25735817.280   135242589.695          50.000    25735822.720   100992827.844          50.000  
> 2020  6  4 21  0 57.0000000  0 12       0.000000000000
G 2  21300574.840   111935296.480          50.000                                                  
G 5  22449689.440   117973817.473          50.000                                                  
G 6  23021486.620   120978671.742          50.000    23021489.540    90341214.582          50.000  
G12  20073744.700   105488248.293          50.000                                                  
G24  23674860.820   124412153.840          50.000    23674864.620    92905170.895          50.000  
G25  20959703.780   110143927.895          50.000    20959705.800    82250335.734          50.000  
G29  22925481.620   120474199.152          50.000                                                  
E 2  24754909.700   130087918.547          50.000    24754913.440    97143565.910          50.000  
E15  24968344.940   131209493.059          50.000    24968350.940    97981099.129          50.000  
E27  26391440.860   138687922.871          50.000    26391445.720   103565642.102          50.000  
E30  22249557.900   116922188.262          50.000    22249561.620    87312011.180          50.000  
E36  25736255.260   135244891.289          50.000    25736260.700   100994546.555          50.000  
> 2020  6  4 21  0 58.0000000  0 12       0.000000000000
G 2  21300873.940   111936868.328          50.000                                                  
G 5  22449165.620   117971064.805          50.000                                                  
G 6  23022074.080   120981758.902          50.000    23022077.020    90343519.918          50.000  
G12  20073727.740   105488159.121          50.000                                                  
G24  23675453.020   124415265.832          50.000    23675456.800    92907494.777          50.000  
G25  20959340.340   110142017.996          50.000    20959342.360    82248909.508          50.000  
G29  22925066.500   120472017.641          50.000                                                  
E 2  24755347.260   130090217.945          50.000    24755351.020    97145282.984          50.000  
E15  24968005.320   131207708.336          50.000    24968011.320    97979766.375          50.000  
E27  26390959.760   138685394.703          50.000    26390964.640   103563754.180          50.000  
E30  22249511.820   116921946.176          50.000    22249515.560    87311830.395          50.000  
E36  25736693.240   135247192.926          50.000    25736698.700   100996265.305          50.000  
> 2020  6  4 21  0 59.0000000  0 12       0.000000000000
G 2  21301173.120   111938440.520          50.000                                                  
G 5  22448641.880   117968312.484          50.000                                                  
G 6  23022661.580   120984846.246          50.000    23022664.520    90345825.398          50.000  
G12  20073710.880   105488070.504          50.000                                                  
G24  23676045.220   124418377.922          50.000    23676049.020    92909818.730          50.000  
G25  20958976.980   110140108.531          50.000    20958979.000    82247483.602          50.000  
G29  22924651.380   120469836.254          50.000                                                  
E 2  24755784.880   130092517.625          50.000    24755788.620    97147000.273          50.000  
E15  24967665.760   131205923.863          50.000    24967671.760    97978433.809          50.000  
E27  26390478.700   138682866.688          50.000    26390483.580   103561866.371          50.000  
E30  22249465.840   116921704.508          50.000    22249469.580    87311649.926          50.000  
E36  25737131.240   135249494.617          50.000    25737136.700   100997984.090          50.000  
> 2020  6  4 21  1  0.0000000  0 12       0.000000000000
G 2  21301472.360   111940013.059          50.000                                                  
G 5  22448118.200   117965560.512          50.000                                                  
G 6  23023249.120   120987933.777          50.000    23023252.060    90348131.016          50.000  
G12  20073694.120   105487982.434          50.000                                                  
G24  23676637.460   124421490.102          50.000    23676641.260    92912142.754          50.000  
G25  20958613.720   110138199.512          50.000    20958615.740    82246058.031          50.000  
G29  22924236.300   120467654.980          50.000                                                  
E 2  24756222.560   130094817.625          50.000    24756226.300    97148717.797          50.000  
E15  24967326.220   131204139.629          50.000    24967332.220    97977101.422          50.000  
E27  26389997.660   138680338.855          50.000    26390002.540   103559978.699          50.000  
E30  22249419.940   116921463.301          50.000    22249423.680    87311469.797          50.000  
E36  25737569.240   135251796.344          50.000    25737574.700   100999702.906          50.000  
> 2020  6  4 21  1  1.0000000  0 12       0.000000000000
G 2  21301771.680   111941585.938          50.000                                                  
G 5  22447594.580   117962808.871          50.000                                                  
G 6  23023836.700   120991021.504          50.000    23023839.640    90350436.777          50.000  
G12  20073677.460   105487894.914          50.000                                                  
G24  23677229.700   124424602.359          50.000    23677233.500    92914466.836          50.000  
G25  20958250.520   110136290.918          50.000    20958252.540    82244632.777          50.000  
G29  22923821.240   120465473.824          50.000                                                  
E 2  24756660.300   130097117.906          50.000    24756664.040    97150435.535          50.000  
E15  24966986.740   131202355.645          50.000    24966992.760    97975769.219          50.000  
E27  26389516.660   138677811.195          50.000    26389521.540   103558091.152          50.000  
E30  22249374.120   116921222.500          50.000    22249377.860    87311289.973          50.000  
E36  25738007.260   135254098.113          50.000    25738012.720   101001421.754          50.000  
> 2020  6  4 21  1  2.0000000  0 12       0.000000000000
G 2  21302071.060   111943159.160          50.000                                                  
G 5  22447071.020   117960057.586          50.000                                                  
G 6  23024424.320   120994109.414          50.000    23024427.260    90352742.680          50.000  
G12  20073660.920   105487807.949          50.000                                                  
G24  23677821.960   124427714.684          50.000    23677825.760    92916790.969          50.000  
G25  20957887.420   110134382.758          50.000    20957889.440    82243207.852          50.000  
G29  22923406.220   120463292.797          50.000                                                  
E 2  24757098.080   130099418.496          50.000    24757101.840    97152153.500          50.000  
E15  24966647.320   131200571.906          50.000    24966653.320    97974437.203          50.000  
E27  26389035.700   138675283.699          50.000    26389040.580   103556203.734          50.000  
E30  22249328.380   116920982.121          50.000    22249332.120    87311110.465          50.000  
E36  25738445.280   135256399.934          50.000    25738450.740   101003140.641          50.000  
> 2020  6  4 21  1  3.0000000  0 12       0.000000000000
G 2  21302370.500   111944732.723          50.000                                                  
G 5  22446547.540   117957306.645          50.000                                                  
G 6  23025011.960   120997197.508          50.000    23025014.900    90355048.715          50.000  
G12  20073644.460   105487721.535          50.000                                                  
G24  23678414.240   124430827.109          50.000    23678418.040    92919115.172          50.000  
G25  20957524.380   110132475.039          50.000    20957526.420    82241783.250          50.000  
G29  22922991.200   120461111.895          50.000                                                  
E 2  24757535.920   130101719.387          50.000    24757539.680    97153871.691          50.000  
E15  24966307.920   131198788.406          50.000    24966313.940    97973105.363          50.000  
E27  26388554.760   138672756.387          50.000    26388559.660   103554316.449          50.000  
E30  22249282.720   116920742.188          50.000    22249286.460    87310931.285          50.000  
E36  25738883.320   135258701.789          50.000    25738888.780   101004859.551          50.000  
> 2020  6  4 21  1  4.0000000  0 12       0.000000000000
G 2  21302670.000   111946306.633          50.000                                                  
G 5  22446024.120   117954556.055          50.000                                                  
G 6  23025599.640   121000285.793          50.000    23025602.600    90357354.895          50.000  
G12  20073628.120   105487635.672          50.000                                                  
G24  23679006.540   124433939.629          50.000    23679010.340    92921439.449          50.000  
G25  20957161.440   110130567.762          50.000    20957163.480    82240358.980          50.000  
G29  22922576.220   120458931.109          50.000                                                  
E 2  24757973.840   130104020.578          50.000    24757977.580    97155590.109          50.000  
E15  24965968.580   131197005.145          50.000    24965974.580    97971773.703          50.000  
E27  26388073.880   138670229.238          50.000    26388078.760   103552429.289          50.000  
E30  22249237.140   116920502.684          50.000    22249240.880    87310752.430          50.000  
E36  25739321.360   135261003.703          50.000    25739326.820   101006578.504          50.000  
> 2020  6  4 21  1  5.0000000  0 12       0.000000000000
G 2  21302969.580   111947880.879          50.000                                                  
G 5  22445500.760   117951805.805          50.000                                                  
G 6  23026187.360   121003374.273          50.000    23026190.320    90359661.223          50.000  
G12  20073611.900   105487550.355          50.000                                                  
G24  23679598.840   124437052.262          50.000    23679602.660    92923763.809          50.000  
G25  20956798.580   110128660.922          50.000    20956800.620    82238935.035          50.000  
G29  22922161.240   120456750.441          50.000                                                  
E 2  24758411.800   130106322.070          50.000    24758415.540    97157308.750          50.000  
E15  24965629.280   131195222.133          50.000    24965635.300    97970442.227          50.000  
E27  26387593.000   138667702.266          50.000    26387597.900   103550542.258          50.000  
E30  22249191.640   116920263.594          50.000    22249195.380    87310573.887          50.000  
E36  25739759.400   135263305.648          50.000    25739764.860   101008297.480          50.000  
> 2020  6  4 21  1  6.0000000  0 12       0.000000000000
G 2  21303269.200   111949455.473          50.000                                                  
G 5  22444977.480   117949055.898          50.000                                                  
G 6  23026775.120   121006462.918          50.000    23026778.060    90361967.668          50.000  
G12  20073595.760   105487465.582          50.000                                                  
G24  23680191.180   124440164.992          50.000    23680195.000    92926088.246          50.000  
G25  20956435.800   110126754.512          50.000    20956437.840    82237511.414          50.000  
G29  22921746.300   120454569.898          50.000                                                  
E 2  24758849.800   130108623.848          50.000    24758853.560    97159027.602          50.000  
E15  24965290.040   131193439.367          50.000    24965296.040    97969110.938          50.000  
E27  26387112.160   138665175.453          50.000    26387117.060   103548655.348          50.000  
E30  22249146.240   116920024.941          50.000    22249149.980    87310395.664          50.000  
E36  25740197.460   135265607.641          50.000    25740202.920   101010016.496          50.000  
> 2020  6  4 21  1  7.0000000  0 12       0.000000000000
G 2  21303568.900   111951030.410          50.000                                                  
G 5  22444454.260   117946306.344          50.000                                                  
G 6  23027362.900   121009551.762          50.000    23027365.860    90364274.266          50.000  
G12  20073579.740   105487381.367          50.000                                                  
G24  23680783.540   124443277.801          50.000    23680787.340    92928412.738          50.000  
G25  20956073.120   110124848.547          50.000    20956075.140    82236088.125          50.000  
G29  22921331.380   120452389.473          50.000                                                  
E 2  24759287.880   130110925.934          50.000    24759291.640    97160746.684          50.000  
E15  24964950.840   131191656.852          50.000    24964956.840    97967779.832          50.000  
E27  26386631.360   138662648.824          50.000    26386636.260   103546768.574          50.000  
E30  22249100.900   116919786.703          50.000    22249104.640    87310217.754          50.000  
E36  25740635.520   135267909.672          50.000    25740640.980   101011735.539          50.000  
> 2020  6  4 21  1  8.0000000  0 12       0.000000000000
G 2  21303868.680   111952605.688          50.000                                                  
G 5  22443931.100   117943557.125          50.000                                                  
G 6  23027950.720   121012640.793          50.000    23027953.680    90366581.004          50.000  
G12  20073563.820   105487297.691          50.000                                                  
G24  23681375.900   124446390.711          50.000    23681379.720    92930737.305          50.000  
G25  20955710.500   110122943.008          50.000    20955712.540    82234665.148          50.000  
G29  22920916.480   120450209.164          50.000                                                  
E 2  24759726.020   130113228.313          50.000    24759729.780    97162465.988          50.000  
E15  24964611.680   131189874.566          50.000    24964617.700    97966448.902          50.000  
E27  26386150.600   138660122.367          50.000    26386155.480   103544881.930          50.000  
E30  22249055.640   116919548.906          50.000    22249059.400    87310040.172          50.000  
E36  25741073.600   135270211.754          50.000    25741079.060   101013454.621          50.000  
> 2020  6  4 21  1  9.0000000  0 12       0.000000000000
G 2  21304168.500   111954181.301          50.000                                                  
G 5  22443408.000   117940808.258          50.000                                                  
G 6  23028538.580   121015730.004          50.000    23028541.540    90368887.875          50.000  
G12  20073548.000   105487214.566          50.000                                                  
G24  23681968.300   124449503.730          50.000    23681972.120    92933061.957          50.000  
G25  20955347.980   110121037.906          50.000    20955350.000    82233242.504          50.000  
G29  22920501.600   120448028.980          50.000                                                  
E 2  24760164.200   130115530.984          50.000    24760167.960    97164185.508          50.000  
E15  24964272.580   131188092.531          50.000    24964278.580    97965118.156          50.000  
E27  26385669.860   138657596.070          50.000    26385674.760   103542995.406          50.000  
E30  22249010.480   116919311.543          50.000    22249014.220    87309862.918          50.000  
E36  25741511.680   135272513.883          50.000    25741517.140   101015173.734          50.000  
> 2020  6  4 21  1 10.0000000  0 12       0.000000000000
G 2  21304468.400   111955757.262          50.000                                                  
G 5  22442884.980   117938059.734          50.000                                                  
G 6  23029126.480   121018819.410          50.000    23029129.440    90371194.891          50.000  
G12  20073532.280   105487132.000          50.000                                                  
G24  23682560.700   124452616.828          50.000    23682564.520    92935386.664          50.000  
G25  20954985.540   110119133.250          50.000    20954987.560    82231820.191          50.000  
G29  22920086.760   120445848.922          50.000                                                  
E 2  24760602.440   130117833.969          50.000    24760606.200    97165905.266          50.000  
E15  24963933.500   131186310.742          50.000    24963939.520    97963787.594          50.000  
E27  26385189.160   138655069.953          50.000    26385194.060   103541109.012          50.000  
E30  22248965.400   116919074.598          50.000    22248969.140    87309685.973          50.000  
E36  25741949.760   135274816.047          50.000    25741955.240   101016892.879          50.000  
> 2020  6  4 21  1 11.0000000  0 12       0.000000000000
G 2  21304768.360   111957333.566          50.000                                                  
G 5  22442362.020   117935311.559          50.000                                                  
G 6  23029714.420   121021908.996          50.000    23029717.380    90373502.043          50.000  
G12  20073516.680   105487049.988          50.000                                                  
G24  23683153.120   124455730.016          50.000    23683156.940    92937711.438          50.000  
G25  20954623.180   110117229.031          50.000    20954625.200    82230398.203          50.000  
G29  22919671.940   120443668.984          50.000                                                  
E 2  24761040.740   130120137.250          50.000    24761044.500    97167625.242          50.000  
E15  24963594.500   131184529.203          50.000    24963600.500    97962457.223          50.000  
E27  26384708.480   138652544.004          50.000    26384713.380   103539222.746          50.000  
E30  22248920.380   116918838.082          50.000    22248924.140    87309509.348          50.000  
E36  25742387.860   135277118.266          50.000    25742393.340   101018612.059          50.000  
> 2020  6  4 21  1 12.0000000  0 12       0.000000000000
G 2  21305068.380   111958910.211          50.000                                                  
G 5  22441839.120   117932563.730          50.000                                                  
G 6  23030302.380   121024998.766          50.000    23030305.340    90375809.332          50.000  
G12  20073501.180   105486968.512          50.000                                                  
G24  23683745.560   124458843.285          50.000    23683749.380    92940036.273          50.000  
G25  20954260.900   110115325.238          50.000    20954262.920    82228976.535          50.000  
G29  22919257.120   120441489.152          50.000                                                  
E 2  24761479.100   130122440.824          50.000    24761482.860    97169345.434          50.000  
E15  24963255.520   131182747.902          50.000    24963261.540    97961127.023          50.000  
E27  26384227.840   138650018.230          50.000    26384232.740   103537336.613          50.000  
E30  22248875.460   116918602.008          50.000    22248879.220    87309333.055          50.000  
E36  25742825.980   135279420.520          50.000    25742831.440   101020331.270          50.000  
> 2020  6  4 21  1 13.0000000  0 12       0.000000000000
G 2  21305368.480   111960487.203          50.000                                                  
G 5  22441316.300   117929816.254          50.000                                                  
G 6  23030890.380   121028088.723          50.000    23030893.340    90378116.762          50.000  
G12  20073485.780   105486887.602          50.000                                                  
G24  23684338.020   124461956.617          50.000    23684341.840    92942361.156          50.000  
G25  20953898.700   110113421.902          50.000    20953900.740    82227555.207          50.000  
G29  22918842.340   120439309.457          50.000                                                  
E 2  24761917.520   130124744.711          50.000    24761921.280    97171065.863          50.000  
E15  24962916.600   131180966.855          50.000    24962922.620    97959797.020          50.000  
E27  26383747.240   138647492.637          50.000    26383752.140   103535450.609          50.000  
E30  22248830.620   116918366.344          50.000    22248834.380    87309157.066          50.000  
E36  25743264.080   135281722.816          50.000    25743269.560   101022050.512          50.000  
> 2020  6  4 21  1 14.0000000  0 12       0.000000000000
G 2  21305668.640   111962064.523          50.000                                                  
G 5  22440793.540   117927069.105          50.000                                                  
G 6  23031478.420   121031178.875          50.000    23031481.380    90380424.336          50.000  
G12  20073470.500   105486807.238          50.000                                                  
G24  23684930.480   124465070.023          50.000    23684934.300    92944686.094          50.000  
G25  20953536.580   110111518.992          50.000    20953538.620    82226134.199          50.000  
G29  22918427.580   120437129.879          50.000                                                  
E 2  24762355.980   130127048.887          50.000    24762359.760    97172786.508          50.000  
E15  24962577.720   131179186.043          50.000    24962583.740    97958467.184          50.000  
E27  26383266.680   138644967.203          50.000    26383271.580   103533564.730          50.000  
E30  22248785.860   116918131.129          50.000    22248789.620    87308981.414          50.000  
E36  25743702.220   135284025.156          50.000    25743707.680   101023769.785          50.000  
> 2020  6  4 21  1 15.0000000  0 12       0.000000000000
G 2  21305968.860   111963642.199          50.000                                                  
G 5  22440270.840   117924322.324          50.000                                                  
G 6  23032066.500   121034269.203          50.000    23032069.460    90382732.043          50.000  
G12  20073455.300   105486727.426          50.000                                                  
G24  23685522.960   124468183.539          50.000    23685526.780    92947011.117          50.000  
G25  20953174.560   110109616.523          50.000    20953176.600    82224713.520          50.000  
G29  22918012.840   120434950.422          50.000                                                  
E 2  24762794.520   130129353.363          50.000    24762798.280    97174507.379          50.000  
E15  24962238.900   131177405.469          50.000    24962244.920    97957137.531          50.000  
E27  26382786.140   138642441.945          50.000    26382791.040   103531678.980          50.000  
E30  22248741.180   116917896.340          50.000    22248744.940    87308806.078          50.000  
E36  25744140.340   135286327.543          50.000    25744145.820   101025489.094          50.000  
> 2020  6  4 21  1 16.0000000  0 12       0.000000000000
G 2  21306269.140   111965220.215          50.000                                                  
G 5  22439748.200   117921575.871          50.000                                                  
G 6  23032654.600   121037359.715          50.000    23032657.560    90385039.883          50.000  
G12  20073440.220   105486648.172          50.000                                                  
G24  23686115.460   124471297.152          50.000    23686119.300    92949336.207          50.000  
G25  20952812.620   110107714.504          50.000    20952814.660    82223293.176          50.000  
G29  22917598.140   120432771.074          50.000                                                  
E 2  24763233.100   130131658.137          50.000    24763236.880    97176228.469          50.000  
E15  24961900.100   131175625.141          50.000    24961906.140    97955808.059          50.000  
E27  26382305.620   138639916.871          50.000    26382310.520   103529793.367          50.000  
E30  22248696.580   116917661.973          50.000    22248700.340    87308631.059          50.000  
E36  25744578.480   135288629.977          50.000    25744583.960   101027208.438          50.000  
> 2020  6  4 21  1 17.0000000  0 12       0.000000000000
G 2  21306569.500   111966798.570          50.000                                                  
G 5  22439225.640   117918829.770          50.000                                                  
G 6  23033242.740   121040450.422          50.000    23033245.720    90387347.871          50.000  
G12  20073425.240   105486569.457          50.000                                                  
G24  23686707.980   124474410.859          50.000    23686711.820    92951661.371          50.000  
G25  20952450.760   110105812.906          50.000    20952452.800    82221873.145          50.000  
G29  22917183.440   120430591.863          50.000                                                  
E 2  24763671.740   130133963.219          50.000    24763675.520    97177949.789          50.000  
E15  24961561.380   131173845.066          50.000    24961567.400    97954478.777          50.000  
E27  26381825.160   138637391.953          50.000    26381830.060   103527907.871          50.000  
E30  22248652.060   116917428.039          50.000    22248655.820    87308456.363          50.000  
E36  25745016.640   135290932.453          50.000    25745022.120   101028927.809          50.000  
> 2020  6  4 21  1 18.0000000  0 12       0.000000000000
G 2  21306869.960   111968377.008          50.000                                                  
G 5  22438703.140   117916084.043          50.000                                                  
G 6  23033830.900   121043541.410          50.000    23033833.860    90389656.129          50.000  
G12  20073410.420   105486491.082          50.000                                                  
G24  23687300.520   124477524.641          50.000    23687304.340    92953986.598          50.000  
G25  20952089.020   110103911.566          50.000    20952091.080    82220453.203          50.000  
G29  22916768.760   120428412.844          50.000                                                  
E 2  24764110.480   130136268.422          50.000    24764114.280    97179671.102          50.000  
E15  24961222.680   131172065.234          50.000    24961228.700    97953149.684          50.000  
E27  26381344.680   138634867.383          50.000    26381349.560   103526022.738          50.000  
E30  22248607.680   116917194.270          50.000    22248611.480    87308281.637          50.000  
E36  25745454.760   135293235.059          50.000    25745460.240   101030647.336          50.000  
