     3.03           OBSERVATION DATA    M: Mixed            RINEX VERSION / TYPE
sbp2rinex v2.2 (RTKL                    20210504 171524 UTC PGM / RUN BY / DATE 
log: 2020-05-28-US-MTV-1.sbp                                COMMENT             
format: Swift Navigation SBP, option: CONVBASE,EPHALL,OBSALLCOMMENT             
                                                            MARKER NAME         
                                                            MARKER NUMBER       
                                                            MARKER TYPE         
                                                            OBSERVER / AGENCY   
                                                            REC # / TYPE / VERS 
                                                            ANT # / TYPE        
 -2726197.8094 -4347423.0940  3775245.4708                  APPROX POSITION XYZ 
        0.0000        0.0000        0.0000                  ANTENNA: DELTA H/E/N
G    6 C1C L1C S1C C5I L5I S5I                              SYS / # / OBS TYPES 
E    6 C1B L1B S1B C5I L5I S5I                              SYS / # / OBS TYPES 
  2020     5    28    19    10   15.0000000     GPS         TIME OF FIRST OBS   
  2020     5    28    19    45   41.0000000     GPS         TIME OF LAST OBS    
G                                                           SYS / PHASE SHIFT   
E                                                           SYS / PHASE SHIFT   
  0                                                         GLONASS SLOT / FRQ #
 C1C    0.000 C1P    0.000 C2C    0.000 C2P    0.000        GLONASS COD/PHS/BIS 
                                                            END OF HEADER       
> 2020  5 28 19 10 15.0000000  0 12       0.000000000000
G 2  21972013.360   115463713.746          50.000                                                  
G 6  20958227.080   110136172.637          50.000    20958229.860    82244543.656          50.000  
G12  22794311.080   119784899.113          50.000                                                  
G17  22444314.640   117945620.781          50.000                                                  
G19  20674101.260   108643130.262          50.000                                                  
G24  21137453.000   111078005.535          50.000    21137455.360    82947857.844          50.000  
G28  23428409.540   123117238.910          50.000                                                  
E 2  24564655.880   129088128.387          50.000    24564659.560    96396969.309          50.000  
E15  25378244.800   133363522.844          50.000    25378251.540    99589625.094          50.000  
E27  26724605.840   140438703.879          50.000    26724611.800   104873039.445          50.000  
E30  22361312.580   117509473.617          50.000    22361316.580    87750570.730          50.000  
E36  25389950.440   133425047.363          50.000    25389956.060    99635571.934          50.000  
> 2020  5 28 19 10 16.0000000  0 12       0.000000000000
G 2  21971531.520   115461181.629          50.000                                                  
G 6  20957992.200   110134938.289          50.000    20957994.980    82243621.902          50.000  
G12  22793811.380   119782273.188          50.000                                                  
G17  22444778.500   117948058.363          50.000                                                  
G19  20674423.280   108644822.449          50.000                                                  
G24  21137312.760   111077268.586          50.000    21137315.120    82947307.523          50.000  
G28  23428785.560   123119214.887          50.000                                                  
E 2  24564918.540   129089508.695          50.000    24564922.240    96398000.059          50.000  
E15  25377724.620   133360789.254          50.000    25377731.360    99587583.777          50.000  
E27  26724153.260   140436325.582          50.000    26724159.220   104871263.445          50.000  
E30  22361151.760   117508628.539          50.000    22361155.760    87749939.668          50.000  
E36  25390361.880   133427209.504          50.000    25390367.500    99637186.520          50.000  
> 2020  5 28 19 10 17.0000000  0 12       0.000000000000
G 2  21971049.740   115458649.918          50.000                                                  
G 6  20957757.420   110133704.590          50.000    20957760.220    82242700.633          50.000  
G12  22793311.700   119779647.332          50.000                                                  
G17  22445242.380   117950496.047          50.000                                                  
G19  20674745.360   108646514.980          50.000                                                  
G24  21137172.640   111076532.262          50.000    21137175.000    82946757.668          50.000  
G28  23429161.600   123121191.035          50.000                                                  
E 2  24565181.240   129090889.246          50.000    24565184.940    96399030.988          50.000  
E15  25377204.480   133358055.895          50.000    25377211.200    99585542.637          50.000  
E27  26723700.680   140433947.277          50.000    26723706.640   104869487.441          50.000  
E30  22360991.000   117507783.668          50.000    22360995.000    87749308.758          50.000  
E36  25390773.380   133429371.918          50.000    25390779.000    99638801.309          50.000  
> 2020  5 28 19 10 18.0000000  0 12       0.000000000000
G 2  21970568.060   115456118.617          50.000                                                  
G 6  20957522.780   110132471.523          50.000    20957525.560    82241779.840          50.000  
G12  22792812.040   119777021.563          50.000                                                  
G17  22445706.280   117952933.828          50.000                                                  
G19  20675067.500   108648207.887          50.000                                                  
G24  21137032.640   111075796.539          50.000    21137035.000    82946208.270          50.000  
G28  23429537.680   123123167.340          50.000                                                  
E 2  24565444.000   129092270.063          50.000    24565447.700    96400062.117          50.000  
E15  25376684.380   133355322.777          50.000    25376691.120    99583501.672          50.000  
E27  26723248.100   140431568.949          50.000    26723254.060   104867711.418          50.000  
E30  22360830.260   117506939.016          50.000    22360834.260    87748678.012          50.000  
E36  25391184.920   133431534.598          50.000    25391190.540    99640416.297          50.000  
> 2020  5 28 19 10 19.0000000  0 12       0.000000000000
G 2  21970086.440   115453587.715          50.000                                                  
G 6  20957288.260   110131239.090          50.000    20957291.040    82240859.516          50.000  
G12  22792312.380   119774395.875          50.000                                                  
G17  22446170.200   117955371.711          50.000                                                  
G19  20675389.720   108649901.156          50.000                                                  
G24  21136892.760   111075061.441          50.000    21136895.120    82945659.332          50.000  
G28  23429913.780   123125143.793          50.000                                                  
E 2  24565706.820   129093651.109          50.000    24565710.500    96401093.418          50.000  
E15  25376164.320   133352589.871          50.000    25376171.060    99581460.867          50.000  
E27  26722795.520   140429190.621          50.000    26722801.480   104865935.395          50.000  
E30  22360669.560   117506094.566          50.000    22360673.560    87748047.414          50.000  
E36  25391596.520   133433697.555          50.000    25391602.140    99642031.488          50.000  
> 2020  5 28 19 10 20.0000000  0 12       0.000000000000
G 2  21969604.900   115451057.219          50.000                                                  
G 6  20957053.860   110130007.297          50.000    20957056.640    82239939.672          50.000  
G12  22791812.740   119771770.270          50.000                                                  
G17  22446634.120   117957809.695          50.000                                                  
G19  20675712.000   108651594.785          50.000                                                  
G24  21136753.000   111074326.961          50.000    21136755.340    82945110.855          50.000  
G28  23430289.920   123127120.406          50.000                                                  
E 2  24565969.660   129095032.406          50.000    24565973.360    96402124.902          50.000  
E15  25375644.320   133349857.195          50.000    25375651.040    99579420.234          50.000  
E27  26722342.920   140426812.270          50.000    26722348.900   104864159.355          50.000  
E30  22360508.920   117505250.348          50.000    22360512.920    87747416.992          50.000  
E36  25392008.160   133435860.781          50.000    25392013.800    99643646.887          50.000  
> 2020  5 28 19 10 21.0000000  0 12       0.000000000000
G 2  21969123.440   115448527.133          50.000                                                  
G 6  20956819.580   110128776.148          50.000    20956822.360    82239020.309          50.000  
G12  22791313.120   119769144.734          50.000                                                  
G17  22447098.080   117960247.777          50.000                                                  
G19  20676034.360   108653288.773          50.000                                                  
G24  21136613.360   111073593.125          50.000    21136615.700    82944562.859          50.000  
G28  23430666.100   123129097.176          50.000                                                  
E 2  24566232.560   129096413.941          50.000    24566236.260    96403156.570          50.000  
E15  25375124.340   133347124.750          50.000    25375131.080    99577379.770          50.000  
E27  26721890.340   140424433.914          50.000    26721896.300   104862383.313          50.000  
E30  22360348.300   117504406.332          50.000    22360352.300    87746786.719          50.000  
E36  25392419.860   133438024.285          50.000    25392425.500    99645262.488          50.000  
> 2020  5 28 19 10 22.0000000  0 12       0.000000000000
G 2  21968642.060   115445997.438          50.000                                                  
G 6  20956585.420   110127545.617          50.000    20956588.200    82238101.406          50.000  
G12  22790813.520   119766519.270          50.000                                                  
G17  22447562.040   117962685.957          50.000                                                  
G19  20676356.780   108654983.121          50.000                                                  
G24  21136473.820   111072859.895          50.000    21136476.180    82944015.320          50.000  
G28  23431042.300   123131074.105          50.000                                                  
E 2  24566495.520   129097795.742          50.000    24566499.200    96404188.434          50.000  
E15  25374604.420   133344392.531          50.000    25374611.160    99575339.480          50.000  
E27  26721437.760   140422055.539          50.000    26721443.720   104860607.254          50.000  
E30  22360187.740   117503562.508          50.000    22360191.720    87746156.594          50.000  
E36  25392831.620   133440188.059          50.000    25392837.240    99646878.293          50.000  
> 2020  5 28 19 10 23.0000000  0 12       0.000000000000
G 2  21968160.740   115443468.160          50.000                                                  
G 6  20956351.380   110126315.742          50.000    20956354.160    82237182.992          50.000  
G12  22790313.920   119763893.887          50.000                                                  
G17  22448026.040   117965124.234          50.000                                                  
G19  20676679.280   108656677.832          50.000                                                  
G24  21136334.420   111072127.301          50.000    21136336.760    82943468.254          50.000  
G28  23431418.520   123133051.168          50.000                                                  
E 2  24566758.500   129099177.766          50.000    24566762.200    96405220.461          50.000  
E15  25374084.540   133341660.555          50.000    25374091.280    99573299.367          50.000  
E27  26720985.160   140419677.168          50.000    26720991.120   104858831.199          50.000  
E30  22360027.200   117502718.914          50.000    22360031.200    87745526.637          50.000  
E36  25393243.420   133442352.102          50.000    25393249.060    99648494.297          50.000  
> 2020  5 28 19 10 24.0000000  0 12       0.000000000000
G 2  21967679.520   115440939.289          50.000                                                  
G 6  20956117.460   110125086.520          50.000    20956120.240    82236265.066          50.000  
G12  22789814.340   119761268.590          50.000                                                  
G17  22448490.040   117967562.617          50.000                                                  
G19  20677001.840   108658372.910          50.000                                                  
G24  21136195.120   111071395.332          50.000    21136197.480    82942921.652          50.000  
G28  23431794.780   123135028.418          50.000                                                  
E 2  24567021.540   129100560.039          50.000    24567025.240    96406252.680          50.000  
E15  25373564.700   133338928.813          50.000    25373571.440    99571259.434          50.000  
E27  26720532.560   140417298.770          50.000    26720538.520   104857055.125          50.000  
E30  22359866.720   117501875.531          50.000    22359870.700    87744896.840          50.000  
E36  25393655.280   133444516.430          50.000    25393660.920    99650110.516          50.000  
> 2020  5 28 19 10 25.0000000  0 12       0.000000000000
G 2  21967198.360   115438410.828          50.000                                                  
G 6  20955883.660   110123857.918          50.000    20955886.460    82235347.605          50.000  
G12  22789314.780   119758643.367          50.000                                                  
G17  22448954.080   117970001.094          50.000                                                  
G19  20677324.480   108660068.344          50.000                                                  
G24  21136055.940   111070663.949          50.000    21136058.300    82942375.492          50.000  
G28  23432171.060   123137005.805          50.000                                                  
E 2  24567284.620   129101942.559          50.000    24567288.320    96407285.082          50.000  
E15  25373044.920   133336197.285          50.000    25373051.640    99569219.656          50.000  
E27  26720079.980   140414920.371          50.000    26720085.940   104855279.051          50.000  
E30  22359706.260   117501032.355          50.000    22359710.260    87744267.195          50.000  
E36  25394067.180   133446681.016          50.000    25394072.820    99651726.926          50.000  
> 2020  5 28 19 10 26.0000000  0 12       0.000000000000
G 2  21966717.300   115435882.781          50.000                                                  
G 6  20955650.000   110122629.953          50.000    20955652.780    82234430.621          50.000  
G12  22788815.220   119756018.223          50.000                                                  
G17  22449418.120   117972439.668          50.000                                                  
G19  20677647.180   108661764.141          50.000                                                  
G24  21135916.880   111069933.176          50.000    21135919.240    82941829.785          50.000  
G28  23432547.380   123138983.352          50.000                                                  
E 2  24567547.760   129103325.328          50.000    24567551.460    96408317.668          50.000  
E15  25372525.160   133333465.980          50.000    25372531.900    99567180.047          50.000  
E27  26719627.380   140412541.949          50.000    26719633.340   104853502.957          50.000  
E30  22359545.860   117500189.398          50.000    22359549.840    87743637.715          50.000  
E36  25394479.140   133448845.879          50.000    25394484.780    99653343.543          50.000  
> 2020  5 28 19 10 27.0000000  0 12       0.000000000000
G 2  21966236.300   115433355.133          50.000                                                  
G 6  20955416.440   110121402.637          50.000    20955419.220    82233514.117          50.000  
G12  22788315.680   119753393.156          50.000                                                  
G17  22449882.180   117974878.344          50.000                                                  
G19  20677969.940   108663460.301          50.000                                                  
G24  21135777.940   111069203.027          50.000    21135780.300    82941284.543          50.000  
G28  23432923.720   123140961.055          50.000                                                  
E 2  24567810.940   129104708.336          50.000    24567814.640    96409350.430          50.000  
E15  25372005.460   133330734.918          50.000    25372012.180    99565140.617          50.000  
E27  26719174.780   140410163.520          50.000    26719180.740   104851726.855          50.000  
E30  22359385.480   117499346.652          50.000    22359389.480    87743008.391          50.000  
E36  25394891.160   133451011.012          50.000    25394896.800    99654960.363          50.000  
> 2020  5 28 19 10 28.0000000  0 12       0.000000000000
G 2  21965755.380   115430827.895          50.000                                                  
G 6  20955183.000   110120175.953          50.000    20955185.800    82232598.090          50.000  
G12  22787816.160   119750768.164          50.000                                                  
G17  22450346.260   117977317.121          50.000                                                  
G19  20678292.780   108665156.816          50.000                                                  
G24  21135639.120   111068473.500          50.000    21135641.480    82940739.766          50.000  
G28  23433300.100   123142938.922          50.000                                                  
E 2  24568074.160   129106091.590          50.000    24568077.860    96410383.379          50.000  
E15  25371485.800   133328004.078          50.000    25371492.520    99563101.355          50.000  
E27  26718722.160   140407785.078          50.000    26718728.120   104849950.750          50.000  
E30  22359225.160   117498504.121          50.000    22359229.140    87742379.227          50.000  
E36  25395303.220   133453176.418          50.000    25395308.860    99656577.387          50.000  
> 2020  5 28 19 10 29.0000000  0 12       0.000000000000
G 2  21965274.540   115428301.066          50.000                                                  
G 6  20954949.700   110118949.906          50.000    20954952.480    82231682.535          50.000  
G12  22787316.660   119748143.254          50.000                                                  
G17  22450810.380   117979755.992          50.000                                                  
G19  20678615.680   108666853.691          50.000                                                  
G24  21135500.420   111067744.590          50.000    21135502.760    82940195.449          50.000  
G28  23433676.500   123144916.934          50.000                                                  
E 2  24568337.440   129107475.098          50.000    24568341.140    96411416.520          50.000  
E15  25370966.180   133325273.477          50.000    25370972.900    99561062.273          50.000  
E27  26718269.560   140405406.641          50.000    26718275.520   104848174.645          50.000  
E30  22359064.860   117497661.793          50.000    22359068.860    87741750.219          50.000  
E36  25395715.340   133455342.102          50.000    25395720.980    99658194.617          50.000  
> 2020  5 28 19 10 30.0000000  0 12       0.000000000000
G 2  21964793.780   115425774.645          50.000                                                  
G 6  20954716.520   110117724.508          50.000    20954719.300    82230767.465          50.000  
G12  22786817.180   119745518.430          50.000                                                  
G17  22451274.500   117982194.965          50.000                                                  
G19  20678938.660   108668550.934          50.000                                                  
G24  21135361.820   111067016.301          50.000    21135364.180    82939651.598          50.000  
G28  23434052.940   123146895.105          50.000                                                  
E 2  24568600.760   129108858.844          50.000    24568604.440    96412449.836          50.000  
E15  25370446.600   133322543.102          50.000    25370453.340    99559023.355          50.000  
E27  26717816.960   140403028.164          50.000    26717822.920   104846398.512          50.000  
E30  22358904.620   117496819.691          50.000    22358908.620    87741121.375          50.000  
E36  25396127.500   133457508.059          50.000    25396133.140    99659812.051          50.000  
> 2020  5 28 19 10 31.0000000  0 12       0.000000000000
G 2  21964313.100   115423248.629          50.000                                                  
G 6  20954483.440   110116499.734          50.000    20954486.240    82229852.863          50.000  
G12  22786317.700   119742893.672          50.000                                                  
G17  22451738.640   117984634.043          50.000                                                  
G19  20679261.700   108670248.539          50.000                                                  
G24  21135223.360   111066288.672          50.000    21135225.720    82939108.238          50.000  
G28  23434429.400   123148873.438          50.000                                                  
E 2  24568864.120   129110242.832          50.000    24568867.820    96413483.336          50.000  
E15  25369927.080   133319812.949          50.000    25369933.800    99556984.609          50.000  
E27  26717364.340   140400649.684          50.000    26717370.300   104844622.375          50.000  
E30  22358744.400   117495977.789          50.000    22358748.400    87740492.684          50.000  
E36  25396539.720   133459674.273          50.000    25396545.360    99661429.680          50.000  
> 2020  5 28 19 10 32.0000000  0 12       0.000000000000
G 2  21963832.480   115420723.020          50.000                                                  
G 6  20954250.500   110115275.598          50.000    20954253.280    82228938.734          50.000  
G12  22785818.240   119740269.000          50.000                                                  
G17  22452202.800   117987073.207          50.000                                                  
G19  20679584.820   108671946.500          50.000                                                  
G24  21135085.020   111065561.672          50.000    21135087.360    82938565.348          50.000  
G28  23434805.900   123150851.922          50.000                                                  
E 2  24569127.520   129111627.063          50.000    24569131.220    96414517.012          50.000  
E15  25369407.580   133317083.039          50.000    25369414.320    99554946.043          50.000  
E27  26716911.740   140398271.207          50.000    26716917.700   104842846.238          50.000  
E30  22358584.240   117495136.102          50.000    22358588.240    87739864.148          50.000  
E36  25396952.000   133461840.770          50.000    25396957.640    99663047.516          50.000  
> 2020  5 28 19 10 33.0000000  0 12       0.000000000000
G 2  21963351.960   115418197.809          50.000                                                  
G 6  20954017.680   110114052.117          50.000    20954020.460    82228025.098          50.000  
G12  22785318.800   119737644.406          50.000                                                  
G17  22452666.980   117989512.477          50.000                                                  
G19  20679908.000   108673644.820          50.000                                                  
G24  21134946.780   111064835.285          50.000    21134949.140    82938022.918          50.000  
G28  23435182.420   123152830.566          50.000                                                  
E 2  24569390.980   129113011.543          50.000    24569394.680    96415550.875          50.000  
E15  25368888.140   133314353.348          50.000    25368894.880    99552907.637          50.000  
E27  26716459.120   140395892.703          50.000    26716465.080   104841070.086          50.000  
E30  22358424.120   117494294.641          50.000    22358428.120    87739235.785          50.000  
E36  25397364.320   133464007.531          50.000    25397369.960    99664665.551          50.000  
> 2020  5 28 19 10 34.0000000  0 12       0.000000000000
G 2  21962871.500   115415673.020          50.000                                                  
G 6  20953784.980   110112829.270          50.000    20953787.760    82227111.934          50.000  
G12  22784819.360   119735019.898          50.000                                                  
G17  22453131.160   117991951.848          50.000                                                  
G19  20680231.240   108675343.508          50.000                                                  
G24  21134808.680   111064109.535          50.000    21134811.040    82937480.961          50.000  
G28  23435558.980   123154809.359          50.000                                                  
E 2  24569654.500   129114396.273          50.000    24569658.180    96416584.926          50.000  
E15  25368368.740   133311623.887          50.000    25368375.480    99550869.402          50.000  
E27  26716006.500   140393514.195          50.000    26716012.460   104839293.930          50.000  
E30  22358264.020   117493453.375          50.000    22358268.020    87738607.566          50.000  
E36  25397776.700   133466174.566          50.000    25397782.320    99666283.793          50.000  
> 2020  5 28 19 10 35.0000000  0 12       0.000000000000
G 2  21962391.120   115413148.629          50.000                                                  
G 6  20953552.400   110111607.051          50.000    20953555.180    82226199.238          50.000  
G12  22784319.960   119732395.465          50.000                                                  
G17  22453595.380   117994391.316          50.000                                                  
G19  20680554.560   108677042.547          50.000                                                  
G24  21134670.680   111063384.371          50.000    21134673.040    82936939.445          50.000  
G28  23435935.560   123156788.313          50.000                                                  
E 2  24569918.040   129115781.230          50.000    24569921.740    96417619.148          50.000  
E15  25367849.380   133308894.656          50.000    25367856.120    99548831.344          50.000  
E27  26715553.880   140391135.660          50.000    26715559.840   104837517.754          50.000  
E30  22358103.980   117492612.320          50.000    22358107.980    87737979.508          50.000  
E36  25398189.120   133468341.883          50.000    25398194.760    99667902.238          50.000  
> 2020  5 28 19 10 36.0000000  0 12       0.000000000000
G 2  21961910.820   115410624.648          50.000                                                  
G 6  20953319.940   110110385.488          50.000    20953322.720    82225287.031          50.000  
G12  22783820.560   119729771.113          50.000                                                  
G17  22454059.620   117996830.879          50.000                                                  
G19  20680877.940   108678741.953          50.000                                                  
G24  21134532.820   111062659.852          50.000    21134535.160    82936398.406          50.000  
G28  23436312.160   123158767.414          50.000                                                  
E 2  24570181.640   129117166.453          50.000    24570185.340    96418653.566          50.000  
E15  25367330.080   133306165.676          50.000    25367336.800    99546793.469          50.000  
E27  26715101.260   140388757.121          50.000    26715107.220   104835741.574          50.000  
E30  22357943.980   117491771.492          50.000    22357947.980    87737351.617          50.000  
E36  25398601.600   133470509.461          50.000    25398607.240    99669520.887          50.000  
> 2020  5 28 19 10 37.0000000  0 12       0.000000000000
G 2  21961430.600   115408101.074          50.000                                                  
G 6  20953087.600   110109164.559          50.000    20953090.400    82224375.297          50.000  
G12  22783321.180   119727146.832          50.000                                                  
G17  22454523.880   117999270.543          50.000                                                  
G19  20681201.400   108680441.723          50.000                                                  
G24  21134395.060   111061935.965          50.000    21134397.420    82935857.840          50.000  
G28  23436688.800   123160746.680          50.000                                                  
E 2  24570445.280   129118551.914          50.000    24570448.980    96419688.164          50.000  
E15  25366810.800   133303436.895          50.000    25366817.540    99544755.746          50.000  
E27  26714648.640   140386378.574          50.000    26714654.600   104833965.383          50.000  
E30  22357784.000   117490930.863          50.000    22357788.000    87736723.875          50.000  
E36  25399014.120   133472677.316          50.000    25399019.760    99671139.738          50.000  
> 2020  5 28 19 10 38.0000000  0 12       0.000000000000
G 2  21960950.460   115405577.906          50.000                                                  
G 6  20952855.400   110107944.258          50.000    20952858.180    82223464.035          50.000  
G12  22782821.800   119724522.629          50.000                                                  
G17  22454988.140   118001710.301          50.000                                                  
G19  20681524.920   108682141.852          50.000                                                  
G24  21134257.420   111061212.688          50.000    21134259.780    82935317.730          50.000  
G28  23437065.480   123162726.094          50.000                                                  
E 2  24570708.980   129119937.621          50.000    24570712.680    96420722.945          50.000  
E15  25366291.580   133300708.359          50.000    25366298.320    99542718.203          50.000  
E27  26714196.020   140384000.008          50.000    26714201.960   104832189.188          50.000  
E30  22357624.080   117490090.457          50.000    22357628.080    87736096.297          50.000  
E36  25399426.700   133474845.441          50.000    25399432.340    99672758.793          50.000  
> 2020  5 28 19 10 39.0000000  0 12       0.000000000000
G 2  21960470.400   115403055.160          50.000                                                  
G 6  20952623.300   110106724.602          50.000    20952626.080    82222553.254          50.000  
G12  22782322.440   119721898.504          50.000                                                  
G17  22455452.440   118004150.156          50.000                                                  
G19  20681848.520   108683842.340          50.000                                                  
G24  21134119.900   111060490.016          50.000    21134122.260    82934778.074          50.000  
G28  23437442.180   123164705.660          50.000                                                  
E 2  24570972.720   129121323.570          50.000    24570976.420    96421757.906          50.000  
E15  25365772.400   133297980.066          50.000    25365779.140    99540680.844          50.000  
E27  26713743.380   140381621.449          50.000    26713749.340   104830412.992          50.000  
E30  22357464.200   117489250.270          50.000    22357468.200    87735468.883          50.000  
E36  25399839.340   133477013.836          50.000    25399844.980    99674378.047          50.000  
> 2020  5 28 19 10 40.0000000  0 12       0.000000000000
G 2  21959990.420   115400532.832          50.000                                                  
G 6  20952391.320   110105505.594          50.000    20952394.120    82221642.957          50.000  
G12  22781823.100   119719274.473          50.000                                                  
G17  22455916.740   118006590.117          50.000                                                  
G19  20682172.180   108685543.191          50.000                                                  
G24  21133982.520   111059767.984          50.000    21133984.860    82934238.895          50.000  
G28  23437818.920   123166685.395          50.000                                                  
E 2  24571236.500   129122709.766          50.000    24571240.200    96422793.055          50.000  
E15  25365253.260   133295251.980          50.000    25365260.000    99538643.637          50.000  
E27  26713290.760   140379242.871          50.000    26713296.720   104828636.781          50.000  
E30  22357304.360   117488410.281          50.000    22357308.360    87734841.621          50.000  
E36  25400252.020   133479182.508          50.000    25400257.660    99675997.508          50.000  
> 2020  5 28 19 10 41.0000000  0 12       0.000000000000
G 2  21959510.500   115398010.891          50.000                                                  
G 6  20952159.480   110104287.219          50.000    20952162.260    82220733.133          50.000  
G12  22781323.780   119716650.508          50.000                                                  
G17  22456381.060   118009030.172          50.000                                                  
G19  20682495.900   108687244.395          50.000                                                  
G24  21133845.240   111059046.570          50.000    21133847.580    82933700.176          50.000  
G28  23438195.680   123168665.281          50.000                                                  
E 2  24571500.340   129124096.211          50.000    24571504.020    96423828.383          50.000  
E15  25364734.180   133292524.137          50.000    25364740.900    99536606.613          50.000  
E27  26712838.120   140376864.273          50.000    26712844.080   104826860.559          50.000  
E30  22357144.560   117487570.508          50.000    22357148.540    87734214.520          50.000  
E36  25400664.760   133481351.445          50.000    25400670.400    99677617.168          50.000  
> 2020  5 28 19 10 42.0000000  0 12       0.000000000000
G 2  21959030.680   115395489.375          50.000                                                  
G 6  20951927.740   110103069.480          50.000    20951930.540    82219823.781          50.000  
G12  22780824.480   119714026.621          50.000                                                  
G17  22456845.420   118011470.320          50.000                                                  
G19  20682819.700   108688945.965          50.000                                                  
G24  21133708.060   111058325.781          50.000    21133710.420    82933161.926          50.000  
G28  23438572.460   123170645.328          50.000                                                  
E 2  24571764.200   129125482.898          50.000    24571767.900    96424863.895          50.000  
E15  25364215.120   133289796.523          50.000    25364221.860    99534569.762          50.000  
E27  26712385.480   140374485.664          50.000    26712391.440   104825084.324          50.000  
E30  22356984.800   117486730.953          50.000    22356988.780    87733587.578          50.000  
E36  25401077.540   133483520.652          50.000    25401083.180    99679237.031          50.000  
> 2020  5 28 19 10 43.0000000  0 12       0.000000000000
G 2  21958550.920   115392968.262          50.000                                                  
G 6  20951696.140   110101852.387          50.000    20951698.920    82218914.914          50.000  
G12  22780325.180   119711402.816          50.000                                                  
G17  22457309.780   118013910.566          50.000                                                  
G19  20683143.580   108690647.891          50.000                                                  
G24  21133571.020   111057605.602          50.000    21133573.380    82932624.129          50.000  
G28  23438949.280   123172625.527          50.000                                                  
E 2  24572028.140   129126869.828          50.000    24572031.840    96425899.590          50.000  
E15  25363696.120   133287069.133          50.000    25363702.840    99532533.074          50.000  
E27  26711932.860   140372107.051          50.000    26711938.800   104823308.086          50.000  
E30  22356825.060   117485891.605          50.000    22356829.060    87732960.793          50.000  
E36  25401490.380   133485690.129          50.000    25401496.020    99680857.094          50.000  
> 2020  5 28 19 10 44.0000000  0 12       0.000000000000
G 2  21958071.240   115390447.559          50.000                                                  
G 6  20951464.660   110100635.926          50.000    20951467.440    82218006.520          50.000  
G12  22779825.900   119708779.086          50.000                                                  
G17  22457774.160   118016350.910          50.000                                                  
G19  20683467.500   108692350.188          50.000                                                  
G24  21133434.100   111056886.051          50.000    21133436.460    82932086.805          50.000  
G28  23439326.140   123174605.895          50.000                                                  
E 2  24572292.100   129128256.996          50.000    24572295.800    96426935.461          50.000  
E15  25363177.160   133284341.984          50.000    25363183.880    99530496.566          50.000  
E27  26711480.220   140369728.414          50.000    26711486.160   104821531.836          50.000  
E30  22356665.380   117485052.465          50.000    22356669.380    87732334.164          50.000  
E36  25401903.280   133487859.879          50.000    25401908.920    99682477.359          50.000  
> 2020  5 28 19 10 45.0000000  0 12       0.000000000000
G 2  21957591.640   115387927.254          50.000                                                  
G 6  20951233.300   110099420.105          50.000    20951236.080    82217098.602          50.000  
G12  22779326.640   119706155.441          50.000                                                  
G17  22458238.560   118018791.348          50.000                                                  
G19  20683791.500   108694052.828          50.000                                                  
G24  21133297.300   111056167.133          50.000    21133299.640    82931549.949          50.000  
G28  23439703.020   123176586.414          50.000                                                  
E 2  24572556.120   129129644.414          50.000    24572559.820    96427971.520          50.000  
E15  25362658.240   133281615.051          50.000    25362664.960    99528460.223          50.000  
E27  26711027.560   140367349.770          50.000    26711033.520   104819755.574          50.000  
E30  22356505.740   117484213.543          50.000    22356509.740    87731707.695          50.000  
E36  25402316.220   133490029.898          50.000    25402321.860    99684097.828          50.000  
> 2020  5 28 19 10 46.0000000  0 12       0.000000000000
G 2  21957112.120   115385407.363          50.000                                                  
G 6  20951002.060   110098204.930          50.000    20951004.840    82216191.168          50.000  
G12  22778827.380   119703531.875          50.000                                                  
G17  22458702.980   118021231.883          50.000                                                  
G19  20684115.580   108695755.844          50.000                                                  
G24  21133160.620   111055448.879          50.000    21133162.960    82931013.590          50.000  
G28  23440079.920   123178567.078          50.000                                                  
E 2  24572820.180   129131032.078          50.000    24572823.880    96429007.762          50.000  
E15  25362139.360   133278888.355          50.000    25362146.100    99526424.055          50.000  
E27  26710574.920   140364971.117          50.000    26710580.880   104817979.309          50.000  
E30  22356346.140   117483374.832          50.000    22356350.140    87731081.387          50.000  
E36  25402729.220   133492200.191          50.000    25402734.840    99685718.500          50.000  
> 2020  5 28 19 10 47.0000000  0 12       0.000000000000
G 2  21956632.680   115382887.887          50.000                                                  
G 6  20950770.940   110096990.391          50.000    20950773.720    82215284.207          50.000  
G12  22778328.160   119700908.395          50.000                                                  
G17  22459167.420   118023672.520          50.000                                                  
G19  20684439.720   108697459.234          50.000                                                  
G24  21133024.040   111054731.211          50.000    21133026.400    82930477.672          50.000  
G28  23440456.860   123180547.914          50.000                                                  
E 2  24573084.300   129132419.988          50.000    24573088.000    96430044.188          50.000  
E15  25361620.540   133276161.891          50.000    25361627.260    99524388.059          50.000  
E27  26710122.280   140362592.453          50.000    26710128.240   104816203.039          50.000  
E30  22356186.580   117482536.344          50.000    22356190.580    87730455.238          50.000  
E36  25403142.260   133494370.754          50.000    25403147.900    99687339.375          50.000  
> 2020  5 28 19 10 48.0000000  0 12       0.000000000000
G 2  21956153.320   115380368.809          50.000                                                  
G 6  20950539.940   110095776.492          50.000    20950542.720    82214377.723          50.000  
G12  22777828.940   119698284.988          50.000                                                  
G17  22459631.880   118026113.246          50.000                                                  
G19  20684763.940   108699162.996          50.000                                                  
G24  21132887.600   111054014.172          50.000    21132889.940    82929942.219          50.000  
G28  23440833.840   123182528.902          50.000                                                  
E 2  24573348.460   129133808.145          50.000    24573352.160    96431080.797          50.000  
E15  25361101.760   133273435.664          50.000    25361108.480    99522352.242          50.000  
E27  26709669.640   140360213.781          50.000    26709675.580   104814426.758          50.000  
E30  22356027.060   117481698.063          50.000    22356031.060    87729829.250          50.000  
E36  25403555.360   133496541.582          50.000    25403560.980    99688960.449          50.000  
> 2020  5 28 19 10 49.0000000  0 12       0.000000000000
G 2  21955674.040   115377850.141          50.000                                                  
G 6  20950309.060   110094563.234          50.000    20950311.840    82213471.719          50.000  
G12  22777329.740   119695661.664          50.000                                                  
G17  22460096.340   118028554.074          50.000                                                  
G19  20685088.220   108700867.117          50.000                                                  
G24  21132751.260   111053297.738          50.000    21132753.620    82929407.223          50.000  
G28  23441210.840   123184510.043          50.000                                                  
E 2  24573612.660   129135196.547          50.000    24573616.360    96432117.590          50.000  
E15  25360583.020   133270709.668          50.000    25360589.740    99520316.598          50.000  
E27  26709216.980   140357835.086          50.000    26709222.940   104812650.461          50.000  
E30  22355867.580   117480859.996          50.000    22355871.580    87729203.422          50.000  
E36  25403968.500   133498712.691          50.000    25403974.140    99690581.730          50.000  
> 2020  5 28 19 10 50.0000000  0 12       0.000000000000
G 2  21955194.820   115375331.895          50.000                                                  
G 6  20950078.300   110093350.613          50.000    20950081.080    82212566.191          50.000  
G12  22776830.540   119693038.422          50.000                                                  
G17  22460560.840   118030995.000          50.000                                                  
G19  20685412.580   108702571.582          50.000                                                  
G24  21132615.040   111052581.910          50.000    21132617.400    82928872.676          50.000  
G28  23441587.860   123186491.352          50.000                                                  
E 2  24573876.900   129136585.191          50.000    24573880.600    96433154.566          50.000  
E15  25360064.320   133267983.891          50.000    25360071.040    99518281.113          50.000  
E27  26708764.320   140355456.395          50.000    26708770.280   104810874.164          50.000  
E30  22355708.140   117480022.141          50.000    22355712.140    87728577.750          50.000  
E36  25404381.700   133500884.066          50.000    25404387.340    99692203.211          50.000  
> 2020  5 28 19 10 51.0000000  0 12       0.000000000000
G 2  21954715.700   115372814.043          50.000                                                  
G 6  20949847.680   110092138.633          50.000    20949850.460    82211661.141          50.000  
G12  22776331.380   119690415.258          50.000                                                  
G17  22461025.360   118033436.023          50.000                                                  
G19  20685737.000   108704276.418          50.000                                                  
G24  21132478.940   111051866.711          50.000    21132481.300    82928338.598          50.000  
G28  23441964.920   123188472.813          50.000                                                  
E 2  24574141.200   129137974.078          50.000    24574144.900    96434191.723          50.000  
E15  25359545.660   133265258.352          50.000    25359552.380    99516245.813          50.000  
E27  26708311.680   140353077.688          50.000    26708317.620   104809097.863          50.000  
E30  22355548.740   117479184.496          50.000    22355552.740    87727952.242          50.000  
E36  25404794.960   133503055.711          50.000    25404800.580    99693824.891          50.000  
> 2020  5 28 19 10 52.0000000  0 12       0.000000000000
G 2  21954236.640   115370296.609          50.000                                                  
G 6  20949617.160   110090927.285          50.000    20949619.940    82210756.566          50.000  
G12  22775832.220   119687792.188          50.000                                                  
G17  22461489.880   118035877.141          50.000                                                  
G19  20686061.480   108705981.609          50.000                                                  
G24  21132342.980   111051152.145          50.000    21132345.320    82927804.992          50.000  
G28  23442342.020   123190454.430          50.000                                                  
E 2  24574405.540   129139363.215          50.000    24574409.240    96435229.063          50.000  
E15  25359027.060   133262533.047          50.000    25359033.780    99514210.684          50.000  
E27  26707859.020   140350698.965          50.000    26707864.980   104807321.543          50.000  
E30  22355389.400   117478347.070          50.000    22355393.380    87727326.891          50.000  
E36  25405208.260   133505227.629          50.000    25405213.900    99695446.777          50.000  
> 2020  5 28 19 10 53.0000000  0 12       0.000000000000
G 2  21953757.660   115367779.574          50.000                                                  
G 6  20949386.780   110089716.582          50.000    20949389.560    82209852.469          50.000  
G12  22775333.080   119685169.184          50.000                                                  
G17  22461954.440   118038318.359          50.000                                                  
G19  20686386.040   108707687.156          50.000                                                  
G24  21132207.120   111050438.203          50.000    21132209.460    82927271.855          50.000  
G28  23442719.140   123192436.188          50.000                                                  
E 2  24574669.940   129140752.590          50.000    24574673.640    96436266.582          50.000  
E15  25358508.480   133259807.977          50.000    25358515.200    99512175.730          50.000  
E27  26707406.360   140348320.238          50.000    26707412.320   104805545.223          50.000  
E30  22355230.080   117477509.855          50.000    22355234.060    87726701.699          50.000  
E36  25405621.600   133507399.820          50.000    25405627.240    99697068.867          50.000  
> 2020  5 28 19 10 54.0000000  0 12       0.000000000000
G 2  21953278.760   115365262.957          50.000                                                  
G 6  20949156.500   110088506.523          50.000    20949159.280    82208948.855          50.000  
G12  22774833.940   119682546.254          50.000                                                  
G17  22462419.000   118040759.668          50.000                                                  
G19  20686710.660   108709393.070          50.000                                                  
G24  21132071.380   111049724.883          50.000    21132073.720    82926739.180          50.000  
G28  23443096.280   123194418.113          50.000                                                  
E 2  24574934.380   129142142.223          50.000    24574938.080    96437304.293          50.000  
E15  25357989.960   133257083.129          50.000    25357996.680    99510140.941          50.000  
E27  26706953.700   140345941.492          50.000    26706959.660   104803768.887          50.000  
E30  22355070.800   117476672.855          50.000    22355074.800    87726076.664          50.000  
E36  25406035.020   133509572.281          50.000    25406040.660    99698691.160          50.000  
> 2020  5 28 19 10 55.0000000  0 12       0.000000000000
G 2  21952799.940   115362746.754          50.000                                                  
G 6  20948926.360   110087297.109          50.000    20948929.140    82208045.723          50.000  
G12  22774334.840   119679923.418          50.000                                                  
G17  22462883.580   118043201.078          50.000                                                  
G19  20687035.360   108711099.336          50.000                                                  
G24  21131935.760   111049012.195          50.000    21131938.100    82926206.977          50.000  
G28  23443473.460   123196400.199          50.000                                                  
E 2  24575198.860   129143532.113          50.000    24575202.560    96438342.199          50.000  
E15  25357471.480   133254358.523          50.000    25357478.220    99508106.336          50.000  
E27  26706501.040   140343562.734          50.000    26706506.980   104801992.543          50.000  
E30  22354911.560   117475836.074          50.000    22354915.560    87725451.797          50.000  
E36  25406448.480   133511745.008          50.000    25406454.100    99700313.648          50.000  
> 2020  5 28 19 10 56.0000000  0 12       0.000000000000
G 2  21952321.200   115360230.961          50.000                                                  
G 6  20948696.340   110086088.328          50.000    20948699.120    82207143.063          50.000  
G12  22773835.740   119677300.652          50.000                                                  
G17  22463348.180   118045642.586          50.000                                                  
G19  20687360.120   108712805.961          50.000                                                  
G24  21131800.260   111048300.137          50.000    21131802.600    82925675.246          50.000  
G28  23443850.680   123198382.426          50.000                                                  
E 2  24575463.400   129144922.219          50.000    24575467.100    96439380.266          50.000  
E15  25356953.060   133251634.129          50.000    25356959.780    99506071.887          50.000  
E27  26706048.380   140341183.969          50.000    26706054.320   104800216.195          50.000  
E30  22354752.360   117474999.500          50.000    22354756.360    87724827.078          50.000  
E36  25406861.980   133513918.008          50.000    25406867.620    99701936.344          50.000  
> 2020  5 28 19 10 57.0000000  0 12       0.000000000000
G 2  21951842.540   115357715.574          50.000                                                  
G 6  20948466.440   110084880.184          50.000    20948469.220    82206240.879          50.000  
G12  22773336.660   119674677.961          50.000                                                  
G17  22463812.820   118048084.184          50.000                                                  
G19  20687684.940   108714512.941          50.000                                                  
G24  21131664.860   111047588.680          50.000    21131667.220    82925143.961          50.000  
G28  23444227.900   123200364.801          50.000                                                  
E 2  24575727.980   129146312.574          50.000    24575731.680    96440418.516          50.000  
E15  25356434.660   133248909.973          50.000    25356441.380    99504037.613          50.000  
E27  26705595.700   140338805.191          50.000    26705601.660   104798439.836          50.000  
E30  22354593.220   117474163.133          50.000    22354597.200    87724202.523          50.000  
E36  25407275.540   133516091.273          50.000    25407281.180    99703559.234          50.000  
> 2020  5 28 19 10 58.0000000  0 12       0.000000000000
G 2  21951363.960   115355200.594          50.000                                                  
G 6  20948236.660   110083672.684          50.000    20948239.440    82205339.172          50.000  
G12  22772837.600   119672055.359          50.000                                                  
G17  22464277.460   118050525.883          50.000                                                  
G19  20688009.840   108716220.277          50.000                                                  
G24  21131529.600   111046877.871          50.000    21131531.960    82924613.164          50.000  
G28  23444605.180   123202347.340          50.000                                                  
E 2  24575992.600   129147703.180          50.000    24575996.300    96441456.953          50.000  
E15  25355916.320   133246186.051          50.000    25355923.040    99502003.520          50.000  
E27  26705143.040   140336426.406          50.000    26705148.980   104796663.473          50.000  
E30  22354434.100   117473326.984          50.000    22354438.100    87723578.125          50.000  
E36  25407689.160   133518264.813          50.000    25407694.780    99705182.332          50.000  
> 2020  5 28 19 10 59.0000000  0 12       0.000000000000
G 2  21950885.460   115352686.035          50.000                                                  
G 6  20948007.000   110082465.828          50.000    20948009.780    82204437.949          50.000  
G12  22772338.540   119669432.824          50.000                                                  
G17  22464742.100   118052967.668          50.000                                                  
G19  20688334.800   108717927.980          50.000                                                  
G24  21131394.440   111046167.637          50.000    21131396.800    82924082.793          50.000  
G28  23444982.460   123204330.027          50.000                                                  
E 2  24576257.260   129149094.043          50.000    24576260.960    96442495.586          50.000  
E15  25355398.020   133243462.371          50.000    25355404.740    99499969.605          50.000  
E27  26704690.360   140334047.598          50.000    26704696.320   104794887.094          50.000  
E30  22354275.020   117472491.051          50.000    22354279.020    87722953.887          50.000  
E36  25408102.820   133520438.621          50.000    25408108.460    99706805.629          50.000  
> 2020  5 28 19 11  0.0000000  0 12       0.000000000000
G 2  21950407.020   115350171.875          50.000                                                  
G 6  20947777.460   110081259.609          50.000    20947780.240    82203537.203          50.000  
G12  22771839.500   119666810.387          50.000                                                  
G17  22465206.780   118055409.559          50.000                                                  
G19  20688659.840   108719636.043          50.000                                                  
G24  21131259.420   111045458.063          50.000    21131261.780    82923552.918          50.000  
G28  23445359.800   123206312.879          50.000                                                  
E 2  24576521.980   129150485.137          50.000    24576525.680    96443534.391          50.000  
E15  25354879.760   133240738.902          50.000    25354886.480    99497935.844          50.000  
E27  26704237.680   140331668.789          50.000    26704243.640   104793110.707          50.000  
E30  22354116.000   117471655.328          50.000    22354119.980    87722329.809          50.000  
E36  25408516.520   133522612.695          50.000    25408522.160    99708429.125          50.000  
> 2020  5 28 19 11  1.0000000  0 12       0.000000000000
G 2  21949928.680   115347658.133          50.000                                                  
G 6  20947548.040   110080054.020          50.000    20947550.820    82202636.926          50.000  
G12  22771340.480   119664188.031          50.000                                                  
G17  22465671.480   118057851.547          50.000                                                  
G19  20688984.940   108721344.465          50.000                                                  
G24  21131124.520   111044749.129          50.000    21131126.860    82923023.520          50.000  
G28  23445737.140   123208295.895          50.000                                                  
E 2  24576786.740   129151876.469          50.000    24576790.440    96444573.371          50.000  
E15  25354361.540   133238015.668          50.000    25354368.260    99495902.262          50.000  
E27  26703785.020   140329289.973          50.000    26703790.960   104791334.320          50.000  
E30  22353957.000   117470819.816          50.000    22353961.000    87721705.891          50.000  
E36  25408930.300   133524787.043          50.000    25408935.940    99710052.824          50.000  
> 2020  5 28 19 11  2.0000000  0 12       0.000000000000
G 2  21949450.400   115345144.793          50.000                                                  
G 6  20947318.760   110078849.090          50.000    20947321.540    82201737.141          50.000  
G12  22770841.480   119661565.746          50.000                                                  
G17  22466136.200   118060293.633          50.000                                                  
G19  20689310.100   108723053.246          50.000                                                  
G24  21130989.720   111044040.820          50.000    21130992.080    82922494.590          50.000  
G28  23446114.540   123210279.063          50.000                                                  
E 2  24577051.560   129153268.066          50.000    24577055.260    96445612.547          50.000  
E15  25353843.380   133235292.684          50.000    25353850.100    99493868.867          50.000  
E27  26703332.340   140326911.137          50.000    26703338.280   104789557.918          50.000  
E30  22353798.040   117469984.523          50.000    22353802.040    87721082.129          50.000  
E36  25409344.100   133526961.660          50.000    25409349.740    99711676.727          50.000  
> 2020  5 28 19 11  3.0000000  0 12       0.000000000000
G 2  21948972.200   115342631.875          50.000                                                  
G 6  20947089.580   110077644.785          50.000    20947092.360    82200837.824          50.000  
G12  22770342.500   119658943.547          50.000                                                  
G17  22466600.920   118062735.813          50.000                                                  
G19  20689635.340   108724762.383          50.000                                                  
G24  21130855.060   111043333.129          50.000    21130857.420    82921966.117          50.000  
G28  23446491.940   123212262.383          50.000                                                  
E 2  24577316.420   129154659.902          50.000    24577320.120    96446651.906          50.000  
E15  25353325.240   133232569.906          50.000    25353331.960    99491835.625          50.000  
E27  26702879.660   140324532.293          50.000    26702885.600   104787781.512          50.000  
E30  22353639.140   117469149.438          50.000    22353643.140    87720458.527          50.000  
E36  25409757.980   133529136.555          50.000    25409763.620    99713300.836          50.000  
> 2020  5 28 19 11  4.0000000  0 12       0.000000000000
G 2  21948494.080   115340119.355          50.000                                                  
G 6  20946860.540   110076441.129          50.000    20946863.320    82199938.992          50.000  
G12  22769843.520   119656321.418          50.000                                                  
G17  22467065.680   118065178.086          50.000                                                  
G19  20689960.660   108726471.879          50.000                                                  
G24  21130720.500   111042626.051          50.000    21130722.860    82921438.105          50.000  
G28  23446869.400   123214245.863          50.000                                                  
E 2  24577581.320   129156051.977          50.000    24577585.020    96447691.441          50.000  
E15  25352807.160   133229847.383          50.000    25352813.880    99489802.574          50.000  
E27  26702426.980   140322153.438          50.000    26702432.920   104786005.098          50.000  
E30  22353480.260   117468314.574          50.000    22353484.260    87719835.090          50.000  
E36  25410171.900   133531311.703          50.000    25410177.540    99714925.133          50.000  
> 2020  5 28 19 11  5.0000000  0 12       0.000000000000
G 2  21948016.040   115337607.246          50.000                                                  
G 6  20946631.600   110075238.113          50.000    20946634.380    82199040.637          50.000  
G12  22769344.560   119653699.379          50.000                                                  
G17  22467530.440   118067620.469          50.000                                                  
G19  20690286.020   108728181.723          50.000                                                  
G24  21130586.080   111041919.613          50.000    21130588.420    82920910.570          50.000  
G28  23447246.860   123216229.488          50.000                                                  
E 2  24577846.280   129157444.301          50.000    24577849.980    96448731.168          50.000  
E15  25352289.120   133227125.082          50.000    25352295.840    99487769.688          50.000  
E27  26701974.300   140319774.570          50.000    26701980.240   104784228.672          50.000  
E30  22353321.440   117467479.918          50.000    22353325.440    87719211.809          50.000  
E36  25410585.860   133533487.137          50.000    25410591.500    99716549.645          50.000  
> 2020  5 28 19 11  6.0000000  0 12       0.000000000000
G 2  21947538.080   115335095.551          50.000                                                  
G 6  20946402.800   110074035.742          50.000    20946405.580    82198142.758          50.000  
G12  22768845.620   119651077.414          50.000                                                  
G17  22467995.240   118070062.934          50.000                                                  
G19  20690611.460   108729891.930          50.000                                                  
G24  21130451.760   111041213.785          50.000    21130454.120    82920383.492          50.000  
G28  23447624.360   123218213.277          50.000                                                  
E 2  24578111.260   129158836.867          50.000    24578114.960    96449771.066          50.000  
E15  25351771.140   133224403.000          50.000    25351777.860    99485736.965          50.000  
E27  26701521.600   140317395.699          50.000    26701527.560   104782452.242          50.000  
E30  22353162.640   117466645.477          50.000    22353166.640    87718588.688          50.000  
E36  25410999.880   133535662.832          50.000    25411005.520    99718174.352          50.000  
> 2020  5 28 19 11  7.0000000  0 12       0.000000000000
G 2  21947060.200   115332584.273          50.000                                                  
G 6  20946174.120   110072834.012          50.000    20946176.900    82197245.363          50.000  
G12  22768346.680   119648455.531          50.000                                                  
G17  22468460.040   118072505.508          50.000                                                  
G19  20690936.980   108731602.500          50.000                                                  
G24  21130317.560   111040508.590          50.000    21130319.920    82919856.883          50.000  
G28  23448001.900   123220197.230          50.000                                                  
E 2  24578376.320   129160229.688          50.000    24578380.020    96450811.160          50.000  
E15  25351253.180   133221681.180          50.000    25351259.900    99483704.438          50.000  
E27  26701068.920   140315016.816          50.000    26701074.860   104780675.805          50.000  
E30  22353003.900   117465811.254          50.000    22353007.900    87717965.730          50.000  
E36  25411413.960   133537838.801          50.000    25411419.600    99719799.262          50.000  
> 2020  5 28 19 11  8.0000000  0 12       0.000000000000
G 2  21946582.400   115330073.395          50.000                                                  
G 6  20945945.560   110071632.918          50.000    20945948.340    82196348.445          50.000  
G12  22767847.780   119645833.723          50.000                                                  
G17  22468924.860   118074948.168          50.000                                                  
G19  20691262.560   108733313.422          50.000                                                  
G24  21130183.500   111039804.020          50.000    21130185.840    82919330.746          50.000  
G28  23448379.460   123222181.332          50.000                                                  
E 2  24578641.400   129161622.750          50.000    24578645.100    96451851.434          50.000  
E15  25350735.280   133218959.563          50.000    25350742.000    99481672.063          50.000  
E27  26700616.220   140312637.926          50.000    26700622.180   104778899.359          50.000  
E30  22352845.200   117464977.242          50.000    22352849.200    87717342.930          50.000  
E36  25411828.080   133540015.031          50.000    25411833.720    99721424.367          50.000  
> 2020  5 28 19 11  9.0000000  0 12       0.000000000000
G 2  21946104.680   115327562.922          50.000                                                  
G 6  20945717.120   110070432.465          50.000    20945719.900    82195452.000          50.000  
G12  22767348.880   119643212.008          50.000                                                  
G17  22469389.700   118077390.930          50.000                                                  
G19  20691588.200   108735024.703          50.000                                                  
G24  21130049.540   111039100.082          50.000    21130051.880    82918805.078          50.000  
G28  23448757.060   123224165.582          50.000                                                  
E 2  24578906.540   129163016.047          50.000    24578910.240    96452891.883          50.000  
E15  25350217.420   133216238.176          50.000    25350224.140    99479639.859          50.000  
E27  26700163.540   140310259.012          50.000    26700169.480   104777122.902          50.000  
E30  22352686.520   117464143.445          50.000    22352690.520    87716720.289          50.000  
E36  25412242.260   133542191.543          50.000    25412247.900    99723049.684          50.000  
> 2020  5 28 19 11 10.0000000  0 12       0.000000000000
G 2  21945627.020   115325052.867          50.000                                                  
G 6  20945488.800   110069232.641          50.000    20945491.580    82194556.031          50.000  
G12  22766850.000   119640590.367          50.000                                                  
G17  22469854.560   118079833.785          50.000                                                  
G19  20691913.920   108736736.340          50.000                                                  
G24  21129915.700   111038396.777          50.000    21129918.060    82918279.883          50.000  
G28  23449134.680   123226149.984          50.000                                                  
E 2  24579171.720   129164409.598          50.000    24579175.420    96453932.520          50.000  
E15  25349699.600   133213517.039          50.000    25349706.320    99477607.844          50.000  
E27  26699710.840   140307880.098          50.000    26699716.780   104775346.441          50.000  
E30  22352527.900   117463309.859          50.000    22352531.900    87716097.805          50.000  
E36  25412656.480   133544368.313          50.000    25412662.120    99724675.195          50.000  
> 2020  5 28 19 11 11.0000000  0 12       0.000000000000
G 2  21945149.460   115322543.152          50.000                                                  
G 6  20945260.600   110068033.473          50.000    20945263.340    82193660.750          50.000  
G12  22766351.120   119637968.816          50.000                                                  
G17  22470319.420   118082276.863          50.000                                                  
G19  20692239.680   108738448.434          50.000                                                  
G24  21129782.020   111037693.953          50.000    21129784.340    82917755.152          50.000  
G28  23449512.300   123228134.680          50.000                                                  
E 2  24579436.960   129165803.387          50.000    24579440.660    96454973.336          50.000  
E15  25349181.840   133210796.133          50.000    25349188.560    99475575.992          50.000  
E27  26699258.140   140305501.266          50.000    26699264.060   104773570.094          50.000  
E30  22352369.320   117462476.488          50.000    22352373.320    87715475.480          50.000  
E36  25413070.760   133546545.395          50.000    25413076.400    99726300.957          50.000  
> 2020  5 28 19 11 12.0000000  0 12       0.000000000000
G 2  21944671.980   115320033.926          50.000                                                  
G 6  20945032.540   110066834.957          50.000    20945035.260    82192765.746          50.000  
G12  22765852.280   119635347.332          50.000                                                  
G17  22470784.320   118084719.906          50.000                                                  
G19  20692565.540   108740160.789          50.000                                                  
G24  21129648.420   111036991.895          50.000    21129650.740    82917230.883          50.000  
G28  23449889.980   123230119.406          50.000                                                  
E 2  24579702.240   129167197.426          50.000    24579705.940    96456014.336          50.000  
E15  25348664.100   133208075.441          50.000    25348670.820    99473544.313          50.000  
E27  26698805.440   140303122.324          50.000    26698811.360   104771793.613          50.000  
E30  22352210.780   117461643.332          50.000    22352214.780    87714853.316          50.000  
E36  25413485.100   133548722.699          50.000    25413490.720    99727926.867          50.000  
> 2020  5 28 19 11 13.0000000  0 12       0.000000000000
G 2  21944194.560   115317525.094          50.000                                                  
G 6  20944804.580   110065637.055          50.000    20944807.320    82191871.207          50.000  
G12  22765353.440   119632725.953          50.000                                                  
G17  22471249.240   118087163.047          50.000                                                  
G19  20692891.440   108741873.496          50.000                                                  
G24  21129514.940   111036290.445          50.000    21129517.260    82916707.070          50.000  
G28  23450267.700   123232104.281          50.000                                                  
E 2  24579967.560   129168591.703          50.000    24579971.260    96457055.520          50.000  
E15  25348146.420   133205354.977          50.000    25348153.140    99471512.797          50.000  
E27  26698352.740   140300743.367          50.000    26698358.660   104770017.121          50.000  
E30  22352052.280   117460810.383          50.000    22352056.280    87714231.309          50.000  
E36  25413899.480   133550900.281          50.000    25413905.120    99729552.980          50.000  
> 2020  5 28 19 11 14.0000000  0 12       0.000000000000
G 2  21943717.220   115315016.684          50.000                                                  
G 6  20944576.760   110064439.813          50.000    20944579.480    82190977.160          50.000  
G12  22764854.620   119630104.660          50.000                                                  
G17  22471714.160   118089606.277          50.000                                                  
G19  20693217.440   108743586.574          50.000                                                  
G24  21129381.580   111035589.621          50.000    21129383.900    82916183.723          50.000  
G28  23450645.440   123234089.324          50.000                                                  
E 2  24580232.940   129169986.254          50.000    24580236.640    96458096.906          50.000  
E15  25347628.780   133202634.762          50.000    25347635.500    99469481.469          50.000  
E27  26697900.040   140298364.406          50.000    26697905.960   104768240.629          50.000  
E30  22351893.820   117459977.656          50.000    22351897.820    87713609.469          50.000  
E36  25414313.900   133553078.129          50.000    25414319.540    99731179.297          50.000  
> 2020  5 28 19 11 15.0000000  0 12       0.000000000000
G 2  21943239.960   115312508.684          50.000                                                  
G 6  20944349.040   110063243.207          50.000    20944351.780    82190083.586          50.000  
G12  22764355.820   119627483.441          50.000                                                  
G17  22472179.120   118092049.602          50.000                                                  
G19  20693543.500   108745300.000          50.000                                                  
G24  21129248.340   111034889.426          50.000    21129250.660    82915660.848          50.000  
G28  23451023.200   123236074.516          50.000                                                  
E 2  24580498.360   129171381.016          50.000    24580502.060    96459138.445          50.000  
E15  25347111.180   133199914.777          50.000    25347117.900    99467450.309          50.000  
E27  26697447.340   140295985.438          50.000    26697453.260   104766464.125          50.000  
E30  22351735.400   117459145.141          50.000    22351739.380    87712987.785          50.000  
E36  25414728.400   133555256.246          50.000    25414734.020    99732805.809          50.000  
> 2020  5 28 19 11 16.0000000  0 12       0.000000000000
G 2  21942762.780   115310001.094          50.000                                                  
G 6  20944121.460   110062047.234          50.000    20944124.200    82189190.484          50.000  
G12  22763857.040   119624862.289          50.000                                                  
G17  22472644.080   118094493.027          50.000                                                  
G19  20693869.620   108747013.781          50.000                                                  
G24  21129115.200   111034189.863          50.000    21129117.540    82915138.441          50.000  
G28  23451401.000   123238059.863          50.000                                                  
E 2  24580763.820   129172776.031          50.000    24580767.520    96460180.172          50.000  
E15  25346593.640   133197195.016          50.000    25346600.340    99465419.316          50.000  
E27  26696994.620   140293606.445          50.000    26697000.560   104764687.602          50.000  
E30  22351577.000   117458312.832          50.000    22351581.000    87712366.254          50.000  
E36  25415142.920   133557434.629          50.000    25415148.560    99734432.520          50.000  
> 2020  5 28 19 11 17.0000000  0 12       0.000000000000
G 2  21942285.680   115307493.922          50.000                                                  
G 6  20943894.000   110060851.914          50.000    20943896.740    82188297.875          50.000  
G12  22763358.260   119622241.230          50.000                                                  
G17  22473109.080   118096936.551          50.000                                                  
G19  20694195.800   108748727.922          50.000                                                  
G24  21128982.200   111033490.922          50.000    21128984.540    82914616.500          50.000  
G28  23451778.840   123240045.375          50.000                                                  
E 2  24581029.320   129174171.316          50.000    24581033.040    96461222.102          50.000  
E15  25346076.120   133194475.496          50.000    25346082.840    99463388.504          50.000  
E27  26696541.920   140291227.457          50.000    26696547.860   104762911.082          50.000  
E30  22351418.660   117457480.750          50.000    22351422.660    87711744.887          50.000  
E36  25415557.520   133559613.297          50.000    25415563.160    99736059.441          50.000  
> 2020  5 28 19 11 18.0000000  0 12       0.000000000000
G 2  21941808.660   115304987.168          50.000                                                  
G 6  20943666.660   110059657.223          50.000    20943669.380    82187405.730          50.000  
G12  22762859.500   119619620.246          50.000                                                  
G17  22473574.080   118099380.160          50.000                                                  
G19  20694522.060   108750442.426          50.000                                                  
G24  21128849.320   111032792.578          50.000    21128851.640    82914095.008          50.000  
G28  23452156.700   123242031.035          50.000                                                  
E 2  24581294.880   129175566.809          50.000    24581298.580    96462264.188          50.000  
E15  25345558.660   133191756.215          50.000    25345565.380    99461357.867          50.000  
E27  26696089.200   140288848.453          50.000    26696095.140   104761134.551          50.000  
E30  22351260.380   117456648.883          50.000    22351264.380    87711123.684          50.000  
E36  25415972.140   133561792.223          50.000    25415977.780    99737686.559          50.000  
> 2020  5 28 19 11 19.0000000  0 12       0.000000000000
G 2  21941331.720   115302480.820          50.000                                                  
G 6  20943439.440   110058463.184          50.000    20943442.180    82186514.074          50.000  
G12  22762360.760   119616999.344          50.000                                                  
G17  22474039.100   118101823.871          50.000                                                  
G19  20694848.400   108752157.285          50.000                                                  
G24  21128716.540   111032094.836          50.000    21128718.880    82913573.965          50.000  
G28  23452534.600   123244016.863          50.000                                                  
E 2  24581560.500   129176962.586          50.000    24581564.200    96463306.484          50.000  
E15  25345041.240   133189037.156          50.000    25345047.960    99459327.402          50.000  
E27  26695636.500   140286469.445          50.000    26695642.420   104759358.020          50.000  
E30  22351102.120   117455817.227          50.000    22351106.120    87710502.641          50.000  
E36  25416386.840   133563971.414          50.000    25416392.480    99739313.871          50.000  
> 2020  5 28 19 11 20.0000000  0 12       0.000000000000
G 2  21940854.860   115299974.883          50.000                                                  
G 6  20943212.340   110057269.770          50.000    20943215.080    82185622.887          50.000  
G12  22761862.040   119614378.523          50.000                                                  
G17  22474504.140   118104267.676          50.000                                                  
G19  20695174.780   108753872.500          50.000                                                  
G24  21128583.880   111031397.734          50.000    21128586.220    82913053.398          50.000  
G28  23452912.520   123246002.836          50.000                                                  
E 2  24581826.140   129178358.566          50.000    24581829.840    96464348.938          50.000  
E15  25344523.860   133186318.328          50.000    25344530.580    99457297.113          50.000  
E27  26695183.780   140284090.414          50.000    26695189.720   104757581.473          50.000  
E30  22350943.900   117454985.773          50.000    22350947.900    87709881.754          50.000  
E36  25416801.580   133566150.871          50.000    25416807.220    99740941.391          50.000  
> 2020  5 28 19 11 21.0000000  0 12       0.000000000000
G 2  21940378.080   115297469.352          50.000                                                  
G 6  20942985.360   110056077.012          50.000    20942988.100    82184732.188          50.000  
G12  22761363.320   119611757.766          50.000                                                  
G17  22474969.200   118106711.582          50.000                                                  
G19  20695501.240   108755588.082          50.000                                                  
G24  21128451.360   111030701.266          50.000    21128453.680    82912533.301          50.000  
G28  23453290.460   123247988.965          50.000                                                  
E 2  24582091.840   129179754.836          50.000    24582095.540    96465391.605          50.000  
E15  25344006.540   133183599.746          50.000    25344013.260    99455267.000          50.000  
E27  26694731.060   140281711.383          50.000    26694737.000   104755804.922          50.000  
E30  22350785.720   117454154.547          50.000    22350789.720    87709261.031          50.000  
E36  25417216.360   133568330.609          50.000    25417222.000    99742569.117          50.000  
> 2020  5 28 19 11 22.0000000  0 12       0.000000000000
G 2  21939901.360   115294964.242          50.000                                                  
G 6  20942758.500   110054884.887          50.000    20942761.240    82183841.961          50.000  
G12  22760864.620   119609137.098          50.000                                                  
G17  22475434.280   118109155.582          50.000                                                  
G19  20695827.780   108757304.016          50.000                                                  
G24  21128318.940   111030005.449          50.000    21128321.280    82912013.695          50.000  
G28  23453668.440   123249975.254          50.000                                                  
E 2  24582357.580   129181151.332          50.000    24582361.300    96466434.445          50.000  
E15  25343489.240   133180881.387          50.000    25343495.960    99453237.059          50.000  
E27  26694278.340   140279332.340          50.000    26694284.280   104754028.367          50.000  
E30  22350627.580   117453323.535          50.000    22350631.580    87708640.473          50.000  
E36  25417631.200   133570510.613          50.000    25417636.840    99744197.039          50.000  
> 2020  5 28 19 11 23.0000000  0 12       0.000000000000
G 2  21939424.740   115292459.535          50.000                                                  
G 6  20942531.780   110053693.406          50.000    20942534.520    82182952.215          50.000  
G12  22760365.940   119606516.512          50.000                                                  
G17  22475899.380   118111599.676          50.000                                                  
G19  20696154.380   108759020.305          50.000                                                  
G24  21128186.640   111029310.215          50.000    21128188.980    82911494.523          50.000  
G28  23454046.440   123251961.688          50.000                                                  
E 2  24582623.380   129182548.074          50.000    24582627.080    96467477.465          50.000  
E15  25342972.000   133178163.258          50.000    25342978.720    99451207.289          50.000  
E27  26693825.640   140276953.289          50.000    26693831.560   104752251.805          50.000  
E30  22350469.480   117452492.742          50.000    22350473.480    87708020.074          50.000  
E36  25418046.100   133572690.887          50.000    25418051.740    99745825.164          50.000  
> 2020  5 28 19 11 24.0000000  0 12       0.000000000000
G 2  21938948.180   115289955.246          50.000                                                  
G 6  20942305.160   110052502.570          50.000    20942307.900    82182062.949          50.000  
G12  22759867.280   119603895.992          50.000                                                  
G17  22476364.480   118114043.859          50.000                                                  
G19  20696481.040   108760736.957          50.000                                                  
G24  21128054.460   111028615.617          50.000    21128056.800    82910975.828          50.000  
G28  23454424.480   123253948.293          50.000                                                  
E 2  24582889.220   129183945.043          50.000    24582892.920    96468520.656          50.000  
E15  25342454.800   133175445.367          50.000    25342461.520    99449177.699          50.000  
E27  26693372.900   140274574.227          50.000    26693378.840   104750475.230          50.000  
E30  22350311.420   117451662.152          50.000    22350315.420    87707399.828          50.000  
E36  25418461.040   133574871.422          50.000    25418466.680    99747453.488          50.000  
> 2020  5 28 19 11 25.0000000  0 12       0.000000000000
G 2  21938471.700   115287451.367          50.000                                                  
G 6  20942078.680   110051312.371          50.000    20942081.420    82181174.164          50.000  
G12  22759368.620   119601275.570          50.000                                                  
G17  22476829.620   118116488.145          50.000                                                  
G19  20696807.780   108762453.965          50.000                                                  
G24  21127922.400   111027921.660          50.000    21127924.740    82910457.609          50.000  
G28  23454802.560   123255935.047          50.000                                                  
E 2  24583155.100   129185342.277          50.000    24583158.800    96469564.043          50.000  
E15  25341937.640   133172727.703          50.000    25341944.360    99447148.273          50.000  
E27  26692920.180   140272195.156          50.000    26692926.120   104748698.656          50.000  
E30  22350153.420   117450831.789          50.000    22350157.420    87706779.754          50.000  
E36  25418876.040   133577052.234          50.000    25418881.680    99749082.016          50.000  
> 2020  5 28 19 11 26.0000000  0 12       0.000000000000
G 2  21937995.320   115284947.902          50.000                                                  
G 6  20941852.320   110050122.820          50.000    20941855.060    82180285.855          50.000  
G12  22758869.980   119598655.219          50.000                                                  
G17  22477294.760   118118932.516          50.000                                                  
G19  20697134.580   108764171.336          50.000                                                  
G24  21127790.480   111027228.316          50.000    21127792.800    82909939.848          50.000  
G28  23455180.640   123257921.953          50.000                                                  
E 2  24583421.020   129186739.750          50.000    24583424.740    96470607.613          50.000  
E15  25341420.540   133170010.273          50.000    25341427.260    99445119.027          50.000  
E27  26692467.460   140269816.066          50.000    26692473.380   104746922.066          50.000  
E30  22349995.440   117450001.637          50.000    22349999.440    87706159.832          50.000  
E36  25419291.080   133579233.309          50.000    25419296.720    99750710.738          50.000  
> 2020  5 28 19 11 27.0000000  0 12       0.000000000000
G 2  21937519.000   115282444.844          50.000                                                  
G 6  20941626.080   110048933.906          50.000    20941628.820    82179398.027          50.000  
G12  22758371.360   119596034.941          50.000                                                  
G17  22477759.940   118121376.984          50.000                                                  
G19  20697461.460   108765889.063          50.000                                                  
G24  21127658.660   111026535.605          50.000    21127661.000    82909422.559          50.000  
G28  23455558.780   123259909.027          50.000                                                  
E 2  24583687.000   129188137.469          50.000    24583690.720    96471651.363          50.000  
E15  25340903.480   133167293.082          50.000    25340910.180    99443089.953          50.000  
E27  26692014.740   140267436.969          50.000    26692020.660   104745145.469          50.000  
E30  22349837.500   117449171.691          50.000    22349841.500    87705540.070          50.000  
E36  25419706.180   133581414.652          50.000    25419711.820    99752339.660          50.000  
> 2020  5 28 19 11 28.0000000  0 12       0.000000000000
G 2  21937042.760   115279942.195          50.000                                                  
G 6  20941399.960   110047745.637          50.000    20941402.700    82178510.684          50.000  
G12  22757872.760   119593414.754          50.000                                                  
G17  22478225.120   118123821.559          50.000                                                  
G19  20697788.400   108767607.152          50.000                                                  
G24  21127526.960   111025843.543          50.000    21127529.300    82908905.754          50.000  
G28  23455936.940   123261896.250          50.000                                                  
E 2  24583953.040   129189535.465          50.000    24583956.740    96472695.320          50.000  
E15  25340386.440   133164576.113          50.000    25340393.160    99441061.051          50.000  
E27  26691562.000   140265057.867          50.000    26691567.940   104743368.867          50.000  
E30  22349679.620   117448341.969          50.000    22349683.620    87704920.473          50.000  
E36  25420121.320   133583596.270          50.000    25420126.960    99753968.789          50.000  
> 2020  5 28 19 11 29.0000000  0 12       0.000000000000
G 2  21936566.600   115277439.965          50.000                                                  
G 6  20941173.960   110046558.004          50.000    20941176.700    82177623.809          50.000  
G12  22757374.160   119590794.641          50.000                                                  
G17  22478690.320   118126266.215          50.000                                                  
G19  20698115.420   108769325.586          50.000                                                  
G24  21127395.380   111025152.098          50.000    21127397.720    82908389.410          50.000  
G28  23456315.120   123263883.633          50.000                                                  
E 2  24584219.100   129190933.672          50.000    24584222.820    96473739.434          50.000  
E15  25339869.480   133161859.383          50.000    25339876.180    99439032.328          50.000  
E27  26691109.280   140262678.754          50.000    26691115.200   104741592.258          50.000  
E30  22349521.760   117447512.465          50.000    22349525.760    87704301.039          50.000  
E36  25420536.520   133585778.148          50.000    25420542.160    99755598.113          50.000  
> 2020  5 28 19 11 30.0000000  0 12       0.000000000000
G 2  21936090.520   115274938.148          50.000                                                  
G 6  20940948.080   110045371.016          50.000    20940950.820    82176737.422          50.000  
G12  22756875.580   119588174.609          50.000                                                  
G17  22479155.560   118128710.973          50.000                                                  
G19  20698442.480   108771044.383          50.000                                                  
G24  21127263.920   111024461.250          50.000    21127266.260    82907873.516          50.000  
G28  23456693.340   123265871.176          50.000                                                  
E 2  24584485.220   129192332.117          50.000    24584488.920    96474783.727          50.000  
E15  25339352.540   133159142.883          50.000    25339359.260    99437003.773          50.000  
E27  26690656.540   140260299.629          50.000    26690662.460   104739815.641          50.000  
E30  22349363.960   117446683.168          50.000    22349367.960    87703681.758          50.000  
E36  25420951.780   133587960.297          50.000    25420957.420    99757227.641          50.000  
> 2020  5 28 19 11 31.0000000  0 12       0.000000000000
G 2  21935614.520   115272436.746          50.000                                                  
G 6  20940722.320   110044184.672          50.000    20940725.060    82175851.512          50.000  
G12  22756377.020   119585554.656          50.000                                                  
G17  22479620.800   118131155.832          50.000                                                  
G19  20698769.640   108772763.551          50.000                                                  
G24  21127132.580   111023771.051          50.000    21127134.920    82907358.102          50.000  
G28  23457071.580   123267858.867          50.000                                                  
E 2  24584751.380   129193730.813          50.000    24584755.100    96475828.207          50.000  
E15  25338835.660   133156426.621          50.000    25338842.360    99434975.395          50.000  
E27  26690203.800   140257920.496          50.000    26690209.720   104738039.016          50.000  
E30  22349206.180   117445854.090          50.000    22349210.180    87703062.641          50.000  
E36  25421367.080   133590142.715          50.000    25421372.720    99758857.367          50.000  
> 2020  5 28 19 11 32.0000000  0 12       0.000000000000
G 2  21935138.600   115269935.766          50.000                                                  
G 6  20940496.700   110042998.977          50.000    20940499.440    82174966.082          50.000  
G12  22755878.480   119582934.789          50.000                                                  
G17  22480086.040   118133600.773          50.000                                                  
G19  20699096.840   108774483.055          50.000                                                  
G24  21127001.340   111023081.465          50.000    21127003.700    82906843.148          50.000  
G28  23457449.860   123269846.730          50.000                                                  
E 2  24585017.600   129195129.773          50.000    24585021.300    96476872.887          50.000  
E15  25338318.800   133153710.602          50.000    25338325.520    99432947.199          50.000  
E27  26689751.060   140255541.352          50.000    26689757.000   104736262.383          50.000  
E30  22349048.460   117445025.227          50.000    22349052.460    87702443.684          50.000  
E36  25421782.420   133592325.406          50.000    25421788.080    99760487.297          50.000  
> 2020  5 28 19 11 33.0000000  0 12       0.000000000000
G 2  21934662.740   115267435.180          50.000                                                  
G 6  20940271.180   110041813.906          50.000    20940273.920    82174081.129          50.000  
G12  22755379.960   119580315.004          50.000                                                  
G17  22480551.320   118136045.820          50.000                                                  
G19  20699424.120   108776202.930          50.000                                                  
G24  21126870.240   111022392.496          50.000    21126872.580    82906328.656          50.000  
G28  23457828.180   123271834.758          50.000                                                  
E 2  24585283.860   129196528.980          50.000    24585287.560    96477917.746          50.000  
E15  25337802.000   133150994.801          50.000    25337808.720    99430919.172          50.000  
E27  26689298.320   140253162.199          50.000    26689304.260   104734485.742          50.000  
E30  22348890.780   117444196.574          50.000    22348894.780    87701824.887          50.000  
E36  25422197.840   133594508.359          50.000    25422203.480    99762117.426          50.000  
> 2020  5 28 19 11 34.0000000  0 12       0.000000000000
G 2  21934186.980   115264935.012          50.000                                                  
G 6  20940045.800   110040629.492          50.000    20940048.540    82173196.660          50.000  
G12  22754881.440   119577695.297          50.000                                                  
G17  22481016.620   118138490.953          50.000                                                  
G19  20699751.480   108777923.164          50.000                                                  
G24  21126739.260   111021704.152          50.000    21126741.600    82905814.629          50.000  
G28  23458206.520   123273822.934          50.000                                                  
E 2  24585550.160   129197928.414          50.000    24585553.860    96478962.777          50.000  
E15  25337285.260   133148279.238          50.000    25337291.960    99428891.316          50.000  
E27  26688845.580   140250783.039          50.000    26688851.520   104732709.098          50.000  
E30  22348733.120   117443368.152          50.000    22348737.120    87701206.258          50.000  
E36  25422613.280   133596691.578          50.000    25422618.920    99763747.750          50.000  
> 2020  5 28 19 11 35.0000000  0 12       0.000000000000
G 2  21933711.280   115262435.238          50.000                                                  
G 6  20939820.520   110039445.715          50.000    20939823.280    82172312.668          50.000  
G12  22754382.940   119575075.664          50.000                                                  
G17  22481481.940   118140936.191          50.000                                                  
G19  20700078.900   108779643.738          50.000                                                  
G24  21126608.380   111021016.430          50.000    21126610.740    82905301.066          50.000  
G28  23458584.880   123275811.262          50.000                                                  
E 2  24585816.520   129199328.094          50.000    24585820.220    96480007.992          50.000  
E15  25336768.540   133145563.902          50.000    25336775.260    99426863.629          50.000  
E27  26688392.840   140248403.863          50.000    26688398.760   104730932.445          50.000  
E30  22348575.520   117442539.930          50.000    22348579.520    87700587.781          50.000  
E36  25423028.780   133598875.074          50.000    25423034.440    99765378.281          50.000  
> 2020  5 28 19 11 36.0000000  0 12       0.000000000000
G 2  21933235.680   115259935.863          50.000                                                  
G 6  20939595.380   110038262.578          50.000    20939598.140    82171429.152          50.000  
G12  22753884.460   119572456.117          50.000                                                  
G17  22481947.260   118143381.516          50.000                                                  
G19  20700406.380   108781364.680          50.000                                                  
G24  21126477.640   111020329.352          50.000    21126479.980    82904787.984          50.000  
G28  23458963.280   123277799.762          50.000                                                  
E 2  24586082.920   129200728.051          50.000    24586086.620    96481053.414          50.000  
E15  25336251.880   133142848.809          50.000    25336258.580    99424836.125          50.000  
E27  26687940.100   140246024.680          50.000    26687946.020   104729155.781          50.000  
E30  22348417.960   117441711.938          50.000    22348421.960    87699969.473          50.000  
E36  25423444.340   133601058.836          50.000    25423450.000    99767009.012          50.000  
> 2020  5 28 19 11 37.0000000  0 12       0.000000000000
G 2  21932760.140   115257436.910          50.000                                                  
G 6  20939370.360   110037080.078          50.000    20939373.120    82170546.113          50.000  
G12  22753385.980   119569836.652          50.000                                                  
G17  22482412.620   118145826.934          50.000                                                  
G19  20700733.920   108783085.977          50.000                                                  
G24  21126347.020   111019642.891          50.000    21126349.360    82904275.367          50.000  
G28  23459341.700   123279788.406          50.000                                                  
E 2  24586349.360   129202128.199          50.000    24586353.060    96482098.980          50.000  
E15  25335735.260   133140133.941          50.000    25335741.960    99422808.793          50.000  
E27  26687487.360   140243645.484          50.000    26687493.280   104727379.113          50.000  
E30  22348260.440   117440884.137          50.000    22348264.440    87699351.313          50.000  
E36  25423859.960   133603242.859          50.000    25423865.600    99768639.938          50.000  
> 2020  5 28 19 11 38.0000000  0 12       0.000000000000
G 2  21932284.680   115254938.363          50.000                                                  
G 6  20939145.460   110035898.234          50.000    20939148.220    82169663.563          50.000  
G12  22752887.520   119567217.266          50.000                                                  
G17  22482877.980   118148272.449          50.000                                                  
G19  20701061.540   108784807.629          50.000                                                  
G24  21126216.500   111018957.043          50.000    21126218.840    82903763.199          50.000  
G28  23459720.160   123281777.207          50.000                                                  
E 2  24586615.840   129203528.625          50.000    24586619.560    96483144.750          50.000  
E15  25335218.680   133137419.309          50.000    25335225.380    99420781.633          50.000  
E27  26687034.600   140241266.281          50.000    26687040.520   104725602.438          50.000  
E30  22348102.960   117440056.563          50.000    22348106.960    87698733.320          50.000  
E36  25424275.600   133605427.148          50.000    25424281.260    99770271.063          50.000  
> 2020  5 28 19 11 39.0000000  0 12       0.000000000000
G 2  21931809.300   115252440.238          50.000                                                  
G 6  20938920.680   110034717.031          50.000    20938923.440    82168781.492          50.000  
G12  22752389.100   119564597.961          50.000                                                  
G17  22483343.360   118150718.063          50.000                                                  
G19  20701389.240   108786529.637          50.000                                                  
G24  21126086.100   111018271.832          50.000    21126088.460    82903251.516          50.000  
G28  23460098.640   123283766.164          50.000                                                  
E 2  24586882.400   129204929.320          50.000    24586886.100    96484190.723          50.000  
E15  25334702.140   133134704.922          50.000    25334708.860    99418754.656          50.000  
E27  26686581.860   140238887.066          50.000    26686587.780   104723825.750          50.000  
E30  22347945.520   117439229.207          50.000    22347949.520    87698115.488          50.000  
E36  25424691.320   133607611.715          50.000    25424696.960    99771902.391          50.000  
> 2020  5 28 19 11 40.0000000  0 12       0.000000000000
G 2  21931334.000   115249942.531          50.000                                                  
G 6  20938696.040   110033536.473          50.000    20938698.780    82167899.902          50.000  
G12  22751890.660   119561978.734          50.000                                                  
G17  22483808.760   118153163.770          50.000                                                  
G19  20701716.980   108788251.996          50.000                                                  
G24  21125955.840   111017587.230          50.000    21125958.180    82902740.281          50.000  
G28  23460477.160   123285755.277          50.000                                                  
E 2  24587148.980   129206330.234          50.000    24587152.680    96485236.859          50.000  
E15  25334185.660   133131990.754          50.000    25334192.360    99416727.844          50.000  
E27  26686129.100   140236507.848          50.000    26686135.020   104722049.066          50.000  
E30  22347788.120   117438402.066          50.000    22347792.120    87697497.816          50.000  
E36  25425107.080   133609796.543          50.000    25425112.720    99773533.918          50.000  
> 2020  5 28 19 11 41.0000000  0 12       0.000000000000
G 2  21930858.780   115247445.238          50.000                                                  
G 6  20938471.500   110032356.539          50.000    20938474.260    82167018.777          50.000  
G12  22751392.260   119559359.590          50.000                                                  
G17  22484274.180   118155609.566          50.000                                                  
G19  20702044.820   108789974.711          50.000                                                  
G24  21125825.680   111016903.242          50.000    21125828.020    82902229.508          50.000  
G28  23460855.720   123287744.535          50.000                                                  
E 2  24587415.600   129207731.375          50.000    24587419.320    96486283.168          50.000  
E15  25333669.200   133129276.820          50.000    25333675.920    99414701.207          50.000  
E27  26685676.340   140234128.613          50.000    26685682.280   104720272.363          50.000  
E30  22347630.760   117437575.133          50.000    22347634.760    87696880.305          50.000  
E36  25425522.880   133611981.637          50.000    25425528.540    99775165.645          50.000  
> 2020  5 28 19 11 42.0000000  0 12       0.000000000000
G 2  21930383.640   115244948.363          50.000                                                  
G 6  20938247.080   110031177.254          50.000    20938249.840    82166138.141          50.000  
G12  22750893.880   119556740.539          50.000                                                  
G17  22484739.620   118158055.457          50.000                                                  
G19  20702372.700   108791697.785          50.000                                                  
G24  21125695.640   111016219.895          50.000    21125697.980    82901719.211          50.000  
G28  23461234.280   123289733.961          50.000                                                  
E 2  24587682.280   129209132.781          50.000    24587686.000    96487329.672          50.000  
E15  25333152.800   133126563.129          50.000    25333159.520    99412674.750          50.000  
E27  26685223.600   140231749.379          50.000    26685229.520   104718495.664          50.000  
E30  22347473.440   117436748.434          50.000    22347477.440    87696262.965          50.000  
E36  25425938.760   133614167.000          50.000    25425944.400    99776797.570          50.000  
> 2020  5 28 19 11 43.0000000  0 12       0.000000000000
G 2  21929908.580   115242451.898          50.000                                                  
G 6  20938022.800   110029998.621          50.000    20938025.560    82165257.992          50.000  
G12  22750395.500   119554121.559          50.000                                                  
G17  22485205.080   118160501.449          50.000                                                  
G19  20702700.660   108793421.219          50.000                                                  
G24  21125565.720   111015537.176          50.000    21125568.080    82901209.387          50.000  
G28  23461612.900   123291723.539          50.000                                                  
E 2  24587949.020   129210534.441          50.000    24587952.720    96488376.363          50.000  
E15  25332636.460   133123849.660          50.000    25332643.160    99410648.461          50.000  
E27  26684770.840   140229370.113          50.000    26684776.760   104716718.941          50.000  
E30  22347316.160   117435921.938          50.000    22347320.160    87695645.773          50.000  
E36  25426354.660   133616352.633          50.000    25426360.300    99778429.695          50.000  
> 2020  5 28 19 11 44.0000000  0 12       0.000000000000
G 2  21929433.600   115239955.852          50.000                                                  
G 6  20937798.640   110028820.617          50.000    20937801.400    82164378.313          50.000  
G12  22749897.140   119551502.676          50.000                                                  
G17  22485670.560   118162947.520          50.000                                                  
G19  20703028.680   108795145.000          50.000                                                  
G24  21125435.920   111014855.086          50.000    21125438.280    82900700.031          50.000  
G28  23461991.520   123293713.266          50.000                                                  
E 2  24588215.780   129211936.336          50.000    24588219.500    96489423.230          50.000  
E15  25332120.140   133121136.434          50.000    25332126.860    99408622.348          50.000  
E27  26684318.080   140226990.848          50.000    26684324.000   104714942.219          50.000  
E30  22347158.920   117435095.648          50.000    22347162.920    87695028.738          50.000  
E36  25426770.620   133618538.527          50.000    25426776.280    99780062.020          50.000  
> 2020  5 28 19 11 45.0000000  0 12       0.000000000000
G 2  21928958.700   115237460.223          50.000                                                  
G 6  20937574.600   110027643.266          50.000    20937577.340    82163499.113          50.000  
G12  22749398.800   119548883.871          50.000                                                  
G17  22486136.040   118165393.703          50.000                                                  
G19  20703356.780   108796869.145          50.000                                                  
G24  21125306.240   111014173.613          50.000    21125308.600    82900191.133          50.000  
G28  23462370.180   123295703.160          50.000                                                  
E 2  24588482.600   129213338.484          50.000    24588486.320    96490470.293          50.000  
E15  25331603.880   133118423.430          50.000    25331610.580    99406596.410          50.000  
E27  26683865.320   140224611.578          50.000    26683871.240   104713165.492          50.000  
E30  22347001.740   117434269.598          50.000    22347005.720    87694411.883          50.000  
E36  25427186.640   133620724.695          50.000    25427192.280    99781694.547          50.000  
> 2020  5 28 19 11 46.0000000  0 12       0.000000000000
G 2  21928483.860   115234965.000          50.000                                                  
G 6  20937350.660   110026466.547          50.000    20937353.420    82162620.395          50.000  
G12  22748900.460   119546265.141          50.000                                                  
G17  22486601.560   118167839.973          50.000                                                  
G19  20703684.940   108798593.641          50.000                                                  
G24  21125176.680   111013492.785          50.000    21125179.040    82899682.719          50.000  
G28  23462748.880   123297693.223          50.000                                                  
E 2  24588749.480   129214740.879          50.000    24588753.180    96491517.531          50.000  
E15  25331087.640   133115710.664          50.000    25331094.360    99404570.645          50.000  
E27  26683412.560   140222232.301          50.000    26683418.480   104711388.762          50.000  
E30  22346844.580   117433443.742          50.000    22346848.580    87693795.176          50.000  
E36  25427602.700   133622911.121          50.000    25427608.360    99783327.270          50.000  
> 2020  5 28 19 11 47.0000000  0 12       0.000000000000
G 2  21928009.120   115232470.195          50.000                                                  
G 6  20937126.860   110025290.477          50.000    20937129.620    82161742.156          50.000  
G12  22748402.160   119543646.492          50.000                                                  
G17  22487067.080   118170286.340          50.000                                                  
G19  20704013.160   108800318.492          50.000                                                  
G24  21125047.240   111012812.566          50.000    21125049.600    82899174.762          50.000  
G28  23463127.620   123299683.434          50.000                                                  
E 2  24589016.380   129216143.512          50.000    24589020.100    96492564.953          50.000  
E15  25330571.480   133112998.137          50.000    25330578.180    99402545.055          50.000  
E27  26682959.780   140219853.020          50.000    26682965.700   104709612.027          50.000  
E30  22346687.460   117432618.105          50.000    22346691.460    87693178.629          50.000  
E36  25428018.820   133625097.820          50.000    25428024.460    99784960.191          50.000  
> 2020  5 28 19 11 48.0000000  0 12       0.000000000000
G 2  21927534.460   115229975.809          50.000                                                  
G 6  20936903.200   110024115.051          50.000    20936905.960    82160864.398          50.000  
G12  22747903.860   119541027.934          50.000                                                  
G17  22487532.640   118172732.805          50.000                                                  
G19  20704341.460   108802043.699          50.000                                                  
G24  21124917.920   111012132.965          50.000    21124920.280    82898667.262          50.000  
G28  23463506.360   123301673.801          50.000                                                  
E 2  24589283.340   129217546.395          50.000    24589287.060    96493612.559          50.000  
E15  25330055.340   133110285.832          50.000    25330062.040    99400519.633          50.000  
E27  26682507.020   140217473.711          50.000    26682512.940   104707835.273          50.000  
E30  22346530.380   117431792.680          50.000    22346534.380    87692562.238          50.000  
E36  25428434.980   133627284.785          50.000    25428440.640    99786593.313          50.000  
> 2020  5 28 19 11 49.0000000  0 12       0.000000000000
G 2  21927059.860   115227481.820          50.000                                                  
G 6  20936679.640   110022940.258          50.000    20936682.400    82159987.117          50.000  
G12  22747405.580   119538409.445          50.000                                                  
G17  22487998.200   118175179.363          50.000                                                  
G19  20704669.840   108803769.270          50.000                                                  
G24  21124788.720   111011454.004          50.000    21124791.080    82898160.242          50.000  
G28  23463885.160   123303664.324          50.000                                                  
E 2  24589550.340   129218949.520          50.000    24589554.060    96494660.348          50.000  
E15  25329539.240   133107573.777          50.000    25329545.960    99398494.398          50.000  
E27  26682054.260   140215094.395          50.000    26682060.180   104706058.512          50.000  
E30  22346373.360   117430967.480          50.000    22346377.360    87691946.020          50.000  
E36  25428851.200   133629472.023          50.000    25428856.860    99788226.641          50.000  
> 2020  5 28 19 11 50.0000000  0 12       0.000000000000
G 2  21926585.360   115224988.270          50.000                                                  
G 6  20936456.200   110021766.117          50.000    20936458.960    82159110.320          50.000  
G12  22746907.300   119535791.047          50.000                                                  
G17  22488463.780   118177626.016          50.000                                                  
G19  20704998.260   108805495.184          50.000                                                  
G24  21124659.640   111010775.676          50.000    21124662.000    82897653.695          50.000  
G28  23464263.960   123305655.000          50.000                                                  
E 2  24589817.400   129220352.898          50.000    24589821.120    96495708.324          50.000  
E15  25329023.200   133104861.945          50.000    25329029.920    99396469.332          50.000  
E27  26681601.480   140212715.086          50.000    26681607.400   104704281.754          50.000  
E30  22346216.360   117430142.492          50.000    22346220.360    87691329.957          50.000  
E36  25429267.460   133631659.516          50.000    25429273.120    99789860.156          50.000  
> 2020  5 28 19 11 51.0000000  0 12       0.000000000000
G 2  21926110.920   115222495.113          50.000                                                  
G 6  20936232.900   110020592.613          50.000    20936235.660    82158233.996          50.000  
G12  22746409.060   119533172.711          50.000                                                  
G17  22488929.380   118180072.758          50.000                                                  
G19  20705326.760   108807221.457          50.000                                                  
G24  21124530.660   111010097.953          50.000    21124533.040    82897147.598          50.000  
G28  23464642.820   123307645.836          50.000                                                  
E 2  24590084.500   129221756.512          50.000    24590088.220    96496756.477          50.000  
E15  25328507.200   133102150.348          50.000    25328513.920    99394444.438          50.000  
E27  26681148.700   140210335.746          50.000    26681154.620   104702504.977          50.000  
E30  22346059.420   117429317.715          50.000    22346063.420    87690714.051          50.000  
E36  25429683.780   133633847.285          50.000    25429689.440    99791493.879          50.000  
> 2020  5 28 19 11 52.0000000  0 12       0.000000000000
G 2  21925636.560   115220002.375          50.000                                                  
G 6  20936009.700   110019419.758          50.000    20936012.460    82157358.160          50.000  
G12  22745910.820   119530554.465          50.000                                                  
G17  22489395.000   118182519.594          50.000                                                  
G19  20705655.320   108808948.086          50.000                                                  
G24  21124401.820   111009420.867          50.000    21124404.180    82896641.977          50.000  
G28  23465021.680   123309636.824          50.000                                                  
E 2  24590351.660   129223160.383          50.000    24590355.360    96497804.820          50.000  
E15  25327991.240   133099438.988          50.000    25327997.960    99392419.723          50.000  
E27  26680695.940   140207956.406          50.000    26680701.860   104700728.199          50.000  
E30  22345902.520   117428493.164          50.000    22345906.520    87690098.316          50.000  
E36  25430100.160   133636035.316          50.000    25430105.800    99793127.797          50.000  
> 2020  5 28 19 11 53.0000000  0 12       0.000000000000
G 2  21925162.300   115217510.055          50.000                                                  
G 6  20935786.640   110018247.543          50.000    20935789.400    82156482.801          50.000  
G12  22745412.600   119527936.305          50.000                                                  
G17  22489860.640   118184966.523          50.000                                                  
G19  20705983.960   108810675.078          50.000                                                  
G24  21124273.100   111008744.391          50.000    21124275.460    82896136.813          50.000  
G28  23465400.580   123311627.961          50.000                                                  
E 2  24590618.840   129224564.492          50.000    24590622.560    96498853.348          50.000  
E15  25327475.340   133096727.855          50.000    25327482.040    99390395.180          50.000  
E27  26680243.160   140205577.070          50.000    26680249.080   104698951.422          50.000  
E30  22345745.640   117427668.824          50.000    22345749.640    87689482.738          50.000  
E36  25430516.580   133638223.613          50.000    25430522.220    99794761.918          50.000  
> 2020  5 28 19 11 54.0000000  0 12       0.000000000000
G 2  21924688.100   115215018.152          50.000                                                  
G 6  20935563.700   110017075.977          50.000    20935566.460    82155607.930          50.000  
G12  22744914.400   119525318.227          50.000                                                  
G17  22490326.300   118187413.551          50.000                                                  
G19  20706312.660   108812402.422          50.000                                                  
G24  21124144.480   111008068.531          50.000    21124146.840    82895632.109          50.000  
G28  23465779.520   123313619.270          50.000                                                  
E 2  24590886.080   129225968.848          50.000    24590889.800    96499902.051          50.000  
E15  25326959.480   133094016.977          50.000    25326966.180    99388370.820          50.000  
E27  26679790.380   140203197.711          50.000    26679796.300   104697174.633          50.000  
E30  22345588.820   117426844.695          50.000    22345592.820    87688867.316          50.000  
E36  25430933.040   133640412.188          50.000    25430938.700    99796396.238          50.000  
> 2020  5 28 19 11 55.0000000  0 12       0.000000000000
G 2  21924213.980   115212526.668          50.000                                                  
G 6  20935340.880   110015905.043          50.000    20935343.640    82154733.527          50.000  
G12  22744416.200   119522700.227          50.000                                                  
G17  22490791.960   118189860.668          50.000                                                  
G19  20706641.440   108814130.113          50.000                                                  
G24  21124016.000   111007393.316          50.000    21124018.360    82895127.887          50.000  
G28  23466158.480   123315610.730          50.000                                                  
E 2  24591153.380   129227373.445          50.000    24591157.080    96500950.938          50.000  
E15  25326443.640   133091306.313          50.000    25326450.360    99386346.625          50.000  
E27  26679337.600   140200818.340          50.000    26679343.520   104695397.828          50.000  
E30  22345432.040   117426020.789          50.000    22345436.040    87688252.059          50.000  
E36  25431349.580   133642601.012          50.000    25431355.220    99798030.750          50.000  
> 2020  5 28 19 11 56.0000000  0 12       0.000000000000
G 2  21923739.940   115210035.586          50.000                                                  
G 6  20935118.180   110014734.750          50.000    20935120.940    82153859.605          50.000  
G12  22743918.020   119520082.301          50.000                                                  
G17  22491257.660   118192307.875          50.000                                                  
G19  20706970.280   108815858.160          50.000                                                  
G24  21123887.620   111006718.730          50.000    21123890.000    82894624.133          50.000  
G28  23466537.480   123317602.348          50.000                                                  
E 2  24591420.700   129228778.293          50.000    24591424.420    96502000.012          50.000  
E15  25325927.880   133088595.887          50.000    25325934.580    99384322.605          50.000  
E27  26678884.820   140198438.957          50.000    26678890.740   104693621.020          50.000  
E30  22345275.300   117425197.094          50.000    22345279.280    87687636.965          50.000  
E36  25431766.140   133644790.109          50.000    25431771.800    99799665.465          50.000  
> 2020  5 28 19 11 57.0000000  0 12       0.000000000000
G 2  21923266.000   115207544.922          50.000                                                  
G 6  20934895.600   110013565.121          50.000    20934898.380    82152986.176          50.000  
G12  22743419.860   119517464.465          50.000                                                  
G17  22491723.360   118194755.180          50.000                                                  
G19  20707299.180   108817586.570          50.000                                                  
G24  21123759.380   111006044.789          50.000    21123761.740    82894120.863          50.000  
G28  23466916.500   123319594.137          50.000                                                  
E 2  24591688.080   129230183.395          50.000    24591691.800    96503049.277          50.000  
E15  25325412.140   133085885.703          50.000    25325418.840    99382298.770          50.000  
E27  26678432.040   140196059.570          50.000    26678437.960   104691844.207          50.000  
E30  22345118.580   117424373.613          50.000    22345122.580    87687022.027          50.000  
E36  25432182.760   133646979.480          50.000    25432188.420    99801300.383          50.000  
> 2020  5 28 19 11 58.0000000  0 12       0.000000000000
G 2  21922792.120   115205054.684          50.000                                                  
G 6  20934673.140   110012396.121          50.000    20934675.920    82152113.219          50.000  
G12  22742921.720   119514846.715          50.000                                                  
G17  22492189.080   118197202.574          50.000                                                  
G19  20707628.140   108819315.328          50.000                                                  
G24  21123631.240   111005371.457          50.000    21123633.620    82893618.047          50.000  
G28  23467295.560   123321586.063          50.000                                                  
E 2  24591955.520   129231588.727          50.000    24591959.220    96504098.711          50.000  
E15  25324896.460   133083175.742          50.000    25324903.160    99380275.102          50.000  
E27  26677979.260   140193680.184          50.000    26677985.180   104690067.391          50.000  
E30  22344961.920   117423550.352          50.000    22344965.920    87686407.254          50.000  
E36  25432599.440   133649169.105          50.000    25432605.080    99802935.492          50.000  
> 2020  5 28 19 11 59.0000000  0 12       0.000000000000
G 2  21922318.320   115202564.852          50.000                                                  
G 6  20934450.820   110011227.762          50.000    20934453.580    82151240.738          50.000  
G12  22742423.600   119512229.027          50.000                                                  
G17  22492654.820   118199650.063          50.000                                                  
G19  20707957.180   108821044.438          50.000                                                  
G24  21123503.240   111004698.746          50.000    21123505.600    82893115.691          50.000  
G28  23467674.640   123323578.148          50.000                                                  
E 2  24592222.980   129232994.313          50.000    24592226.700    96505148.336          50.000  
E15  25324380.800   133080466.016          50.000    25324387.520    99378251.602          50.000  
E27  26677526.460   140191300.781          50.000    26677532.380   104688290.566          50.000  
E30  22344805.300   117422727.305          50.000    22344809.300    87685792.641          50.000  
E36  25433016.160   133651359.004          50.000    25433021.820    99804570.805          50.000  
> 2020  5 28 19 12  0.0000000  0 12       0.000000000000
G 2  21921844.600   115200075.438          50.000                                                  
G 6  20934228.600   110010060.043          50.000    20934231.380    82150368.738          50.000  
G12  22741925.480   119509611.438          50.000                                                  
G17  22493120.580   118202097.648          50.000                                                  
G19  20708286.300   108822773.910          50.000                                                  
G24  21123375.340   111004026.664          50.000    21123377.700    82892613.809          50.000  
G28  23468053.740   123325570.398          50.000                                                  
E 2  24592490.500   129234400.141          50.000    24592494.220    96506198.141          50.000  
E15  25323865.200   133077756.535          50.000    25323871.920    99376228.289          50.000  
E27  26677073.680   140188921.367          50.000    26677079.600   104686513.734          50.000  
E30  22344648.720   117421904.477          50.000    22344652.720    87685178.195          50.000  
E36  25433432.940   133653549.172          50.000    25433438.580    99806206.320          50.000  
> 2020  5 28 19 12  1.0000000  0 12       0.000000000000
G 2  21921370.940   115197586.426          50.000                                                  
G 6  20934006.520   110008892.969          50.000    20934009.300    82149497.219          50.000  
G12  22741427.380   119506993.922          50.000                                                  
G17  22493586.360   118204545.316          50.000                                                  
G19  20708615.460   108824503.723          50.000                                                  
G24  21123247.560   111003355.219          50.000    21123249.940    82892112.410          50.000  
G28  23468432.880   123327562.789          50.000                                                  
E 2  24592758.080   129235806.211          50.000    24592761.780    96507248.129          50.000  
E15  25323349.660   133075047.281          50.000    25323356.360    99374205.148          50.000  
E27  26676620.900   140186541.949          50.000    26676626.800   104684736.895          50.000  
E30  22344492.180   117421081.855          50.000    22344496.180    87684563.898          50.000  
E36  25433849.760   133655739.594          50.000    25433855.420    99807842.023          50.000  
> 2020  5 28 19 12  2.0000000  0 12       0.000000000000
G 2  21920897.380   115195097.844          50.000                                                  
G 6  20933784.560   110007726.543          50.000    20933787.320    82148626.191          50.000  
G12  22740929.300   119504376.480          50.000                                                  
G17  22494052.160   118206993.086          50.000                                                  
G19  20708944.700   108826233.898          50.000                                                  
G24  21123119.920   111002684.395          50.000    21123122.280    82891611.469          50.000  
G28  23468812.060   123329555.348          50.000                                                  
E 2  24593025.700   129237212.539          50.000    24593029.400    96508298.309          50.000  
E15  25322834.140   133072338.254          50.000    25322840.840    99372182.176          50.000  
E27  26676168.100   140184162.516          50.000    26676174.020   104682960.047          50.000  
E30  22344335.680   117420259.461          50.000    22344339.680    87683949.773          50.000  
E36  25434266.640   133657930.293          50.000    25434272.280    99809477.934          50.000  
> 2020  5 28 19 12  3.0000000  0 12       0.000000000000
G 2  21920423.900   115192609.676          50.000                                                  
G 6  20933562.720   110006560.754          50.000    20933565.480    82147755.633          50.000  
G12  22740431.240   119501759.129          50.000                                                  
G17  22494517.980   118209440.945          50.000                                                  
G19  20709274.020   108827964.426          50.000                                                  
G24  21122992.380   111002014.191          50.000    21122994.740    82891110.992          50.000  
G28  23469191.260   123331548.063          50.000                                                  
E 2  24593293.360   129238619.109          50.000    24593297.060    96509348.672          50.000  
E15  25322318.680   133069629.473          50.000    25322325.380    99370159.383          50.000  
E27  26675715.300   140181783.074          50.000    26675721.220   104681183.195          50.000  
E30  22344179.240   117419437.273          50.000    22344183.240    87683335.801          50.000  
E36  25434683.560   133660121.254          50.000    25434689.220    99811114.039          50.000  
> 2020  5 28 19 12  4.0000000  0 12       0.000000000000
G 2  21919950.500   115190121.934          50.000                                                  
G 6  20933341.000   110005395.613          50.000    20933343.760    82146885.563          50.000  
G12  22739933.180   119499141.859          50.000                                                  
G17  22494983.800   118211888.902          50.000                                                  
G19  20709603.400   108829695.316          50.000                                                  
G24  21122864.960   111001344.617          50.000    21122867.340    82890610.984          50.000  
G28  23469570.500   123333540.938          50.000                                                  
E 2  24593561.060   129240025.926          50.000    24593564.780    96510399.215          50.000  
E15  25321803.260   133066920.930          50.000    25321809.960    99368136.770          50.000  
E27  26675262.520   140179403.633          50.000    26675268.420   104679406.340          50.000  
E30  22344022.820   117418615.313          50.000    22344026.820    87682722.000          50.000  
E36  25435100.540   133662312.488          50.000    25435106.200    99812750.352          50.000  
> 2020  5 28 19 12  5.0000000  0 12       0.000000000000
G 2  21919477.180   115187634.598          50.000                                                  
G 6  20933119.400   110004231.113          50.000    20933122.160    82146015.969          50.000  
G12  22739435.160   119496524.672          50.000                                                  
G17  22495449.660   118214336.945          50.000                                                  
G19  20709932.840   108831426.543          50.000                                                  
G24  21122737.660   111000675.645          50.000    21122740.040    82890111.426          50.000  
G28  23469949.760   123335533.949          50.000                                                  
E 2  24593828.820   129241432.977          50.000    24593832.520    96511449.934          50.000  
E15  25321287.880   133064212.598          50.000    25321294.580    99366114.316          50.000  
E27  26674809.720   140177024.180          50.000    26674815.620   104677629.477          50.000  
E30  22343866.440   117417793.563          50.000    22343870.440    87682108.355          50.000  
E36  25435517.580   133664503.973          50.000    25435523.220    99814386.848          50.000  
> 2020  5 28 19 12  6.0000000  0 12       0.000000000000
G 2  21919003.920   115185147.680          50.000                                                  
G 6  20932897.920   110003067.254          50.000    20932900.700    82145146.852          50.000  
G12  22738937.140   119493907.559          50.000                                                  
G17  22495915.520   118216785.082          50.000                                                  
G19  20710262.340   108833158.137          50.000                                                  
G24  21122610.480   111000007.313          50.000    21122612.860    82889612.348          50.000  
G28  23470329.040   123337527.137          50.000                                                  
E 2  24594096.620   129242840.293          50.000    24594100.340    96512500.848          50.000  
E15  25320772.540   133061504.531          50.000    25320779.260    99364092.063          50.000  
E27  26674356.920   140174644.711          50.000    26674362.840   104675852.602          50.000  
E30  22343710.120   117416972.023          50.000    22343714.100    87681494.867          50.000  
E36  25435934.640   133666695.734          50.000    25435940.300    99816023.551          50.000  
> 2020  5 28 19 12  7.0000000  0 12       0.000000000000
G 2  21918530.760   115182661.191          50.000                                                  
G 6  20932676.560   110001904.125          50.000    20932679.340    82144278.230          50.000  
G12  22738439.120   119491290.637          50.000                                                  
G17  22496381.400   118219233.309          50.000                                                  
G19  20710591.960   108834889.945          50.000                                                  
G24  21122483.400   110999339.703          50.000    21122485.800    82889113.754          50.000  
G28  23470708.400   123339520.266          50.000                                                  
E 2  24594364.460   129244247.852          50.000    24594368.180    96513551.949          50.000  
E15  25320257.260   133058796.656          50.000    25320263.980    99362069.926          50.000  
E27  26673904.100   140172265.301          50.000    26673910.020   104674075.801          50.000  
E30  22343553.820   117416150.688          50.000    22343557.840    87680881.512          50.000  
E36  25436351.780   133668887.781          50.000    25436357.420    99817660.473          50.000  
> 2020  5 28 19 12  8.0000000  0 12       0.000000000000
G 2  21918057.680   115180175.105          50.000                                                  
G 6  20932455.320   110000741.559          50.000    20932458.100    82143410.078          50.000  
G12  22737941.120   119488673.699          50.000                                                  
G17  22496847.300   118221681.633          50.000                                                  
G19  20710921.600   108836622.250          50.000                                                  
G24  21122356.460   110998672.645          50.000    21122358.860    82888615.629          50.000  
G28  23471087.760   123341513.766          50.000                                                  
E 2  24594632.360   129245655.656          50.000    24594636.080    96514603.230          50.000  
E15  25319742.020   133056089.047          50.000    25319748.740    99360048.012          50.000  
E27  26673451.300   140169885.824          50.000    26673457.220   104672298.922          50.000  
E30  22343397.580   117415329.590          50.000    22343401.580    87680268.355          50.000  
E36  25436768.960   133671080.078          50.000    25436774.600    99819297.578          50.000  
> 2020  5 28 19 12  9.0000000  0 12       0.000000000000
G 2  21917584.660   115177689.441          50.000                                                  
G 6  20932234.220   109999579.637          50.000    20932237.000    82142542.410          50.000  
G12  22737443.160   119486056.848          50.000                                                  
G17  22497313.220   118224130.059          50.000                                                  
G19  20711251.320   108838354.914          50.000                                                  
G24  21122229.660   110998006.234          50.000    21122232.040    82888117.984          50.000  
G28  23471467.140   123343507.430          50.000                                                  
E 2  24594900.300   129247063.711          50.000    24594904.020    96515654.699          50.000  
E15  25319226.820   133053381.680          50.000    25319233.540    99358026.277          50.000  
E27  26672998.500   140167506.336          50.000    26673004.400   104670522.031          50.000  
E30  22343241.360   117414508.723          50.000    22343245.380    87679655.367          50.000  
E36  25437186.180   133673272.641          50.000    25437191.840    99820934.879          50.000  
> 2020  5 28 19 12 10.0000000  0 12       0.000000000000
G 2  21917111.740   115175204.191          50.000                                                  
G 6  20932013.220   109998418.359          50.000    20932016.020    82141675.223          50.000  
G12  22736945.200   119483440.070          50.000                                                  
G17  22497779.160   118226578.570          50.000                                                  
G19  20711581.100   108840087.930          50.000                                                  
G24  21122102.960   110997340.438          50.000    21122105.340    82887620.797          50.000  
G28  23471846.540   123345501.234          50.000                                                  
E 2  24595168.300   129248472.008          50.000    24595172.000    96516706.348          50.000  
E15  25318711.680   133050674.539          50.000    25318718.380    99356004.711          50.000  
E27  26672545.700   140165126.840          50.000    26672551.600   104668745.137          50.000  
E30  22343085.200   117413688.055          50.000    22343089.200    87679042.531          50.000  
E36  25437603.460   133675465.469          50.000    25437609.120    99822572.379          50.000  
> 2020  5 28 19 12 11.0000000  0 12       0.000000000000
G 2  21916638.880   115172719.344          50.000                                                  
G 6  20931792.360   109997257.730          50.000    20931795.140    82140808.520          50.000  
G12  22736447.260   119480823.387          50.000                                                  
G17  22498245.120   118229027.176          50.000                                                  
G19  20711910.940   108841821.320          50.000                                                  
G24  21121976.360   110996675.242          50.000    21121978.760    82887124.063          50.000  
G28  23472225.980   123347495.211          50.000                                                  
E 2  24595436.320   129249880.547          50.000    24595440.040    96517758.180          50.000  
E15  25318196.560   133047967.633          50.000    25318203.280    99353983.324          50.000  
E27  26672092.880   140162747.340          50.000    26672098.800   104666968.238          50.000  
E30  22342929.060   117412867.609          50.000    22342933.080    87678429.863          50.000  
E36  25438020.800   133677658.563          50.000    25438026.440    99824210.078          50.000  
> 2020  5 28 19 12 12.0000000  0 12       0.000000000000
G 2  21916166.100   115170234.914          50.000                                                  
G 6  20931571.620   109996097.734          50.000    20931574.400    82139942.289          50.000  
G12  22735949.320   119478206.777          50.000                                                  
G17  22498711.080   118231475.867          50.000                                                  
G19  20712240.860   108843555.063          50.000                                                  
G24  21121849.900   110996010.676          50.000    21121852.280    82886627.797          50.000  
G28  23472605.460   123349489.320          50.000                                                  
E 2  24595704.400   129251289.324          50.000    24595708.120    96518810.191          50.000  
E15  25317681.500   133045260.969          50.000    25317688.200    99351962.117          50.000  
E27  26671640.080   140160367.820          50.000    26671645.980   104665191.328          50.000  
E30  22342772.980   117412047.379          50.000    22342776.980    87677817.355          50.000  
E36  25438438.180   133679851.910          50.000    25438443.820    99825847.973          50.000  
> 2020  5 28 19 12 13.0000000  0 12       0.000000000000
G 2  21915693.420   115167750.910          50.000                                                  
G 6  20931351.000   109994938.402          50.000    20931353.800    82139076.555          50.000  
G12  22735451.420   119475590.250          50.000                                                  
G17  22499177.060   118233924.660          50.000                                                  
G19  20712570.860   108845289.168          50.000                                                  
G24  21121723.560   110995346.719          50.000    21121725.940    82886131.984          50.000  
G28  23472984.940   123351483.602          50.000                                                  
E 2  24595972.540   129252698.355          50.000    24595976.240    96519862.391          50.000  
E15  25317166.480   133042554.531          50.000    25317173.180    99349941.082          50.000  
E27  26671187.260   140157988.289          50.000    26671193.180   104663414.410          50.000  
E30  22342616.940   117411227.359          50.000    22342620.940    87677205.008          50.000  
E36  25438855.600   133682045.535          50.000    25438861.260    99827486.070          50.000  
> 2020  5 28 19 12 14.0000000  0 12       0.000000000000
G 2  21915220.800   115165267.309          50.000                                                  
G 6  20931130.520   109993779.691          50.000    20931133.300    82138211.289          50.000  
G12  22734953.520   119472973.801          50.000                                                  
G17  22499643.080   118236373.535          50.000                                                  
G19  20712900.900   108847023.621          50.000                                                  
G24  21121597.320   110994683.367          50.000    21121599.700    82885636.629          50.000  
G28  23473364.480   123353478.027          50.000                                                  
E 2  24596240.720   129254107.625          50.000    24596244.420    96520914.773          50.000  
E15  25316651.500   133039848.324          50.000    25316658.220    99347920.215          50.000  
E27  26670734.460   140155608.758          50.000    26670740.360   104661637.496          50.000  
E30  22342460.940   117410407.566          50.000    22342464.940    87676592.828          50.000  
E36  25439273.100   133684239.418          50.000    25439278.740    99829124.363          50.000  
> 2020  5 28 19 12 15.0000000  0 12       0.000000000000
G 2  21914748.260   115162784.117          50.000                                                  
G 6  20930910.140   109992621.633          50.000    20930912.920    82137346.508          50.000  
G12  22734455.640   119470357.430          50.000                                                  
G17  22500109.100   118238822.504          50.000                                                  
G19  20713231.040   108848758.418          50.000                                                  
G24  21121471.200   110994020.629          50.000    21121473.600    82885141.730          50.000  
G28  23473744.040   123355472.613          50.000                                                  
E 2  24596508.940   129255517.145          50.000    24596512.640    96521967.340          50.000  
E15  25316136.580   133037142.352          50.000    25316143.280    99345899.527          50.000  
E27  26670281.640   140153229.207          50.000    26670287.540   104659860.563          50.000  
E30  22342304.980   117409587.980          50.000    22342308.980    87675980.805          50.000  
E36  25439690.620   133686433.563          50.000    25439696.280    99830762.848          50.000  
> 2020  5 28 19 12 16.0000000  0 12       0.000000000000
G 2  21914275.800   115160301.352          50.000                                                  
G 6  20930689.900   109991464.219          50.000    20930692.680    82136482.211          50.000  
G12  22733957.780   119467741.156          50.000                                                  
G17  22500575.140   118241271.566          50.000                                                  
G19  20713561.220   108850493.570          50.000                                                  
G24  21121345.220   110993358.547          50.000    21121347.600    82884647.320          50.000  
G28  23474123.620   123357467.371          50.000                                                  
E 2  24596777.200   129256926.902          50.000    24596780.920    96523020.086          50.000  
E15  25315621.700   133034436.621          50.000    25315628.400    99343879.016          50.000  
E27  26669828.820   140150849.648          50.000    26669834.720   104658083.621          50.000  
E30  22342149.060   117408768.621          50.000    22342153.060    87675368.949          50.000  
E36  25440108.200   133688627.973          50.000    25440113.860    99832401.535          50.000  
> 2020  5 28 19 12 17.0000000  0 12       0.000000000000
G 2  21913803.440   115157819.004          50.000                                                  
G 6  20930469.760   109990307.438          50.000    20930472.540    82135618.383          50.000  
G12  22733459.920   119465124.949          50.000                                                  
G17  22501041.200   118243720.730          50.000                                                  
G19  20713891.480   108852229.066          50.000                                                  
G24  21121219.360   110992697.109          50.000    21121221.740    82884153.395          50.000  
G28  23474503.240   123359462.281          50.000                                                  
E 2  24597045.520   129258336.918          50.000    24597049.240    96524073.016          50.000  
E15  25315106.860   133031731.117          50.000    25315113.560    99341858.676          50.000  
E27  26669376.020   140148470.086          50.000    26669381.900   104656306.680          50.000  
E30  22341993.180   117407949.473          50.000    22341997.180    87674757.246          50.000  
E36  25440525.840   133690822.652          50.000    25440531.480    99834040.418          50.000  
> 2020  5 28 19 12 18.0000000  0 12       0.000000000000
G 2  21913331.140   115155337.070          50.000                                                  
G 6  20930249.760   109989151.305          50.000    20930252.540    82134755.043          50.000  
G12  22732962.100   119462508.832          50.000                                                  
G17  22501507.280   118246169.980          50.000                                                  
G19  20714221.800   108853964.926          50.000                                                  
G24  21121093.600   110992036.289          50.000    21121095.980    82883659.930          50.000  
G28  23474882.900   123361457.352          50.000                                                  
E 2  24597313.880   129259747.188          50.000    24597317.600    96525126.141          50.000  
E15  25314592.060   133029025.867          50.000    25314598.760    99339838.520          50.000  
E27  26668923.200   140146090.516          50.000    26668929.100   104654529.727          50.000  
E30  22341837.340   117407130.539          50.000    22341841.340    87674145.703          50.000  
E36  25440943.520   133693017.598          50.000    25440949.180    99835679.500          50.000  
> 2020  5 28 19 12 19.0000000  0 12       0.000000000000
G 2  21912858.920   115152855.563          50.000                                                  
G 6  20930029.880   109987995.813          50.000    20930032.660    82133892.180          50.000  
G12  22732464.280   119459892.785          50.000                                                  
G17  22501973.380   118248619.320          50.000                                                  
G19  20714552.180   108855701.137          50.000                                                  
G24  21120967.960   110991376.098          50.000    21120970.340    82883166.930          50.000  
G28  23475262.580   123363452.578          50.000                                                  
E 2  24597582.300   129261157.684          50.000    24597586.000    96526179.430          50.000  
E15  25314077.300   133026320.836          50.000    25314084.000    99337818.531          50.000  
E27  26668470.380   140143710.938          50.000    26668476.280   104652752.770          50.000  
E30  22341681.540   117406311.828          50.000    22341685.540    87673534.328          50.000  
E36  25441361.260   133695212.809          50.000    25441366.920    99837318.781          50.000  
> 2020  5 28 19 12 20.0000000  0 12       0.000000000000
G 2  21912386.780   115150374.461          50.000                                                  
G 6  20929810.120   109986840.969          50.000    20929812.900    82133029.801          50.000  
G12  22731966.480   119457276.820          50.000                                                  
G17  22502439.480   118251068.754          50.000                                                  
G19  20714882.640   108857437.703          50.000                                                  
G24  21120842.460   110990716.531          50.000    21120844.840    82882674.402          50.000  
G28  23475642.280   123365447.957          50.000                                                  
E 2  24597850.760   129262568.430          50.000    24597854.460    96527232.910          50.000  
E15  25313562.600   133023616.051          50.000    25313569.300    99335798.727          50.000  
E27  26668017.560   140141331.352          50.000    26668023.440   104650975.809          50.000  
E30  22341525.800   117405493.336          50.000    22341529.780    87672923.117          50.000  
E36  25441779.040   133697408.273          50.000    25441784.700    99838958.250          50.000  
> 2020  5 28 19 12 21.0000000  0 12       0.000000000000
G 2  21911914.720   115147893.781          50.000                                                  
G 6  20929590.480   109985686.762          50.000    20929593.260    82132167.898          50.000  
G12  22731468.700   119454660.949          50.000                                                  
G17  22502905.620   118253518.277          50.000                                                  
G19  20715213.160   108859174.617          50.000                                                  
G24  21120717.060   110990057.586          50.000    21120719.440    82882182.340          50.000  
G28  23476022.020   123367443.496          50.000                                                  
E 2  24598119.260   129263979.430          50.000    24598122.960    96528286.578          50.000  
E15  25313047.940   133020911.484          50.000    25313054.640    99333779.082          50.000  
E27  26667564.720   140138951.750          50.000    26667570.620   104649198.836          50.000  
E30  22341370.080   117404675.043          50.000    22341374.080    87672312.059          50.000  
E36  25442196.880   133699604.016          50.000    25442202.540    99840597.926          50.000  
> 2020  5 28 19 12 22.0000000  0 12       0.000000000000
G 2  21911442.740   115145413.508          50.000                                                  
G 6  20929370.960   109984533.215          50.000    20929373.740    82131306.488          50.000  
G12  22730970.920   119452045.156          50.000                                                  
G17  22503371.760   118255967.898          50.000                                                  
G19  20715543.760   108860911.887          50.000                                                  
G24  21120591.800   110989399.285          50.000    21120594.180    82881690.754          50.000  
G28  23476401.800   123369439.188          50.000                                                  
E 2  24598387.800   129265390.660          50.000    24598391.520    96529340.418          50.000  
E15  25312533.320   133018207.172          50.000    25312540.020    99331759.633          50.000  
E27  26667111.900   140136572.148          50.000    26667117.800   104647421.863          50.000  
E30  22341214.400   117403856.977          50.000    22341218.400    87671701.164          50.000  
E36  25442614.760   133701800.020          50.000    25442620.420    99842237.801          50.000  
> 2020  5 28 19 12 23.0000000  0 12       0.000000000000
G 2  21910970.840   115142933.668          50.000                                                  
G 6  20929151.580   109983380.301          50.000    20929154.340    82130445.551          50.000  
G12  22730473.160   119449429.449          50.000                                                  
G17  22503837.920   118258417.605          50.000                                                  
G19  20715874.420   108862649.504          50.000                                                  
G24  21120466.640   110988741.617          50.000    21120469.020    82881199.645          50.000  
G28  23476781.580   123371435.031          50.000                                                  
E 2  24598656.400   129266802.160          50.000    24598660.120    96530394.457          50.000  
E15  25312018.760   133015503.078          50.000    25312025.460    99329740.344          50.000  
E27  26666659.080   140134192.539          50.000    26666664.980   104645644.883          50.000  
E30  22341058.780   117403039.137          50.000    22341062.760    87671090.438          50.000  
E36  25443032.700   133703996.293          50.000    25443038.360    99843877.871          50.000  
> 2020  5 28 19 12 24.0000000  0 12       0.000000000000
G 2  21910499.020   115140454.238          50.000                                                  
G 6  20928932.300   109982228.035          50.000    20928935.080    82129585.098          50.000  
G12  22729975.420   119446813.816          50.000                                                  
G17  22504304.100   118260867.402          50.000                                                  
G19  20716205.140   108864387.480          50.000                                                  
G24  21120341.620   110988084.578          50.000    21120343.980    82880709.000          50.000  
G28  23477161.420   123373431.027          50.000                                                  
E 2  24598925.060   129268213.902          50.000    24598928.760    96531448.684          50.000  
E15  25311504.220   133012799.227          50.000    25311510.920    99327721.234          50.000  
E27  26666206.240   140131812.914          50.000    26666212.140   104643867.891          50.000  
E30  22340903.180   117402221.500          50.000    22340907.180    87670479.863          50.000  
E36  25443450.700   133706192.820          50.000    25443456.340    99845518.133          50.000  
> 2020  5 28 19 12 25.0000000  0 12       0.000000000000
G 2  21910027.280   115137975.223          50.000                                                  
G 6  20928713.160   109981076.402          50.000    20928715.920    82128725.117          50.000  
G12  22729477.700   119444198.266          50.000                                                  
G17  22504770.300   118263317.293          50.000                                                  
G19  20716535.940   108866125.813          50.000                                                  
G24  21120216.700   110987428.156          50.000    21120219.080    82880218.820          50.000  
G28  23477541.280   123375427.188          50.000                                                  
E 2  24599193.740   129269625.859          50.000    24599197.460    96532503.063          50.000  
E15  25310989.740   133010095.617          50.000    25310996.440    99325702.305          50.000  
E27  26665753.420   140129433.281          50.000    26665759.320   104642090.895          50.000  
E30  22340747.640   117401404.090          50.000    22340751.640    87669869.461          50.000  
E36  25443868.720   133708389.613          50.000    25443874.380    99847158.594          50.000  
> 2020  5 28 19 12 26.0000000  0 12       0.000000000000
G 2  21909555.620   115135496.625          50.000                                                  
G 6  20928494.120   109979925.422          50.000    20928496.900    82127865.621          50.000  
G12  22728980.000   119441582.801          50.000                                                  
G17  22505236.520   118265767.270          50.000                                                  
G19  20716866.800   108867864.492          50.000                                                  
G24  21120091.900   110986772.348          50.000    21120094.280    82879729.098          50.000  
G28  23477921.160   123377423.508          50.000                                                  
E 2  24599462.480   129271038.105          50.000    24599466.200    96533557.664          50.000  
E15  25310475.300   133007392.234          50.000    25310482.000    99323683.547          50.000  
E27  26665300.580   140127053.641          50.000    26665306.480   104640313.891          50.000  
E30  22340592.120   117400586.895          50.000    22340596.120    87669259.219          50.000  
E36  25444286.820   133710586.680          50.000    25444292.460    99848799.262          50.000  
> 2020  5 28 19 12 27.0000000  0 12       0.000000000000
G 2  21909084.040   115133018.438          50.000                                                  
G 6  20928275.220   109978775.086          50.000    20928278.000    82127006.609          50.000  
G12  22728482.300   119438967.434          50.000                                                  
G17  22505702.760   118268217.344          50.000                                                  
G19  20717197.720   108869603.531          50.000                                                  
G24  21119967.220   110986117.168          50.000    21119969.600    82879239.840          50.000  
G28  23478301.080   123379419.988          50.000                                                  
E 2  24599731.260   129272450.555          50.000    24599734.980    96534612.414          50.000  
E15  25309960.920   133004689.098          50.000    25309967.620    99321664.969          50.000  
E27  26664847.760   140124673.996          50.000    26664853.660   104638536.887          50.000  
E30  22340436.660   117399769.914          50.000    22340440.660    87668649.137          50.000  
E36  25444704.960   133712784.008          50.000    25444710.600    99850440.125          50.000  
> 2020  5 28 19 12 28.0000000  0 12       0.000000000000
G 2  21908612.520   115130540.680          50.000                                                  
G 6  20928056.440   109977625.395          50.000    20928059.220    82126148.078          50.000  
G12  22727984.640   119436352.141          50.000                                                  
G17  22506169.000   118270667.500          50.000                                                  
G19  20717528.720   108871342.914          50.000                                                  
G24  21119842.660   110985462.605          50.000    21119845.040    82878751.051          50.000  
G28  23478681.020   123381416.621          50.000                                                  
E 2  24600000.100   129273863.270          50.000    24600003.800    96535667.363          50.000  
E15  25309446.580   133001986.191          50.000    25309453.280    99319646.570          50.000  
E27  26664394.920   140122294.344          50.000    26664400.820   104636759.871          50.000  
E30  22340281.240   117398953.152          50.000    22340285.240    87668039.219          50.000  
E36  25445123.140   133714981.586          50.000    25445128.800    99852081.172          50.000  
> 2020  5 28 19 12 29.0000000  0 12       0.000000000000
G 2  21908141.100   115128063.328          50.000                                                  
G 6  20927837.800   109976476.348          50.000    20927840.560    82125290.027          50.000  
G12  22727486.980   119433736.918          50.000                                                  
G17  22506635.280   118273117.750          50.000                                                  
G19  20717859.780   108873082.645          50.000                                                  
G24  21119718.240   110984808.680          50.000    21119720.600    82878262.730          50.000  
G28  23479061.000   123383413.402          50.000                                                  
E 2  24600268.980   129275276.234          50.000    24600272.680    96536722.500          50.000  
E15  25308932.260   132999283.508          50.000    25308938.960    99317628.332          50.000  
E27  26663942.080   140119914.676          50.000    26663947.980   104634982.852          50.000  
E30  22340125.860   117398136.613          50.000    22340129.840    87667429.465          50.000  
E36  25445541.380   133717179.445          50.000    25445547.040    99853722.430          50.000  
> 2020  5 28 19 12 30.0000000  0 12       0.000000000000
G 2  21907669.760   115125586.398          50.000                                                  
G 6  20927619.260   109975327.945          50.000    20927622.020    82124432.461          50.000  
G12  22726989.320   119431121.785          50.000                                                  
G17  22507101.560   118275568.090          50.000                                                  
G19  20718190.900   108874822.738          50.000                                                  
G24  21119593.920   110984155.395          50.000    21119596.280    82877774.891          50.000  
G28  23479441.020   123385410.352          50.000                                                  
E 2  24600537.900   129276689.445          50.000    24600541.600    96537777.816          50.000  
E15  25308418.020   132996581.082          50.000    25308424.720    99315610.289          50.000  
E27  26663489.240   140117535.004          50.000    26663495.140   104633205.824          50.000  
E30  22339970.500   117397320.285          50.000    22339974.500    87666819.867          50.000  
E36  25445959.660   133719377.563          50.000    25445965.320    99855363.879          50.000  
> 2020  5 28 19 12 31.0000000  0 12       0.000000000000
G 2  21907198.500   115123109.883          50.000                                                  
G 6  20927400.840   109974180.191          50.000    20927403.600    82123575.375          50.000  
G12  22726491.700   119428506.730          50.000                                                  
G17  22507567.860   118278018.523          50.000                                                  
G19  20718522.100   108876563.184          50.000                                                  
G24  21119469.720   110983502.762          50.000    21119472.080    82877287.543          50.000  
G28  23479821.040   123387407.457          50.000                                                  
E 2  24600806.860   129278102.902          50.000    24600810.580    96538833.320          50.000  
E15  25307903.800   132993878.879          50.000    25307910.500    99313592.410          50.000  
E27  26663036.400   140115155.324          50.000    26663042.300   104631428.793          50.000  
E30  22339815.200   117396504.172          50.000    22339819.200    87666210.434          50.000  
E36  25446378.000   133721575.945          50.000    25446383.660    99857005.527          50.000  
> 2020  5 28 19 12 32.0000000  0 12       0.000000000000
G 2  21906727.300   115120633.793          50.000                                                  
G 6  20927182.560   109973033.082          50.000    20927185.320    82122718.770          50.000  
G12  22725994.080   119425891.766          50.000                                                  
G17  22508034.180   118280469.055          50.000                                                  
G19  20718853.360   108878303.977          50.000                                                  
G24  21119345.640   110982850.750          50.000    21119348.020    82876800.656          50.000  
G28  23480201.120   123389404.723          50.000                                                  
E 2  24601075.880   129279516.598          50.000    24601079.600    96539889.004          50.000  
E15  25307389.640   132991176.906          50.000    25307396.320    99311574.703          50.000  
E27  26662583.560   140112775.629          50.000    26662589.460   104629651.750          50.000  
E30  22339659.940   117395688.277          50.000    22339663.940    87665601.160          50.000  
E36  25446796.400   133723774.594          50.000    25446802.040    99858647.375          50.000  
> 2020  5 28 19 12 33.0000000  0 12       0.000000000000
G 2  21906256.200   115118158.113          50.000                                                  
G 6  20926964.400   109971886.609          50.000    20926967.160    82121862.645          50.000  
G12  22725496.480   119423276.871          50.000                                                  
G17  22508500.520   118282919.672          50.000                                                  
G19  20719184.700   108880045.121          50.000                                                  
G24  21119221.700   110982199.355          50.000    21119224.060    82876314.227          50.000  
G28  23480581.220   123391402.141          50.000                                                  
E 2  24601344.960   129280930.555          50.000    24601348.660    96540944.879          50.000  
E15  25306875.500   132988475.184          50.000    25306882.200    99309557.188          50.000  
E27  26662130.720   140110395.938          50.000    26662136.620   104627874.707          50.000  
E30  22339504.740   117394872.605          50.000    22339508.720    87664992.055          50.000  
E36  25447214.840   133725973.500          50.000    25447220.480    99860289.414          50.000  
> 2020  5 28 19 12 34.0000000  0 12       0.000000000000
G 2  21905785.180   115115682.859          50.000                                                  
G 6  20926746.340   109970740.789          50.000    20926749.100    82121007.004          50.000  
G12  22724998.900   119420662.074          50.000                                                  
G17  22508966.880   118285370.383          50.000                                                  
G19  20719516.100   108881786.621          50.000                                                  
G24  21119097.860   110981548.570          50.000    21119100.220    82875828.254          50.000  
G28  23480961.340   123393399.715          50.000                                                  
E 2  24601614.060   129282344.742          50.000    24601617.780    96542000.930          50.000  
E15  25306361.440   132985773.695          50.000    25306368.120    99307539.844          50.000  
E27  26661677.880   140108016.238          50.000    26661683.780   104626097.660          50.000  
E30  22339349.560   117394057.145          50.000    22339353.560    87664383.109          50.000  
E36  25447633.320   133728172.676          50.000    25447638.980    99861931.656          50.000  
> 2020  5 28 19 12 35.0000000  0 12       0.000000000000
G 2  21905314.220   115113208.012          50.000                                                  
G 6  20926528.420   109969595.613          50.000    20926531.180    82120151.844          50.000  
G12  22724501.340   119418047.359          50.000                                                  
G17  22509433.260   118287821.191          50.000                                                  
G19  20719847.560   108883528.465          50.000                                                  
G24  21118974.140   110980898.418          50.000    21118976.500    82875342.758          50.000  
G28  23481341.500   123395397.445          50.000                                                  
E 2  24601883.220   129283759.184          50.000    24601886.940    96543057.164          50.000  
E15  25305847.400   132983072.434          50.000    25305854.100    99305522.668          50.000  
E27  26661225.040   140105636.523          50.000    26661230.940   104624320.602          50.000  
E30  22339194.420   117393241.910          50.000    22339198.420    87663774.328          50.000  
E36  25448051.860   133730372.117          50.000    25448057.520    99863574.094          50.000  
> 2020  5 28 19 12 36.0000000  0 12       0.000000000000
G 2  21904843.360   115110733.594          50.000                                                  
G 6  20926310.620   109968451.074          50.000    20926313.380    82119297.160          50.000  
G12  22724003.800   119415432.715          50.000                                                  
G17  22509899.640   118290272.086          50.000                                                  
G19  20720179.080   108885270.676          50.000                                                  
G24  21118850.520   110980248.879          50.000    21118852.900    82874857.715          50.000  
G28  23481721.680   123397395.344          50.000                                                  
E 2  24602152.440   129285173.887          50.000    24602156.140    96544113.598          50.000  
E15  25305333.420   132980371.414          50.000    25305340.100    99303505.676          50.000  
E27  26660772.200   140103256.801          50.000    26660778.080   104622543.539          50.000  
E30  22339039.320   117392426.879          50.000    22339043.320    87663165.703          50.000  
E36  25448470.460   133732571.820          50.000    25448476.100    99865216.730          50.000  
> 2020  5 28 19 12 37.0000000  0 12       0.000000000000
G 2  21904372.560   115108259.578          50.000                                                  
G 6  20926092.960   109967307.191          50.000    20926095.720    82118442.965          50.000  
G12  22723506.260   119412818.172          50.000                                                  
G17  22510366.060   118292723.082          50.000                                                  
G19  20720510.680   108887013.242          50.000                                                  
G24  21118727.040   110979599.973          50.000    21118729.400    82874373.145          50.000  
G28  23482101.900   123399393.402          50.000                                                  
E 2  24602421.680   129286588.813          50.000    24602425.400    96545170.199          50.000  
E15  25304819.460   132977670.633          50.000    25304826.160    99301488.859          50.000  
E27  26660319.340   140100877.074          50.000    26660325.240   104620766.469          50.000  
E30  22338884.280   117391612.090          50.000    22338888.280    87662557.254          50.000  
E36  25448889.100   133734771.793          50.000    25448894.740    99866859.566          50.000  
> 2020  5 28 19 12 38.0000000  0 12       0.000000000000
G 2  21903901.860   115105785.988          50.000                                                  
G 6  20925875.400   109966163.945          50.000    20925878.160    82117589.250          50.000  
G12  22723008.740   119410203.699          50.000                                                  
G17  22510832.480   118295174.164          50.000                                                  
G19  20720842.360   108888756.152          50.000                                                  
G24  21118603.680   110978951.688          50.000    21118606.040    82873889.039          50.000  
G28  23482482.160   123401391.613          50.000                                                  
E 2  24602690.980   129288003.988          50.000    24602694.700    96546226.984          50.000  
E15  25304305.560   132974970.082          50.000    25304312.260    99299472.215          50.000  
E27  26659866.500   140098497.332          50.000    26659872.380   104618989.391          50.000  
E30  22338729.260   117390797.496          50.000    22338733.260    87661948.953          50.000  
E36  25449307.780   133736972.016          50.000    25449313.440    99868502.586          50.000  
> 2020  5 28 19 12 39.0000000  0 12       0.000000000000
G 2  21903431.240   115103312.820          50.000                                                  
G 6  20925657.980   109965021.340          50.000    20925660.720    82116736.008          50.000  
G12  22722511.240   119407589.313          50.000                                                  
G17  22511298.920   118297625.336          50.000                                                  
G19  20721174.080   108890499.410          50.000                                                  
G24  21118480.440   110978304.027          50.000    21118482.800    82873405.402          50.000  
G28  23482862.420   123403389.973          50.000                                                  
E 2  24602960.340   129289419.410          50.000    24602964.040    96547283.957          50.000  
E15  25303791.720   132972269.777          50.000    25303798.420    99297455.754          50.000  
E27  26659413.640   140096117.590          50.000    26659419.540   104617212.313          50.000  
E30  22338574.300   117389983.125          50.000    22338578.300    87661340.820          50.000  
E36  25449726.520   133739172.516          50.000    25449732.180    99870145.816          50.000  
> 2020  5 28 19 12 40.0000000  0 12       0.000000000000
G 2  21902960.680   115100840.066          50.000                                                  
G 6  20925440.660   109963879.383          50.000    20925443.420    82115883.254          50.000  
G12  22722013.760   119404975.012          50.000                                                  
G17  22511765.380   118300076.598          50.000                                                  
G19  20721505.880   108892243.031          50.000                                                  
G24  21118357.300   110977656.988          50.000    21118359.660    82872922.227          50.000  
G28  23483242.740   123405388.496          50.000                                                  
E 2  24603229.720   129290835.090          50.000    24603233.440    96548341.117          50.000  
E15  25303277.900   132969569.703          50.000    25303284.600    99295439.465          50.000  
E27  26658960.780   140093737.840          50.000    26658966.680   104615435.227          50.000  
E30  22338419.360   117389168.980          50.000    22338423.360    87660732.859          50.000  
E36  25450145.320   133741373.270          50.000    25450150.980    99871789.234          50.000  
> 2020  5 28 19 12 41.0000000  0 12       0.000000000000
G 2  21902490.220   115098367.734          50.000                                                  
G 6  20925223.480   109962738.074          50.000    20925226.240    82115030.980          50.000  
G12  22721516.280   119402360.789          50.000                                                  
G17  22512231.860   118302527.957          50.000                                                  
G19  20721837.740   108893986.984          50.000                                                  
G24  21118234.300   110977010.563          50.000    21118236.660    82872439.512          50.000  
G28  23483623.080   123407387.172          50.000                                                  
E 2  24603499.160   129292251.008          50.000    24603502.880    96549398.457          50.000  
E15  25302764.140   132966869.863          50.000    25302770.840    99293423.352          50.000  
E27  26658507.940   140091358.078          50.000    26658513.820   104613658.133          50.000  
E30  22338264.480   117388355.047          50.000    22338268.480    87660125.047          50.000  
E36  25450564.160   133743574.297          50.000    25450569.820    99873432.859          50.000  
> 2020  5 28 19 12 42.0000000  0 12       0.000000000000
G 2  21902019.820   115095895.820          50.000                                                  
G 6  20925006.420   109961597.414          50.000    20925009.160    82114179.195          50.000  
G12  22721018.820   119399746.652          50.000                                                  
G17  22512698.360   118304979.395          50.000                                                  
G19  20722169.680   108895731.293          50.000                                                  
G24  21118111.400   110976364.770          50.000    21118113.760    82871957.270          50.000  
G28  23484003.440   123409386.000          50.000                                                  
E 2  24603768.660   129293667.176          50.000    24603772.360    96550455.984          50.000  
E15  25302250.420   132964170.258          50.000    25302257.120    99291407.414          50.000  
E27  26658055.080   140088978.313          50.000    26658060.960   104611881.039          50.000  
E30  22338109.640   117387541.332          50.000    22338113.640    87659517.406          50.000  
E36  25450983.060   133745775.578          50.000    25450988.700    99875076.672          50.000  
> 2020  5 28 19 12 43.0000000  0 12       0.000000000000
G 2  21901549.500   115093424.324          50.000                                                  
G 6  20924789.480   109960457.391          50.000    20924792.220    82113327.883          50.000  
G12  22720521.380   119397132.594          50.000                                                  
G17  22513164.860   118307430.926          50.000                                                  
G19  20722501.680   108897475.953          50.000                                                  
G24  21117988.640   110975719.594          50.000    21117990.980    82871475.484          50.000  
G28  23484383.840   123411385.000          50.000                                                  
E 2  24604038.180   129295083.578          50.000    24604041.900    96551513.691          50.000  
E15  25301736.760   132961470.895          50.000    25301743.440    99289391.656          50.000  
E27  26657602.220   140086598.523          50.000    26657608.100   104610103.926          50.000  
E30  22337954.840   117386727.832          50.000    22337958.820    87658909.922          50.000  
E36  25451402.000   133747977.125          50.000    25451407.640    99876720.684          50.000  
> 2020  5 28 19 12 44.0000000  0 12       0.000000000000
G 2  21901079.280   115090953.230          50.000                                                  
G 6  20924572.660   109959318.016          50.000    20924575.400    82112477.055          50.000  
G12  22720023.960   119394518.617          50.000                                                  
G17  22513631.400   118309882.555          50.000                                                  
G19  20722833.740   108899220.969          50.000                                                  
G24  21117865.980   110975075.066          50.000    21117868.340    82870994.184          50.000  
G28  23484764.260   123413384.152          50.000                                                  
E 2  24604307.760   129296500.234          50.000    24604311.480    96552571.582          50.000  
E15  25301223.120   132958771.758          50.000    25301229.820    99287376.070          50.000  
E27  26657149.360   140084218.750          50.000    26657155.260   104608326.820          50.000  
E30  22337800.060   117385914.551          50.000    22337804.060    87658302.602          50.000  
E36  25451820.980   133750178.938          50.000    25451826.640    99878364.895          50.000  
> 2020  5 28 19 12 45.0000000  0 12       0.000000000000
G 2  21900609.120   115088482.566          50.000                                                  
G 6  20924355.960   109958179.285          50.000    20924358.720    82111626.707          50.000  
G12  22719526.560   119391904.727          50.000                                                  
G17  22514097.940   118312334.270          50.000                                                  
G19  20723165.880   108900966.332          50.000                                                  
G24  21117743.460   110974431.148          50.000    21117745.800    82870513.340          50.000  
G28  23485144.720   123415383.461          50.000                                                  
E 2  24604577.400   129297917.133          50.000    24604581.120    96553629.656          50.000  
E15  25300709.540   132956072.863          50.000    25300716.240    99285360.664          50.000  
E27  26656696.500   140081838.953          50.000    26656702.400   104606549.703          50.000  
E30  22337645.340   117385101.496          50.000    22337649.340    87657695.449          50.000  
E36  25452240.020   133752381.012          50.000    25452245.680    99880009.297          50.000  
> 2020  5 28 19 12 46.0000000  0 12       0.000000000000
G 2  21900139.040   115086012.316          50.000                                                  
G 6  20924139.400   109957041.195          50.000    20924142.140    82110776.832          50.000  
G12  22719029.160   119389290.914          50.000                                                  
G17  22514564.500   118314786.078          50.000                                                  
G19  20723498.080   108902712.051          50.000                                                  
G24  21117621.040   110973787.887          50.000    21117623.400    82870032.980          50.000  
G28  23485525.200   123417382.922          50.000                                                  
E 2  24604847.080   129299334.285          50.000    24604850.780    96554687.914          50.000  
E15  25300196.000   132953374.207          50.000    25300202.700    99283345.434          50.000  
E27  26656243.640   140079459.152          50.000    26656249.520   104604772.582          50.000  
E30  22337490.680   117384288.648          50.000    22337494.660    87657088.453          50.000  
E36  25452659.120   133754583.344          50.000    25452664.760    99881653.898          50.000  
> 2020  5 28 19 12 47.0000000  0 12       0.000000000000
G 2  21899669.060   115083542.484          50.000                                                  
G 6  20923922.960   109955903.762          50.000    20923925.700    82109927.449          50.000  
G12  22718531.780   119386677.195          50.000                                                  
G17  22515031.080   118317237.973          50.000                                                  
G19  20723830.340   108904458.113          50.000                                                  
G24  21117498.760   110973145.254          50.000    21117501.100    82869553.090          50.000  
G28  23485905.720   123419382.551          50.000                                                  
E 2  24605116.800   129300751.688          50.000    24605120.520    96555746.367          50.000  
E15  25299682.520   132950675.793          50.000    25299689.200    99281330.387          50.000  
E27  26655790.780   140077079.352          50.000    26655796.660   104602995.457          50.000  
E30  22337336.040   117383476.027          50.000    22337340.040    87656481.625          50.000  
E36  25453078.260   133756785.949          50.000    25453083.920    99883298.699          50.000  
> 2020  5 28 19 12 48.0000000  0 12       0.000000000000
G 2  21899199.140   115081073.074          50.000                                                  
G 6  20923706.620   109954766.953          50.000    20923709.360    82109078.535          50.000  
G12  22718034.420   119384063.551          50.000                                                  
G17  22515497.680   118319689.965          50.000                                                  
G19  20724162.680   108906204.535          50.000                                                  
G24  21117376.580   110972503.234          50.000    21117378.940    82869073.664          50.000  
G28  23486286.260   123421382.332          50.000                                                  
E 2  24605386.560   129302169.320          50.000    24605390.280    96556804.988          50.000  
E15  25299169.060   132947977.605          50.000    25299175.760    99279315.508          50.000  
E27  26655337.920   140074699.535          50.000    26655343.800   104601218.324          50.000  
E30  22337181.440   117382663.617          50.000    22337185.440    87655874.957          50.000  
E36  25453497.440   133758988.813          50.000    25453503.100    99884943.691          50.000  
> 2020  5 28 19 12 49.0000000  0 12       0.000000000000
G 2  21898729.300   115078604.090          50.000                                                  
G 6  20923490.420   109953630.805          50.000    20923493.160    82108230.113          50.000  
G12  22717537.080   119381450.000          50.000                                                  
G17  22515964.300   118322142.051          50.000                                                  
G19  20724495.060   108907951.305          50.000                                                  
G24  21117254.520   110971861.855          50.000    21117256.880    82868594.711          50.000  
G28  23486666.840   123423382.273          50.000                                                  
E 2  24605656.380   129303587.215          50.000    24605660.100    96557863.805          50.000  
E15  25298655.660   132945279.652          50.000    25298662.360    99277300.805          50.000  
E27  26654885.040   140072319.715          50.000    26654890.940   104599441.188          50.000  
E30  22337026.880   117381851.434          50.000    22337030.880    87655268.457          50.000  
E36  25453916.680   133761191.938          50.000    25453922.340    99886588.883          50.000  
> 2020  5 28 19 12 50.0000000  0 12       0.000000000000
G 2  21898259.560   115076135.520          50.000                                                  
G 6  20923274.340   109952495.305          50.000    20923277.080    82107382.176          50.000  
G12  22717039.760   119378836.520          50.000                                                  
G17  22516430.940   118324594.219          50.000                                                  
G19  20724827.540   108909698.422          50.000                                                  
G24  21117132.600   110971221.094          50.000    21117134.940    82868116.219          50.000  
G28  23487047.460   123425382.379          50.000                                                  
E 2  24605926.240   129305005.348          50.000    24605929.960    96558922.797          50.000  
E15  25298142.300   132942581.934          50.000    25298149.000    99275286.273          50.000  
E27  26654432.180   140069939.883          50.000    26654438.060   104597664.039          50.000  
E30  22336872.360   117381039.457          50.000    22336876.360    87654662.109          50.000  
E36  25454335.980   133763395.328          50.000    25454341.640    99888234.270          50.000  
> 2020  5 28 19 12 51.0000000  0 12       0.000000000000
G 2  21897789.880   115073667.363          50.000                                                  
G 6  20923058.380   109951360.445          50.000    20923061.140    82106534.715          50.000  
G12  22716542.440   119376223.129          50.000                                                  
G17  22516897.580   118327046.480          50.000                                                  
G19  20725160.060   108911445.891          50.000                                                  
G24  21117010.780   110970580.977          50.000    21117013.140    82867638.211          50.000  
G28  23487428.080   123427382.629          50.000                                                  
E 2  24606196.140   129306423.719          50.000    24606199.860    96559981.973          50.000  
E15  25297628.980   132939884.473          50.000    25297635.680    99273271.938          50.000  
E27  26653979.320   140067560.043          50.000    26653985.200   104595886.891          50.000  
E30  22336717.900   117380227.699          50.000    22336721.900    87654055.926          50.000  
E36  25454755.320   133765598.980          50.000    25454760.980    99889879.855          50.000  
> 2020  5 28 19 12 52.0000000  0 12       0.000000000000
G 2  21897320.280   115071199.629          50.000                                                  
G 6  20922842.540   109950226.223          50.000    20922845.300    82105687.734          50.000  
G12  22716045.140   119373609.836          50.000                                                  
G17  22517364.260   118329498.836          50.000                                                  
G19  20725492.660   108913193.707          50.000                                                  
G24  21116889.100   110969941.473          50.000    21116891.440    82867160.660          50.000  
G28  23487808.760   123429383.043          50.000                                                  
E 2  24606466.100   129307842.348          50.000    24606469.820    96561041.336          50.000  
E15  25297115.720   132937187.227          50.000    25297122.420    99271257.762          50.000  
E27  26653526.440   140065180.203          50.000    26653532.320   104594109.738          50.000  
E30  22336563.460   117379416.164          50.000    22336567.460    87653449.910          50.000  
E36  25455174.720   133767802.895          50.000    25455180.360    99891525.633          50.000  
> 2020  5 28 19 12 53.0000000  0 12       0.000000000000
G 2  21896850.760   115068732.320          50.000                                                  
G 6  20922626.840   109949092.664          50.000    20922629.580    82104841.246          50.000  
G12  22715547.860   119370996.617          50.000                                                  
G17  22517830.940   118331951.273          50.000                                                  
G19  20725825.340   108914941.871          50.000                                                  
G24  21116767.520   110969302.555          50.000    21116769.860    82866683.543          50.000  
G28  23488189.460   123431383.605          50.000                                                  
E 2  24606736.100   129309261.215          50.000    24606739.820    96562100.879          50.000  
E15  25296602.500   132934490.238          50.000    25296609.180    99269243.777          50.000  
E27  26653073.560   140062800.352          50.000    26653079.460   104592332.574          50.000  
E30  22336409.080   117378604.852          50.000    22336413.080    87652844.059          50.000  
E36  25455594.160   133770007.070          50.000    25455599.820    99893171.609          50.000  
> 2020  5 28 19 12 54.0000000  0 12       0.000000000000
G 2  21896381.340   115066265.422          50.000                                                  
G 6  20922411.260   109947959.754          50.000    20922414.000    82103995.242          50.000  
G12  22715050.600   119368383.477          50.000                                                  
G17  22518297.640   118334403.801          50.000                                                  
G19  20726158.060   108916690.395          50.000                                                  
G24  21116646.060   110968664.281          50.000    21116648.400    82866206.914          50.000  
G28  23488570.180   123433384.344          50.000                                                  
E 2  24607006.160   129310680.348          50.000    24607009.880    96563160.621          50.000  
E15  25296089.320   132931793.480          50.000    25296096.020    99267229.965          50.000  
E27  26652620.700   140060420.488          50.000    26652626.580   104590555.406          50.000  
E30  22336254.740   117377793.750          50.000    22336258.720    87652238.367          50.000  
E36  25456013.640   133772211.516          50.000    25456019.300    99894817.781          50.000  
> 2020  5 28 19 12 55.0000000  0 12       0.000000000000
G 2  21895911.980   115063798.945          50.000                                                  
G 6  20922195.780   109946827.473          50.000    20922198.540    82103149.707          50.000  
G12  22714553.360   119365770.426          50.000                                                  
G17  22518764.360   118336856.418          50.000                                                  
G19  20726490.860   108918439.262          50.000                                                  
G24  21116524.700   110968026.621          50.000    21116527.060    82865730.738          50.000  
G28  23488950.940   123435385.223          50.000                                                  
E 2  24607276.260   129312099.695          50.000    24607279.960    96564220.523          50.000  
E15  25295576.200   132929096.953          50.000    25295582.880    99265216.324          50.000  
E27  26652167.820   140058040.617          50.000    26652173.700   104588778.234          50.000  
E30  22336100.420   117376982.867          50.000    22336104.420    87651632.840          50.000  
E36  25456433.200   133774416.215          50.000    25456438.840    99896464.152          50.000  
> 2020  5 28 19 12 56.0000000  0 12       0.000000000000
G 2  21895442.700   115061332.887          50.000                                                  
G 6  20921980.440   109945695.840          50.000    20921983.180    82102304.660          50.000  
G12  22714056.120   119363157.449          50.000                                                  
G17  22519231.100   118339309.125          50.000                                                  
G19  20726823.720   108920188.484          50.000                                                  
G24  21116403.480   110967389.602          50.000    21116405.840    82865255.043          50.000  
G28  23489331.720   123437386.270          50.000                                                  
E 2  24607546.400   129313519.297          50.000    24607550.120    96565280.613          50.000  
E15  25295063.100   132926400.652          50.000    25295069.800    99263202.859          50.000  
E27  26651714.940   140055660.738          50.000    26651720.820   104587001.055          50.000  
E30  22335946.160   117376172.191          50.000    22335950.160    87651027.465          50.000  
E36  25456852.780   133776621.172          50.000    25456858.440    99898110.707          50.000  
> 2020  5 28 19 12 57.0000000  0 12       0.000000000000
G 2  21894973.500   115058867.246          50.000                                                  
G 6  20921765.220   109944564.855          50.000    20921767.960    82101460.094          50.000  
G12  22713558.900   119360544.570          50.000                                                  
G17  22519697.840   118341761.926          50.000                                                  
G19  20727156.660   108921938.059          50.000                                                  
G24  21116282.380   110966753.211          50.000    21116284.740    82864779.813          50.000  
G28  23489712.540   123439387.469          50.000                                                  
E 2  24607816.580   129314939.156          50.000    24607820.300    96566340.898          50.000  
E15  25294550.060   132923704.598          50.000    25294556.740    99261189.570          50.000  
E27  26651262.060   140053280.852          50.000    26651267.960   104585223.867          50.000  
E30  22335791.940   117375361.750          50.000    22335795.940    87650422.266          50.000  
E36  25457272.420   133778826.402          50.000    25457278.080    99899757.469          50.000  
> 2020  5 28 19 12 58.0000000  0 12       0.000000000000
G 2  21894504.380   115056402.016          50.000                                                  
G 6  20921550.120   109943434.504          50.000    20921552.880    82100616.000          50.000  
G12  22713061.700   119357931.770          50.000                                                  
G17  22520164.620   118344214.816          50.000                                                  
G19  20727489.660   108923687.980          50.000                                                  
G24  21116161.400   110966117.457          50.000    21116163.760    82864305.066          50.000  
G28  23490093.380   123441388.832          50.000                                                  
E 2  24608086.820   129316359.254          50.000    24608090.540    96567401.359          50.000  
E15  25294037.060   132921008.773          50.000    25294043.760    99259176.453          50.000  
E27  26650809.180   140050900.961          50.000    26650815.080   104583446.676          50.000  
E30  22335637.760   117374551.516          50.000    22335641.760    87649817.219          50.000  
E36  25457692.120   133781031.898          50.000    25457697.780    99901404.426          50.000  
> 2020  5 28 19 12 59.0000000  0 12       0.000000000000
G 2  21894035.340   115053937.219          50.000                                                  
G 6  20921335.160   109942304.813          50.000    20921337.900    82099772.402          50.000  
G12  22712564.520   119355319.039          50.000                                                  
G17  22520631.400   118346667.797          50.000                                                  
G19  20727822.720   108925438.246          50.000                                                  
G24  21116040.540   110965482.348          50.000    21116042.900    82863830.797          50.000  
G28  23490474.260   123443390.352          50.000                                                  
E 2  24608357.100   129317779.609          50.000    24608360.820    96568462.012          50.000  
E15  25293524.120   132918313.199          50.000    25293530.800    99257163.523          50.000  
E27  26650356.300   140048521.074          50.000    26650362.200   104581669.484          50.000  
E30  22335483.620   117373741.516          50.000    22335487.620    87649212.344          50.000  
E36  25458111.860   133783237.645          50.000    25458117.520    99903051.574          50.000  
> 2020  5 28 19 13  3.0000000  0  9       0.000000000000
G 2  21892160.280   115044083.625          50.000                                                  
G 6  20920549.660   109938176.953          50.000    20920552.400    82096689.898          50.000  
G12  22710441.580   119344163.000          50.000                                                  
G17  22522608.080   118357055.340          50.000                                                  
G19  20729211.220   108932734.883          50.000                                                  
G24  21115455.260   110962406.617          50.000    21115457.600    82861533.988          50.000  
G28  23492168.840   123452295.395          50.000                                                  
E30  22334855.260   117370439.477          50.000    22334859.260    87646746.535          50.000  
E36  25459902.640   133792648.242          50.000    25459908.280    99910078.969          50.000  
> 2020  5 28 19 13  4.0000000  0  9       0.000000000000
G 2  21891691.640   115041620.930          50.000                                                  
G 6  20920335.300   109937050.496          50.000    20920338.040    82095848.715          50.000  
G12  22709944.500   119341550.777          50.000                                                  
G17  22523074.980   118359508.859          50.000                                                  
G19  20729544.640   108934487.008          50.000                                                  
G24  21115335.000   110961774.656          50.000    21115337.340    82861062.070          50.000  
G28  23492549.880   123454297.723          50.000                                                  
E30  22334701.340   117369630.629          50.000    22334705.340    87646142.531          50.000  
E36  25460322.620   133794855.316          50.000    25460328.280    99911727.109          50.000  
> 2020  5 28 19 13  5.0000000  0  9       0.000000000000
G 2  21891223.080   115039158.660          50.000                                                  
G 6  20920121.060   109935924.688          50.000    20920123.800    82095008.016          50.000  
G12  22709447.420   119338938.648          50.000                                                  
G17  22523541.880   118361962.461          50.000                                                  
G19  20729878.120   108936239.465          50.000                                                  
G24  21115214.860   110961143.328          50.000    21115217.200    82860590.621          50.000  
G28  23492930.920   123456300.195          50.000                                                  
E30  22334547.460   117368822.008          50.000    22334551.460    87645538.688          50.000  
E36  25460742.660   133797062.645          50.000    25460748.320    99913375.438          50.000  
> 2020  5 28 19 13  6.0000000  0  9       0.000000000000
G 2  21890754.620   115036696.805          50.000                                                  
G 6  20919906.940   109934799.531          50.000    20919909.700    82094167.801          50.000  
G12  22708950.360   119336326.586          50.000                                                  
G17  22524008.800   118364416.156          50.000                                                  
G19  20730211.680   108937992.293          50.000                                                  
G24  21115094.840   110960512.598          50.000    21115097.180    82860119.625          50.000  
G28  23493312.020   123458302.836          50.000                                                  
E30  22334393.640   117368013.594          50.000    22334397.620    87644935.004          50.000  
E36  25461162.760   133799270.238          50.000    25461168.420    99915023.965          50.000  
> 2020  5 28 19 13  7.0000000  0  9       0.000000000000
G 2  21890286.220   115034235.367          50.000                                                  
G 6  20919692.960   109933675.020          50.000    20919695.700    82093328.066          50.000  
G12  22708453.320   119333714.625          50.000                                                  
G17  22524475.740   118366869.941          50.000                                                  
G19  20730545.300   108939745.461          50.000                                                  
G24  21114974.920   110959882.488          50.000    21114977.280    82859649.086          50.000  
G28  23493693.140   123460305.629          50.000                                                  
E30  22334239.840   117367205.402          50.000    22334243.840    87644331.484          50.000  
E36  25461582.900   133801478.102          50.000    25461588.560    99916672.691          50.000  
> 2020  5 28 19 13  8.0000000  0  9       0.000000000000
G 2  21889817.900   115031774.359          50.000                                                  
G 6  20919479.100   109932551.145          50.000    20919481.840    82092488.813          50.000  
G12  22707956.300   119331102.742          50.000                                                  
G17  22524942.700   118369323.820          50.000                                                  
G19  20730878.980   108941498.980          50.000                                                  
G24  21114855.140   110959253.016          50.000    21114857.500    82859179.027          50.000  
G28  23494074.300   123462308.598          50.000                                                  
E30  22334086.080   117366397.441          50.000    22334090.080    87643728.137          50.000  
E36  25462003.100   133803686.223          50.000    25462008.760    99918321.617          50.000  
> 2020  5 28 19 13  9.0000000  0  9       0.000000000000
G 2  21889349.660   115029313.762          50.000                                                  
G 6  20919265.360   109931427.930          50.000    20919268.100    82091650.047          50.000  
G12  22707459.300   119328490.949          50.000                                                  
G17  22525409.680   118371777.789          50.000                                                  
G19  20731212.740   108943252.852          50.000                                                  
G24  21114735.480   110958624.160          50.000    21114737.820    82858709.426          50.000  
G28  23494455.480   123464311.723          50.000                                                  
E30  22333932.380   117365589.703          50.000    22333936.380    87643124.953          50.000  
E36  25462423.340   133805894.613          50.000    25462429.000    99919970.738          50.000  
> 2020  5 28 19 13 10.0000000  0  9       0.000000000000
G 2  21888881.500   115026853.594          50.000                                                  
G 6  20919051.740   109930305.344          50.000    20919054.480    82090811.754          50.000  
G12  22706962.300   119325879.227          50.000                                                  
G17  22525876.660   118374231.840          50.000                                                  
G19  20731546.560   108945007.074          50.000                                                  
G24  21114615.940   110957995.945          50.000    21114618.280    82858240.305          50.000  
G28  23494836.680   123466315.004          50.000                                                  
E30  22333778.720   117364782.176          50.000    22333782.700    87642521.934          50.000  
E36  25462843.620   133808103.254          50.000    25462849.280    99921620.043          50.000  
> 2020  5 28 19 13 11.0000000  0  9       0.000000000000
G 2  21888413.440   115024393.844          50.000                                                  
G 6  20918838.240   109929183.410          50.000    20918840.980    82089973.945          50.000  
G12  22706465.320   119323267.590          50.000                                                  
G17  22526343.680   118376685.980          50.000                                                  
G19  20731880.440   108946761.637          50.000                                                  
G24  21114496.500   110957368.336          50.000    21114498.860    82857771.633          50.000  
G28  23495217.920   123468318.426          50.000                                                  
E30  22333625.080   117363974.863          50.000    22333629.080    87641919.070          50.000  
E36  25463263.960   133810312.160          50.000    25463269.620    99923269.551          50.000  
> 2020  5 28 19 13 12.0000000  0  9       0.000000000000
G 2  21887945.440   115021934.512          50.000                                                  
G 6  20918624.860   109928062.125          50.000    20918627.600    82089136.621          50.000  
G12  22705968.360   119320656.039          50.000                                                  
G17  22526810.700   118379140.219          50.000                                                  
G19  20732214.380   108948516.563          50.000                                                  
G24  21114377.200   110956741.371          50.000    21114379.540    82857303.445          50.000  
G28  23495599.200   123470322.020          50.000                                                  
E30  22333471.500   117363167.770          50.000    22333475.500    87641316.367          50.000  
E36  25463684.360   133812521.320          50.000    25463690.020    99924919.250          50.000  
> 2020  5 28 19 13 13.0000000  0  9       0.000000000000
G 2  21887477.520   115019475.602          50.000                                                  
G 6  20918411.600   109926941.484          50.000    20918414.360    82088299.781          50.000  
G12  22705471.420   119318044.586          50.000                                                  
G17  22527277.740   118381594.551          50.000                                                  
G19  20732548.400   108950271.844          50.000                                                  
G24  21114258.000   110956115.043          50.000    21114260.360    82856835.734          50.000  
G28  23495980.500   123472325.773          50.000                                                  
E30  22333317.960   117362360.891          50.000    22333321.960    87640713.828          50.000  
E36  25464104.800   133814730.754          50.000    25464110.460    99926569.148          50.000  
> 2020  5 28 19 13 14.0000000  0  9       0.000000000000
G 2  21887009.680   115017017.109          50.000                                                  
G 6  20918198.480   109925821.488          50.000    20918201.220    82087463.422          50.000  
G12  22704974.480   119315433.207          50.000                                                  
G17  22527744.800   118384048.973          50.000                                                  
G19  20732882.480   108952027.469          50.000                                                  
G24  21114138.940   110955489.344          50.000    21114141.300    82856368.492          50.000  
G28  23496361.840   123474329.695          50.000                                                  
E30  22333164.460   117361554.234          50.000    22333168.460    87640111.457          50.000  
E36  25464525.300   133816940.441          50.000    25464530.940    99928219.238          50.000  
> 2020  5 28 19 13 15.0000000  0  9       0.000000000000
G 2  21886541.920   115014559.035          50.000                                                  
G 6  20917985.480   109924702.141          50.000    20917988.220    82086627.547          50.000  
G12  22704477.560   119312821.918          50.000                                                  
G17  22528211.880   118386503.488          50.000                                                  
G19  20733216.640   108953783.449          50.000                                                  
G24  21114019.980   110954864.258          50.000    21114022.340    82855901.707          50.000  
G28  23496743.200   123476333.766          50.000                                                  
E30  22333011.000   117360747.789          50.000    22333014.980    87639509.242          50.000  
E36  25464945.840   133819150.391          50.000    25464951.480    99929869.523          50.000  
> 2020  5 28 19 13 16.0000000  0  9       0.000000000000
G 2  21886074.240   115012101.375          50.000                                                  
G 6  20917772.600   109923583.434          50.000    20917775.340    82085792.148          50.000  
G12  22703980.680   119310210.723          50.000                                                  
G17  22528678.980   118388958.090          50.000                                                  
G19  20733550.860   108955539.770          50.000                                                  
G24  21113901.160   110954239.805          50.000    21113903.520    82855435.395          50.000  
G28  23497124.600   123478337.996          50.000                                                  
E30  22332857.580   117359941.574          50.000    22332861.580    87638907.195          50.000  
E36  25465366.420   133821360.605          50.000    25465372.080    99931520.008          50.000  
> 2020  5 28 19 13 17.0000000  0  9       0.000000000000
G 2  21885606.660   115009644.141          50.000                                                  
G 6  20917559.840   109922465.391          50.000    20917562.580    82084957.246          50.000  
G12  22703483.800   119307599.613          50.000                                                  
G17  22529146.100   118391412.781          50.000                                                  
G19  20733885.140   108957296.445          50.000                                                  
G24  21113782.460   110953615.980          50.000    21113784.800    82854969.555          50.000  
G28  23497506.020   123480342.375          50.000                                                  
E30  22332704.200   117359135.578          50.000    22332708.200    87638305.316          50.000  
E36  25465787.060   133823571.070          50.000    25465792.720    99933170.680          50.000  
> 2020  5 28 19 13 18.0000000  0  9       0.000000000000
G 2  21885139.140   115007187.324          50.000                                                  
G 6  20917347.200   109921347.969          50.000    20917349.940    82084122.809          50.000  
G12  22702986.940   119304988.586          50.000                                                  
G17  22529613.220   118393867.559          50.000                                                  
G19  20734219.500   108959053.465          50.000                                                  
G24  21113663.860   110952992.762          50.000    21113666.200    82854504.164          50.000  
G28  23497887.460   123482346.914          50.000                                                  
E30  22332550.860   117358329.793          50.000    22332554.860    87637703.594          50.000  
E36  25466207.740   133825781.805          50.000    25466213.400    99934821.551          50.000  
> 2020  5 28 19 13 19.0000000  0  9       0.000000000000
G 2  21884671.700   115004730.934          50.000                                                  
G 6  20917134.680   109920231.215          50.000    20917137.440    82083288.871          50.000  
G12  22702490.080   119302377.645          50.000                                                  
G17  22530080.380   118396322.430          50.000                                                  
G19  20734553.920   108960810.844          50.000                                                  
G24  21113545.380   110952370.188          50.000    21113547.740    82854039.254          50.000  
G28  23498268.960   123484351.621          50.000                                                  
E30  22332397.580   117357524.238          50.000    22332401.560    87637102.043          50.000  
E36  25466628.480   133827992.801          50.000    25466634.140    99936472.617          50.000  
> 2020  5 28 19 13 20.0000000  0  9       0.000000000000
G 2  21884204.340   115002274.953          50.000                                                  
G 6  20916922.300   109919115.098          50.000    20916925.040    82082455.406          50.000  
G12  22701993.260   119299766.789          50.000                                                  
G17  22530547.540   118398777.387          50.000                                                  
G19  20734888.400   108962568.563          50.000                                                  
G24  21113427.040   110951748.238          50.000    21113429.380    82853574.809          50.000  
G28  23498650.460   123486356.484          50.000                                                  
E30  22332244.320   117356718.887          50.000    22332248.320    87636500.648          50.000  
E36  25467049.280   133830204.055          50.000    25467054.940    99938123.879          50.000  
> 2020  5 28 19 13 21.0000000  0  9       0.000000000000
G 2  21883737.060   114999819.402          50.000                                                  
G 6  20916710.020   109917999.617          50.000    20916712.760    82081622.418          50.000  
G12  22701496.440   119297156.008          50.000                                                  
G17  22531014.720   118401232.430          50.000                                                  
G19  20735222.940   108964326.637          50.000                                                  
G24  21113308.800   110951126.922          50.000    21113311.140    82853110.840          50.000  
G28  23499032.020   123488361.516          50.000                                                  
E30  22332091.120   117355913.773          50.000    22332095.100    87635899.426          50.000  
E36  25467470.120   133832415.574          50.000    25467475.780    99939775.336          50.000  
> 2020  5 28 19 13 22.0000000  0  9       0.000000000000
G 2  21883269.860   114997364.273          50.000                                                  
G 6  20916497.880   109916884.797          50.000    20916500.620    82080789.922          50.000  
G12  22700999.640   119294545.316          50.000                                                  
G17  22531481.920   118403687.563          50.000                                                  
G19  20735557.560   108966085.059          50.000                                                  
G24  21113190.680   110950506.230          50.000    21113193.040    82852647.336          50.000  
G28  23499413.580   123490366.684          50.000                                                  
E30  22331937.940   117355108.867          50.000    22331941.940    87635298.359          50.000  
E36  25467891.000   133834627.344          50.000    25467896.660    99941426.984          50.000  
> 2020  5 28 19 13 23.0000000  0  9       0.000000000000
G 2  21882802.740   114994909.555          50.000                                                  
G 6  20916285.860   109915770.613          50.000    20916288.600    82079957.902          50.000  
G12  22700502.860   119291934.699          50.000                                                  
G17  22531949.120   118406142.781          50.000                                                  
G19  20735892.240   108967843.820          50.000                                                  
G24  21113072.700   110949886.172          50.000    21113075.040    82852184.309          50.000  
G28  23499795.180   123492372.008          50.000                                                  
E30  22331784.820   117354304.180          50.000    22331788.820    87634697.457          50.000  
E36  25468311.940   133836839.387          50.000    25468317.600    99943078.832          50.000  
> 2020  5 28 19 13 24.0000000  0  9       0.000000000000
G 2  21882335.720   114992455.270          50.000                                                  
G 6  20916073.960   109914657.082          50.000    20916076.700    82079126.371          50.000  
G12  22700006.080   119289324.172          50.000                                                  
G17  22532416.360   118408598.086          50.000                                                  
G19  20736227.000   108969602.934          50.000                                                  
G24  21112954.820   110949266.754          50.000    21112957.180    82851721.754          50.000  
G28  23500176.820   123494377.504          50.000                                                  
E30  22331631.740   117353499.730          50.000    22331635.720    87634096.730          50.000  
E36  25468732.920   133839051.680          50.000    25468738.580    99944730.871          50.000  
> 2020  5 28 19 13 25.0000000  0  9       0.000000000000
G 2  21881868.760   114990001.395          50.000                                                  
G 6  20915862.180   109913544.203          50.000    20915864.940    82078295.324          50.000  
G12  22699509.340   119286713.730          50.000                                                  
G17  22532883.600   118411053.484          50.000                                                  
G19  20736561.800   108971362.391          50.000                                                  
G24  21112837.060   110948647.941          50.000    21112839.420    82851259.652          50.000  
G28  23500558.480   123496383.152          50.000                                                  
E30  22331478.680   117352695.473          50.000    22331482.680    87633496.148          50.000  
E36  25469153.960   133841264.242          50.000    25469159.620    99946383.105          50.000  
> 2020  5 28 19 13 26.0000000  0  9       0.000000000000
G 2  21881401.880   114987547.945          50.000                                                  
G 6  20915650.540   109912431.969          50.000    20915653.280    82077464.762          50.000  
G12  22699012.600   119284103.371          50.000                                                  
G17  22533350.860   118413508.973          50.000                                                  
G19  20736896.680   108973122.199          50.000                                                  
G24  21112719.440   110948029.781          50.000    21112721.780    82850798.039          50.000  
G28  23500940.180   123498388.953          50.000                                                  
E30  22331325.680   117351891.453          50.000    22331329.680    87632895.746          50.000  
E36  25469575.040   133843477.066          50.000    25469580.720    99948035.539          50.000  
> 2020  5 28 19 13 27.0000000  0  9       0.000000000000
G 2  21880935.080   114985094.926          50.000                                                  
G 6  20915439.000   109911320.379          50.000    20915441.740    82076634.680          50.000  
G12  22698515.880   119281493.098          50.000                                                  
G17  22533818.140   118415964.547          50.000                                                  
G19  20737231.640   108974882.355          50.000                                                  
G24  21112601.920   110947412.258          50.000    21112604.280    82850336.902          50.000  
G28  23501321.900   123500394.910          50.000                                                  
E30  22331172.720   117351087.648          50.000    22331176.720    87632295.504          50.000  
E36  25469996.180   133845690.145          50.000    25470001.840    99949688.160          50.000  
> 2020  5 28 19 13 28.0000000  0  9       0.000000000000
G 2  21880468.360   114982642.324          50.000                                                  
G 6  20915227.600   109910209.434          50.000    20915230.340    82075805.078          50.000  
G12  22698019.180   119278882.906          50.000                                                  
G17  22534285.440   118418420.211          50.000                                                  
G19  20737566.640   108976642.867          50.000                                                  
G24  21112484.520   110946795.359          50.000    21112486.880    82849876.234          50.000  
G28  23501703.640   123502401.035          50.000                                                  
E30  22331019.800   117350284.055          50.000    22331023.800    87631695.414          50.000  
E36  25470417.380   133847903.488          50.000    25470423.040    99951340.984          50.000  
> 2020  5 28 19 13 29.0000000  0  9       0.000000000000
G 2  21880001.740   114980190.145          50.000                                                  
G 6  20915016.320   109909099.133          50.000    20915019.060    82074975.961          50.000  
G12  22697522.480   119276272.785          50.000                                                  
G17  22534752.760   118420875.953          50.000                                                  
G19  20737901.720   108978403.707          50.000                                                  
G24  21112367.260   110946179.055          50.000    21112369.600    82849416.008          50.000  
G28  23502085.440   123504407.316          50.000                                                  
E30  22330866.940   117349480.691          50.000    22330870.920    87631095.500          50.000  
E36  25470838.600   133850117.086          50.000    25470844.260    99952993.992          50.000  
> 2020  5 28 19 13 30.0000000  0  9       0.000000000000
G 2  21879535.180   114977738.383          50.000                                                  
G 6  20914805.160   109907989.496          50.000    20914807.900    82074147.332          50.000  
G12  22697025.820   119273662.766          50.000                                                  
G17  22535220.080   118423331.793          50.000                                                  
G19  20738236.860   108980164.910          50.000                                                  
G24  21112250.100   110945563.391          50.000    21112252.440    82848956.254          50.000  
G28  23502467.240   123506413.738          50.000                                                  
E30  22330714.100   117348677.543          50.000    22330718.100    87630495.750          50.000  
E36  25471259.900   133852330.957          50.000    25471265.560    99954647.207          50.000  
> 2020  5 28 19 13 31.0000000  0  9       0.000000000000
G 2  21879068.700   114975287.047          50.000                                                  
G 6  20914594.120   109906880.484          50.000    20914596.860    82073319.176          50.000  
G12  22696529.160   119271052.836          50.000                                                  
G17  22535687.440   118425787.715          50.000                                                  
G19  20738572.080   108981926.473          50.000                                                  
G24  21112133.060   110944948.355          50.000    21112135.400    82848496.977          50.000  
G28  23502849.080   123508420.340          50.000                                                  
E30  22330561.300   117347874.617          50.000    22330565.300    87629896.160          50.000  
E36  25471681.220   133854545.070          50.000    25471686.880    99956300.602          50.000  
> 2020  5 28 19 13 32.0000000  0  9       0.000000000000
G 2  21878602.300   114972836.137          50.000                                                  
G 6  20914383.200   109905772.141          50.000    20914385.960    82072491.516          50.000  
G12  22696032.520   119268442.988          50.000                                                  
G17  22536154.800   118428243.730          50.000                                                  
G19  20738907.360   108983688.371          50.000                                                  
G24  21112016.140   110944333.977          50.000    21112018.500    82848038.188          50.000  
G28  23503230.960   123510427.094          50.000                                                  
E30  22330408.560   117347071.914          50.000    22330412.560    87629296.738          50.000  
E36  25472102.600   133856759.453          50.000    25472108.260    99957954.199          50.000  
> 2020  5 28 19 13 33.0000000  0  9       0.000000000000
G 2  21878136.000   114970385.645          50.000                                                  
G 6  20914172.420   109904664.430          50.000    20914175.160    82071664.332          50.000  
G12  22695535.900   119265833.223          50.000                                                  
G17  22536622.180   118430699.828          50.000                                                  
G19  20739242.700   108985450.621          50.000                                                  
G24  21111899.340   110943720.215          50.000    21111901.700    82847579.859          50.000  
G28  23503612.860   123512434.000          50.000                                                  
E30  22330255.860   117346269.426          50.000    22330259.840    87628697.480          50.000  
E36  25472524.040   133858974.098          50.000    25472529.700    99959607.992          50.000  
> 2020  5 28 19 13 34.0000000  0  9       0.000000000000
G 2  21877669.760   114967935.590          50.000                                                  
G 6  20913961.760   109903557.367          50.000    20913964.500    82070837.629          50.000  
G12  22695039.300   119263223.555          50.000                                                  
G17  22537089.580   118433156.027          50.000                                                  
G19  20739578.120   108987213.223          50.000                                                  
G24  21111782.680   110943107.078          50.000    21111785.020    82847121.996          50.000  
G28  23503994.800   123514441.078          50.000                                                  
E30  22330103.180   117345467.164          50.000    22330107.180    87628098.387          50.000  
E36  25472945.520   133861189.000          50.000    25472951.180    99961261.977          50.000  
> 2020  5 28 19 13 35.0000000  0  9       0.000000000000
G 2  21877203.600   114965485.941          50.000                                                  
G 6  20913751.200   109902450.953          50.000    20913753.940    82070011.410          50.000  
G12  22694542.700   119260613.953          50.000                                                  
G17  22537557.000   118435612.309          50.000                                                  
G19  20739913.600   108988976.156          50.000                                                  
G24  21111666.120   110942494.566          50.000    21111668.460    82846664.602          50.000  
G28  23504376.760   123516448.289          50.000                                                  
E30  22329950.560   117344665.113          50.000    22329954.560    87627499.453          50.000  
E36  25473367.060   133863404.164          50.000    25473372.720    99962916.156          50.000  
> 2020  5 28 19 13 36.0000000  0  9       0.000000000000
G 2  21876737.540   114963036.723          50.000                                                  
G 6  20913540.780   109901345.184          50.000    20913543.520    82069185.676          50.000  
G12  22694046.140   119258004.453          50.000                                                  
G17  22538024.420   118438068.680          50.000                                                  
G19  20740249.140   108990739.453          50.000                                                  
G24  21111549.680   110941882.691          50.000    21111552.020    82846207.684          50.000  
G28  23504758.760   123518455.695          50.000                                                  
E30  22329797.980   117343863.285          50.000    22329801.980    87626900.688          50.000  
E36  25473788.640   133865619.582          50.000    25473794.300    99964570.527          50.000  
> 2020  5 28 19 13 37.0000000  0  9       0.000000000000
G 2  21876271.540   114960587.918          50.000                                                  
G 6  20913330.480   109900240.066          50.000    20913333.240    82068360.426          50.000  
G12  22693549.580   119255395.035          50.000                                                  
G17  22538491.880   118440525.141          50.000                                                  
G19  20740584.740   108992503.086          50.000                                                  
G24  21111433.360   110941271.449          50.000    21111435.720    82845751.234          50.000  
G28  23505140.780   123520463.238          50.000                                                  
E30  22329645.440   117343061.684          50.000    22329649.440    87626302.086          50.000  
E36  25474210.260   133867835.266          50.000    25474215.920    99966225.094          50.000  
> 2020  5 28 19 13 38.0000000  0  9       0.000000000000
G 2  21875805.640   114958139.535          50.000                                                  
G 6  20913120.320   109899135.590          50.000    20913123.060    82067535.656          50.000  
G12  22693053.040   119252785.691          50.000                                                  
G17  22538959.340   118442981.684          50.000                                                  
G19  20740920.420   108994267.070          50.000                                                  
G24  21111317.160   110940660.824          50.000    21111319.520    82845295.250          50.000  
G28  23505522.840   123522470.922          50.000                                                  
E30  22329492.940   117342260.301          50.000    22329496.940    87625703.652          50.000  
E36  25474631.940   133870051.211          50.000    25474637.620    99967879.855          50.000  
> 2020  5 28 19 13 39.0000000  0 12       0.000000000000
G 2  21875339.800   114955691.586          50.000                                                  
G 6  20912910.260   109898031.773          50.000    20912913.000    82066711.375          50.000  
G12  22692556.500   119250176.438          50.000                                                  
G17  22539426.820   118445438.320          50.000                                                  
G19  20741256.160   108996031.410          50.000                                                  
G24  21111201.100   110940050.859          50.000    21111203.440    82844839.754          50.000  
G28  23505904.920   123524478.773          50.000                                                  
E 2  24619327.420   129375428.949          50.000    24619331.140    96611511.820          50.000  
E15  25272980.680   132810356.891          50.000    25272987.360    99176546.840          50.000  
E27  26632110.960   139952641.285          50.000    26632116.820   104510071.004          50.000  
E30  22329340.480   117341459.129          50.000    22329344.480    87625105.375          50.000  
E36  25475053.680   133872267.414          50.000    25475059.340    99969534.813          50.000  
> 2020  5 28 19 13 40.0000000  0 12       0.000000000000
G 2  21874874.060   114953244.047          50.000                                                  
G 6  20912700.340   109896928.598          50.000    20912703.080    82065887.578          50.000  
G12  22692060.000   119247567.266          50.000                                                  
G17  22539894.320   118447895.035          50.000                                                  
G19  20741591.980   108997796.094          50.000                                                  
G24  21111085.140   110939441.492          50.000    21111087.480    82844384.711          50.000  
G28  23506287.020   123526486.781          50.000                                                  
E 2  24619599.640   129376859.426          50.000    24619603.360    96612580.035          50.000  
E15  25272469.580   132807671.066          50.000    25272476.260    99174541.195          50.000  
E27  26631658.040   139950261.168          50.000    26631663.900   104508293.641          50.000  
E30  22329188.060   117340658.184          50.000    22329192.060    87624507.270          50.000  
E36  25475475.460   133874483.879          50.000    25475481.120    99971189.965          50.000  
> 2020  5 28 19 13 41.0000000  0 12       0.000000000000
G 2  21874408.380   114950796.926          50.000                                                  
G 6  20912490.540   109895826.066          50.000    20912493.280    82065064.258          50.000  
G12  22691563.500   119244958.188          50.000                                                  
G17  22540361.840   118450351.852          50.000                                                  
G19  20741927.840   108999561.117          50.000                                                  
G24  21110969.300   110938832.797          50.000    21110971.660    82843930.164          50.000  
G28  23506669.160   123528494.953          50.000                                                  
E 2  24619871.900   129378290.141          50.000    24619875.620    96613648.426          50.000  
E15  25271958.540   132804985.484          50.000    25271965.220    99172535.727          50.000  
E27  26631205.100   139947881.031          50.000    26631210.980   104506516.270          50.000  
E30  22329035.700   117339857.457          50.000    22329039.680    87623909.320          50.000  
E36  25475897.280   133876700.594          50.000    25475902.940    99972845.301          50.000  
> 2020  5 28 19 13 42.0000000  0 12       0.000000000000
G 2  21873942.780   114948350.234          50.000                                                  
G 6  20912280.840   109894724.188          50.000    20912283.600    82064241.430          50.000  
G12  22691067.040   119242349.184          50.000                                                  
G17  22540829.380   118452808.738          50.000                                                  
G19  20742263.780   109001326.496          50.000                                                  
G24  21110853.580   110938224.688          50.000    21110855.940    82843476.059          50.000  
G28  23507051.340   123530503.281          50.000                                                  
E 2  24620144.200   129379721.109          50.000    24620147.920    96614717.008          50.000  
E15  25271447.540   132802300.141          50.000    25271454.200    99170530.441          50.000  
E27  26630752.180   139945500.898          50.000    26630758.040   104504738.902          50.000  
E30  22328883.360   117339056.957          50.000    22328887.360    87623311.547          50.000  
E36  25476319.160   133878917.578          50.000    25476324.820    99974500.840          50.000  
> 2020  5 28 19 13 43.0000000  0 12       0.000000000000
G 2  21873477.280   114945903.965          50.000                                                  
G 6  20912071.300   109893622.965          50.000    20912074.040    82063419.086          50.000  
G12  22690570.560   119239740.262          50.000                                                  
G17  22541296.920   118455265.723          50.000                                                  
G19  20742599.800   109003092.242          50.000                                                  
G24  21110737.980   110937617.234          50.000    21110740.340    82843022.441          50.000  
G28  23507433.540   123532511.785          50.000                                                  
E 2  24620416.540   129381152.324          50.000    24620420.280    96615785.770          50.000  
E15  25270936.580   132799615.035          50.000    25270943.240    99168525.332          50.000  
E27  26630299.260   139943120.754          50.000    26630305.120   104502961.520          50.000  
E30  22328731.080   117338256.668          50.000    22328735.060    87622713.926          50.000  
E36  25476741.080   133881134.813          50.000    25476746.760    99976156.570          50.000  
> 2020  5 28 19 13 44.0000000  0 12       0.000000000000
G 2  21873011.840   114943458.125          50.000                                                  
G 6  20911861.860   109892522.371          50.000    20911864.600    82062597.215          50.000  
G12  22690074.120   119237131.430          50.000                                                  
G17  22541764.480   118457722.797          50.000                                                  
G19  20742935.880   109004858.316          50.000                                                  
G24  21110622.500   110937010.352          50.000    21110624.860    82842569.246          50.000  
G28  23507815.780   123534520.445          50.000                                                  
E 2  24620688.940   129382583.785          50.000    24620692.660    96616854.715          50.000  
E15  25270425.660   132796930.164          50.000    25270432.340    99166520.395          50.000  
E27  26629846.320   139940740.605          50.000    26629852.200   104501184.141          50.000  
E30  22328578.820   117337456.598          50.000    22328582.820    87622116.473          50.000  
E36  25477163.060   133883352.313          50.000    25477168.740    99977812.496          50.000  
> 2020  5 28 19 13 45.0000000  0 12       0.000000000000
G 2  21872546.500   114941012.699          50.000                                                  
G 6  20911652.540   109891422.434          50.000    20911655.280    82061775.836          50.000  
G12  22689577.700   119234522.684          50.000                                                  
G17  22542232.060   118460179.949          50.000                                                  
G19  20743272.000   109006624.734          50.000                                                  
G24  21110507.140   110936404.129          50.000    21110509.500    82842116.547          50.000  
G28  23508198.040   123536529.246          50.000                                                  
E 2  24620961.400   129384015.496          50.000    24620965.120    96617923.852          50.000  
E15  25269914.780   132794245.535          50.000    25269921.460    99164515.641          50.000  
E27  26629393.400   139938360.457          50.000    26629399.260   104499406.754          50.000  
E30  22328426.620   117336656.758          50.000    22328430.620    87621519.191          50.000  
E36  25477585.100   133885570.078          50.000    25477590.760    99979468.613          50.000  
> 2020  5 28 19 13 46.0000000  0 12       0.000000000000
G 2  21872081.220   114938567.691          50.000                                                  
G 6  20911443.360   109890323.133          50.000    20911446.100    82060954.926          50.000  
G12  22689081.280   119231914.031          50.000                                                  
G17  22542699.660   118462637.191          50.000                                                  
G19  20743608.220   109008391.523          50.000                                                  
G24  21110391.880   110935798.469          50.000    21110394.240    82841664.273          50.000  
G28  23508580.340   123538538.199          50.000                                                  
E 2  24621233.880   129385447.438          50.000    24621237.600    96618993.156          50.000  
E15  25269403.960   132791561.137          50.000    25269410.640    99162511.059          50.000  
E27  26628940.460   139935980.293          50.000    26628946.340   104497629.359          50.000  
E30  22328274.460   117335857.137          50.000    22328278.460    87620922.070          50.000  
E36  25478007.160   133887788.094          50.000    25478012.840    99981124.926          50.000  
> 2020  5 28 19 13 47.0000000  0 12       0.000000000000
G 2  21871616.040   114936123.109          50.000                                                  
G 6  20911234.300   109889224.492          50.000    20911237.040    82060134.516          50.000  
G12  22688584.880   119229305.457          50.000                                                  
G17  22543167.280   118465094.520          50.000                                                  
G19  20743944.480   109010158.637          50.000                                                  
G24  21110276.760   110935193.504          50.000    21110279.120    82841212.512          50.000  
G28  23508962.660   123540547.316          50.000                                                  
E 2  24621506.420   129386879.641          50.000    24621510.140    96620062.660          50.000  
E15  25268893.180   132788876.992          50.000    25268899.860    99160506.664          50.000  
E27  26628487.540   139933600.129          50.000    26628493.400   104495851.969          50.000  
E30  22328122.340   117335057.738          50.000    22328126.340    87620325.117          50.000  
E36  25478429.300   133890006.375          50.000    25478434.960    99982781.434          50.000  
> 2020  5 28 19 13 48.0000000  0 12       0.000000000000
G 2  21871150.920   114933678.945          50.000                                                  
G 6  20911025.340   109888126.500          50.000    20911028.100    82059314.590          50.000  
G12  22688088.500   119226696.965          50.000                                                  
G17  22543634.920   118467551.941          50.000                                                  
G19  20744280.820   109011926.098          50.000                                                  
G24  21110161.760   110934589.156          50.000    21110164.120    82840761.211          50.000  
G28  23509345.020   123542556.605          50.000                                                  
E 2  24621779.020   129388312.098          50.000    24621782.740    96621132.352          50.000  
E15  25268382.460   132786193.070          50.000    25268389.120    99158502.441          50.000  
E27  26628034.600   139931219.957          50.000    26628040.460   104494074.570          50.000  
E30  22327970.260   117334258.563          50.000    22327974.260    87619728.332          50.000  
E36  25478851.460   133892224.910          50.000    25478857.140    99984438.129          50.000  
> 2020  5 28 19 13 49.0000000  0 12       0.000000000000
G 2  21870685.900   114931235.207          50.000                                                  
G 6  20910816.540   109887029.152          50.000    20910819.280    82058495.141          50.000  
G12  22687592.140   119224088.563          50.000                                                  
G17  22544102.560   118470009.445          50.000                                                  
G19  20744617.240   109013693.914          50.000                                                  
G24  21110046.880   110933985.438          50.000    21110049.220    82840310.383          50.000  
G28  23509727.400   123544566.047          50.000                                                  
E 2  24622051.640   129389744.781          50.000    24622055.360    96622202.211          50.000  
E15  25267871.760   132783509.406          50.000    25267878.440    99156498.406          50.000  
E27  26627581.660   139928839.781          50.000    26627587.540   104492297.164          50.000  
E30  22327818.220   117333459.582          50.000    22327822.220    87619131.688          50.000  
E36  25479273.700   133894443.707          50.000    25479279.360    99986095.023          50.000  
> 2020  5 28 19 13 50.0000000  0 12       0.000000000000
G 2  21870220.960   114928791.895          50.000                                                  
G 6  20910607.840   109885932.453          50.000    20910610.580    82057676.176          50.000  
G12  22687095.800   119221480.254          50.000                                                  
G17  22544570.220   118472467.047          50.000                                                  
G19  20744953.700   109015462.082          50.000                                                  
G24  21109932.120   110933382.359          50.000    21109934.460    82839860.031          50.000  
G28  23510109.820   123546575.641          50.000                                                  
E 2  24622324.320   129391177.730          50.000    24622328.040    96623272.270          50.000  
E15  25267361.120   132780825.973          50.000    25267367.800    99154494.547          50.000  
E27  26627128.740   139926459.598          50.000    26627134.600   104490519.754          50.000  
E30  22327666.220   117332660.844          50.000    22327670.220    87618535.230          50.000  
E36  25479695.960   133896662.766          50.000    25479701.640    99987752.113          50.000  
> 2020  5 28 19 13 51.0000000  0 12       0.000000000000
G 2  21869756.080   114926349.000          50.000                                                  
G 6  20910399.260   109884836.402          50.000    20910402.000    82056857.699          50.000  
G12  22686599.460   119218872.016          50.000                                                  
G17  22545037.920   118474924.742          50.000                                                  
G19  20745290.240   109017230.602          50.000                                                  
G24  21109817.460   110932779.871          50.000    21109819.820    82839410.125          50.000  
G28  23510492.260   123548585.398          50.000                                                  
E 2  24622597.040   129392610.914          50.000    24622600.780    96624342.504          50.000  
E15  25266850.540   132778142.781          50.000    25266857.200    99152490.863          50.000  
E27  26626675.800   139924079.410          50.000    26626681.660   104488742.348          50.000  
E30  22327514.260   117331862.332          50.000    22327518.260    87617938.938          50.000  
E36  25480118.280   133898882.078          50.000    25480123.960    99989409.391          50.000  
> 2020  5 28 19 13 52.0000000  0 12       0.000000000000
G 2  21869291.300   114923906.527          50.000                                                  
G 6  20910190.820   109883741.004          50.000    20910193.560    82056039.707          50.000  
G12  22686103.160   119216263.863          50.000                                                  
G17  22545505.620   118477382.512          50.000                                                  
G19  20745626.840   109018999.457          50.000                                                  
G24  21109702.940   110932178.031          50.000    21109705.300    82838960.695          50.000  
G28  23510874.740   123550595.316          50.000                                                  
E 2  24622869.820   129394044.352          50.000    24622873.540    96625412.930          50.000  
E15  25266339.980   132775459.828          50.000    25266346.660    99150487.359          50.000  
E27  26626222.860   139921699.211          50.000    26626228.720   104486964.926          50.000  
E30  22327362.360   117331064.027          50.000    22327366.360    87617342.805          50.000  
E36  25480540.660   133901101.652          50.000    25480546.320    99991066.863          50.000  
> 2020  5 28 19 13 53.0000000  0 12       0.000000000000
G 2  21868826.600   114921464.492          50.000                                                  
G 6  20909982.480   109882646.242          50.000    20909985.220    82055222.191          50.000  
G12  22685606.860   119213655.801          50.000                                                  
G17  22545973.320   118479840.371          50.000                                                  
G19  20745963.520   109020768.656          50.000                                                  
G24  21109588.540   110931576.836          50.000    21109590.880    82838511.754          50.000  
G28  23511257.240   123552605.395          50.000                                                  
E 2  24623142.640   129395478.035          50.000    24623146.360    96626483.535          50.000  
E15  25265829.480   132772777.117          50.000    25265836.160    99148484.039          50.000  
E27  26625769.920   139919319.012          50.000    26625775.780   104485187.508          50.000  
E30  22327210.480   117330265.953          50.000    22327214.480    87616746.836          50.000  
E36  25480963.080   133903321.484          50.000    25480968.740    99992724.531          50.000  
> 2020  5 28 19 13 54.0000000  0 12       0.000000000000
G 2  21868361.960   114919022.863          50.000                                                  
G 6  20909774.280   109881552.145          50.000    20909777.020    82054405.172          50.000  
G12  22685110.560   119211047.816          50.000                                                  
G17  22546441.060   118482298.309          50.000                                                  
G19  20746300.240   109022538.203          50.000                                                  
G24  21109474.260   110930976.258          50.000    21109476.600    82838063.270          50.000  
G28  23511639.780   123554615.629          50.000                                                  
E 2  24623415.520   129396911.965          50.000    24623419.240    96627554.328          50.000  
E15  25265319.020   132770094.648          50.000    25265325.700    99146480.898          50.000  
E27  26625316.980   139916938.820          50.000    26625322.860   104483410.090          50.000  
E30  22327058.660   117329468.098          50.000    22327062.660    87616151.035          50.000  
E36  25481385.540   133905541.574          50.000    25481391.220    99994382.391          50.000  
> 2020  5 28 19 13 55.0000000  0 12       0.000000000000
G 2  21867897.420   114916581.672          50.000                                                  
G 6  20909566.220   109880458.688          50.000    20909568.960    82053588.629          50.000  
G12  22684614.300   119208439.922          50.000                                                  
G17  22546908.800   118484756.332          50.000                                                  
G19  20746637.040   109024308.090          50.000                                                  
G24  21109360.080   110930376.324          50.000    21109362.440    82837615.270          50.000  
G28  23512022.340   123556626.012          50.000                                                  
E 2  24623688.420   129398346.145          50.000    24623692.160    96628625.305          50.000  
E15  25264808.600   132767412.422          50.000    25264815.280    99144477.938          50.000  
E27  26624864.040   139914558.613          50.000    26624869.920   104481632.664          50.000  
E30  22326906.880   117328670.465          50.000    22326910.880    87615555.398          50.000  
E36  25481808.060   133907761.930          50.000    25481813.740    99996040.445          50.000  
> 2020  5 28 19 13 56.0000000  0 12       0.000000000000
G 2  21867432.960   114914140.902          50.000                                                  
G 6  20909358.260   109879365.871          50.000    20909361.000    82052772.566          50.000  
G12  22684118.060   119205832.121          50.000                                                  
G17  22547376.560   118487214.445          50.000                                                  
G19  20746973.900   109026078.332          50.000                                                  
G24  21109246.040   110929777.023          50.000    21109248.400    82837167.738          50.000  
G28  23512404.940   123558636.551          50.000                                                  
E 2  24623961.380   129399780.555          50.000    24623965.120    96629696.453          50.000  
E15  25264298.240   132764730.422          50.000    25264304.920    99142475.148          50.000  
E27  26624411.100   139912178.395          50.000    26624416.960   104479855.230          50.000  
E30  22326755.140   117327873.051          50.000    22326759.120    87614959.930          50.000  
E36  25482230.640   133909982.539          50.000    25482236.300    99997698.691          50.000  
> 2020  5 28 19 13 57.0000000  0 12       0.000000000000
G 2  21866968.580   114911700.547          50.000                                                  
G 6  20909150.420   109878273.703          50.000    20909153.160    82051956.977          50.000  
G12  22683621.820   119203224.391          50.000                                                  
G17  22547844.360   118489672.645          50.000                                                  
G19  20747310.840   109027848.934          50.000                                                  
G24  21109132.120   110929178.391          50.000    21109134.480    82836720.703          50.000  
G28  23512787.560   123560647.266          50.000                                                  
E 2  24624234.400   129401215.234          50.000    24624238.120    96630767.805          50.000  
E15  25263787.920   132762048.676          50.000    25263794.600    99140472.547          50.000  
E27  26623958.160   139909798.172          50.000    26623964.020   104478077.793          50.000  
E30  22326603.440   117327075.863          50.000    22326607.420    87614364.625          50.000  
E36  25482653.260   133912203.410          50.000    25482658.920    99999357.133          50.000  
> 2020  5 28 19 13 58.0000000  0 12       0.000000000000
G 2  21866504.260   114909260.625          50.000                                                  
G 6  20908942.720   109877182.191          50.000    20908945.460    82051141.891          50.000  
G12  22683125.600   119200616.754          50.000                                                  
G17  22548312.140   118492130.934          50.000                                                  
G19  20747647.840   109029619.859          50.000                                                  
G24  21109018.320   110928580.340          50.000    21109020.680    82836274.113          50.000  
G28  23513170.220   123562658.121          50.000                                                  
E 2  24624507.460   129402650.148          50.000    24624511.180    96631839.328          50.000  
E15  25263277.640   132759367.176          50.000    25263284.320    99138470.129          50.000  
E27  26623505.220   139907417.945          50.000    26623511.080   104476300.352          50.000  
E30  22326451.780   117326278.891          50.000    22326455.760    87613769.484          50.000  
E36  25483075.920   133914424.539          50.000    25483081.600   100001015.766          50.000  
> 2020  5 28 19 13 59.0000000  0 12       0.000000000000
G 2  21866040.040   114906821.109          50.000                                                  
G 6  20908735.140   109876091.313          50.000    20908737.820    82050327.477          50.000  
G12  22682629.360   119198009.438          50.000                                                  
G17  22548779.960   118494589.289          50.000                                                  
G19  20747984.880   109031391.227          50.000                                                  
G24  21108904.680   110927982.816          50.000    21108907.000    82835828.023          50.000  
G28  23513552.900   123564669.145          50.000                                                  
E 2  24624780.560   129404085.320          50.000    24624784.280    96632911.051          50.000  
E15  25262767.420   132756685.855          50.000    25262774.100    99136467.816          50.000  
E27  26623052.260   139905037.781          50.000    26623058.120   104474522.996          50.000  
E30  22326300.160   117325482.117          50.000    22326304.160    87613174.480          50.000  
E36  25483498.640   133916645.949          50.000    25483504.300   100002674.625          50.000  
> 2020  5 28 19 14  0.0000000  0 12       0.000000000000
G 2  21865575.900   114904382.027          50.000                                                  
G 6  20908527.660   109875001.094          50.000    20908530.360    82049513.348          50.000  
G12  22682133.180   119195401.969          50.000                                                  
G17  22549247.800   118497047.742          50.000                                                  
G19  20748322.020   109033162.836          50.000                                                  
G24  21108791.120   110927386.020          50.000    21108793.440    82835382.363          50.000  
G28  23513935.620   123566680.313          50.000                                                  
E 2  24625053.700   129405520.738          50.000    24625059.920    96633982.953          50.000  
E15  25262257.240   132754004.832          50.000    25262266.400    99134465.754          50.000  
E27  26622599.320   139902657.551          50.000    26622607.660   104472745.555          50.000  
E30  22326148.580   117324685.590          50.000    22326155.080    87612579.672          50.000  
E36  25483921.400   133918867.602          50.000    25483929.560   100004333.648          50.000  
> 2020  5 28 19 14  1.0000000  0 12       0.000000000000
G 2  21865111.840   114901943.352          50.000                                                  
G 6  20908320.340   109873911.516          50.000    20908323.020    82048699.703          50.000  
G12  22681637.000   119192794.590          50.000                                                  
G17  22549715.640   118499506.285          50.000                                                  
G19  20748659.220   109034934.813          50.000                                                  
G24  21108677.660   110926789.855          50.000    21108679.980    82834937.176          50.000  
G28  23514318.380   123568691.652          50.000                                                  
E 2  24625326.900   129406956.414          50.000    24625330.620    96635055.047          50.000  
E15  25261747.100   132751324.043          50.000    25261753.780    99132463.871          50.000  
E27  26622146.380   139900277.309          50.000    26622152.220   104470968.102          50.000  
E30  22325997.040   117323889.281          50.000    22326001.040    87611985.027          50.000  
E36  25484344.220   133921089.504          50.000    25484349.880   100005992.859          50.000  
> 2020  5 28 19 14  2.0000000  0 12       0.000000000000
G 2  21864647.860   114899505.117          50.000                                                  
G 6  20908113.120   109872822.590          50.000    20908115.800    82047886.547          50.000  
G12  22681140.860   119190187.293          50.000                                                  
G17  22550183.500   118501964.914          50.000                                                  
G19  20748996.480   109036707.113          50.000                                                  
G24  21108564.340   110926194.316          50.000    21108566.660    82834492.457          50.000  
G28  23514701.140   123570703.137          50.000                                                  
E 2  24625600.140   129408392.328          50.000    24625606.360    96636127.320          50.000  
E15  25261237.000   132748643.500          50.000    25261246.180    99130462.168          50.000  
E27  26621693.420   139897897.070          50.000    26621701.760   104469190.652          50.000  
E30  22325845.560   117323093.199          50.000    22325852.040    87611390.551          50.000  
E36  25484767.080   133923311.672          50.000    25484775.240   100007652.270          50.000  
> 2020  5 28 19 14  3.0000000  0 12       0.000000000000
G 2  21864183.960   114897067.309          50.000                                                  
G 6  20907906.020   109871734.313          50.000    20907908.720    82047073.867          50.000  
G12  22680644.720   119187580.098          50.000                                                  
G17  22550651.380   118504423.645          50.000                                                  
G19  20749333.800   109038479.785          50.000                                                  
G24  21108451.120   110925599.363          50.000    21108453.440    82834048.168          50.000  
G28  23515083.960   123572714.824          50.000                                                  
E 2  24625873.440   129409828.480          50.000    24625877.160    96637199.770          50.000  
E15  25260726.960   132745963.195          50.000    25260733.640    99128460.641          50.000  
E27  26621240.480   139895516.813          50.000    26621246.320   104467413.188          50.000  
E30  22325694.100   117322297.336          50.000    22325698.100    87610796.234          50.000  
E36  25485189.980   133925534.094          50.000    25485195.660   100009311.871          50.000  
> 2020  5 28 19 14  4.0000000  0 12       0.000000000000
G 2  21863720.140   114894629.922          50.000                                                  
G 6  20907699.060   109870646.691          50.000    20907701.740    82046261.680          50.000  
G12  22680148.600   119184972.984          50.000                                                  
G17  22551119.280   118506882.449          50.000                                                  
G19  20749671.200   109040252.793          50.000                                                  
G24  21108338.040   110925005.047          50.000    21108340.360    82833604.355          50.000  
G28  23515466.800   123574726.645          50.000                                                  
E 2  24626146.780   129411264.891          50.000    24626150.500    96638272.414          50.000  
E15  25260216.960   132743283.141          50.000    25260223.640    99126459.301          50.000  
E27  26620787.520   139893136.566          50.000    26620793.380   104465635.734          50.000  
E30  22325542.700   117321501.695          50.000    22325546.700    87610202.090          50.000  
E36  25485612.940   133927756.777          50.000    25485618.620   100010971.664          50.000  
> 2020  5 28 19 14  5.0000000  0 12       0.000000000000
G 2  21863256.400   114892192.965          50.000                                                  
G 6  20907492.220   109869559.723          50.000    20907494.900    82045449.977          50.000  
G12  22679652.500   119182365.949          50.000                                                  
G17  22551587.200   118509341.348          50.000                                                  
G19  20750008.660   109042026.137          50.000                                                  
G24  21108225.060   110924411.391          50.000    21108227.380    82833161.039          50.000  
G28  23515849.660   123576738.609          50.000                                                  
E 2  24626420.160   129412701.531          50.000    24626423.880    96639345.230          50.000  
E15  25259707.000   132740603.293          50.000    25259713.680    99124458.125          50.000  
E27  26620334.580   139890756.297          50.000    26620340.420   104463858.266          50.000  
E30  22325391.340   117320706.266          50.000    22325395.340    87609608.102          50.000  
E36  25486035.960   133929979.707          50.000    25486041.620   100012631.648          50.000  
> 2020  5 28 19 14  6.0000000  0 12       0.000000000000
G 2  21862792.740   114889756.434          50.000                                                  
G 6  20907285.500   109868473.395          50.000    20907288.180    82044638.758          50.000  
G12  22679156.420   119179759.004          50.000                                                  
G17  22552055.120   118511800.328          50.000                                                  
G19  20750346.180   109043799.828          50.000                                                  
G24  21108112.220   110923818.375          50.000    21108114.540    82832718.199          50.000  
G28  23516232.560   123578750.730          50.000                                                  
E 2  24626693.600   129414138.422          50.000    24626699.800    96640418.242          50.000  
E15  25259197.100   132737923.707          50.000    25259206.260    99122457.141          50.000  
E27  26619881.620   139888376.031          50.000    26619889.960   104462080.797          50.000  
E30  22325240.020   117319911.063          50.000    22325246.500    87609014.289          50.000  
E36  25486459.020   133932202.902          50.000    25486467.180   100014291.828          50.000  
> 2020  5 28 19 14  7.0000000  0 12       0.000000000000
G 2  21862329.160   114887320.316          50.000                                                  
G 6  20907078.900   109867387.715          50.000    20907081.580    82043828.020          50.000  
G12  22678660.340   119177152.141          50.000                                                  
G17  22552523.080   118514259.387          50.000                                                  
G19  20750683.760   109045573.875          50.000                                                  
G24  21107999.500   110923226.012          50.000    21108001.820    82832275.844          50.000  
G28  23516615.480   123580763.047          50.000                                                  
E 2  24626967.060   129415575.551          50.000    24626970.800    96641491.426          50.000  
E15  25258687.240   132735244.379          50.000    25258693.900    99120456.348          50.000  
E27  26619428.680   139885995.766          50.000    26619434.520   104460303.332          50.000  
E30  22325088.740   117319116.086          50.000    22325092.720    87608420.641          50.000  
E36  25486882.120   133934426.352          50.000    25486887.800   100015952.199          50.000  
> 2020  5 28 19 14  8.0000000  0 12       0.000000000000
G 2  21861865.660   114884884.621          50.000                                                  
G 6  20906872.420   109866302.684          50.000    20906875.120    82043017.766          50.000  
G12  22678164.280   119174545.363          50.000                                                  
G17  22552991.040   118516718.539          50.000                                                  
G19  20751021.420   109047348.246          50.000                                                  
G24  21107886.880   110922634.270          50.000    21107889.220    82831833.953          50.000  
G28  23516998.440   123582775.484          50.000                                                  
E 2  24627240.600   129417012.934          50.000    24627244.320    96642564.797          50.000  
E15  25258177.420   132732565.273          50.000    25258184.080    99118455.723          50.000  
E27  26618975.720   139883615.484          50.000    26618981.560   104458525.855          50.000  
E30  22324937.500   117318321.324          50.000    22324941.480    87607827.156          50.000  
E36  25487305.280   133936650.059          50.000    25487310.940   100017612.766          50.000  
> 2020  5 28 19 14  9.0000000  0 12       0.000000000000
G 2  21861402.260   114882449.363          50.000                                                  
G 6  20906666.060   109865218.313          50.000    20906668.760    82042208.004          50.000  
G12  22677668.260   119171938.664          50.000                                                  
G17  22553459.020   118519177.781          50.000                                                  
G19  20751359.140   109049122.961          50.000                                                  
G24  21107774.400   110922043.145          50.000    21107776.720    82831392.527          50.000  
G28  23517381.440   123584788.086          50.000                                                  
E 2  24627514.180   129418450.590          50.000    24627517.900    96643638.371          50.000  
E15  25257667.640   132729886.402          50.000    25257674.320    99116455.270          50.000  
E27  26618522.760   139881235.191          50.000    26618528.600   104456748.367          50.000  
E30  22324786.300   117317526.789          50.000    22324790.300    87607233.832          50.000  
E36  25487728.500   133938874.035          50.000    25487734.160   100019273.527          50.000  
> 2020  5 28 19 14 10.0000000  0 12       0.000000000000
G 2  21860938.920   114880014.527          50.000                                                  
G 6  20906459.840   109864134.574          50.000    20906462.540    82041398.715          50.000  
G12  22677172.240   119169332.066          50.000                                                  
G17  22553927.000   118521637.102          50.000                                                  
G19  20751696.920   109050898.031          50.000                                                  
G24  21107662.040   110921452.652          50.000    21107664.360    82830951.570          50.000  
G28  23517764.460   123586800.863          50.000                                                  
E 2  24627787.800   129419888.461          50.000    24627791.520    96644712.109          50.000  
E15  25257157.920   132727207.734          50.000    25257164.580    99114454.961          50.000  
E27  26618069.800   139878854.898          50.000    26618075.660   104454970.879          50.000  
E30  22324635.140   117316732.473          50.000    22324639.140    87606640.676          50.000  
E36  25488151.760   133941098.262          50.000    25488157.420   100020934.473          50.000  
> 2020  5 28 19 14 11.0000000  0 12       0.000000000000
G 2  21860475.660   114877580.121          50.000                                                  
G 6  20906253.740   109863051.492          50.000    20906256.440    82040589.918          50.000  
G12  22676676.220   119166725.551          50.000                                                  
G17  22554395.020   118524096.516          50.000                                                  
G19  20752034.760   109052673.449          50.000                                                  
G24  21107549.780   110920862.785          50.000    21107552.120    82830511.082          50.000  
G28  23518147.500   123588813.781          50.000                                                  
E 2  24628061.460   129421326.590          50.000    24628065.180    96645786.031          50.000  
E15  25256648.220   132724529.348          50.000    25256654.900    99112454.863          50.000  
E27  26617616.860   139876474.605          50.000    26617622.700   104453193.387          50.000  
E30  22324484.040   117315938.379          50.000    22324488.020    87606047.680          50.000  
E36  25488575.060   133943322.742          50.000    25488580.720   100022595.609          50.000  
> 2020  5 28 19 14 12.0000000  0 12       0.000000000000
G 2  21860012.480   114875146.117          50.000                                                  
G 6  20906047.760   109861969.059          50.000    20906050.460    82039781.602          50.000  
G12  22676180.240   119164119.129          50.000                                                  
G17  22554863.040   118526556.008          50.000                                                  
G19  20752372.680   109054449.199          50.000                                                  
G24  21107437.660   110920273.547          50.000    21107439.980    82830071.063          50.000  
G28  23518530.580   123590826.875          50.000                                                  
E 2  24628335.160   129422764.949          50.000    24628338.900    96646860.133          50.000  
E15  25256138.600   132721851.207          50.000    25256145.260    99110454.957          50.000  
E27  26617163.900   139874094.316          50.000    26617169.740   104451415.898          50.000  
E30  22324332.960   117315144.504          50.000    22324336.960    87605454.852          50.000  
E36  25488998.400   133945547.469          50.000    25489004.080   100024256.930          50.000  
> 2020  5 28 19 14 13.0000000  0 12       0.000000000000
G 2  21859549.400   114872712.559          50.000                                                  
G 6  20905841.900   109860887.277          50.000    20905844.600    82038973.773          50.000  
G12  22675684.260   119161512.789          50.000                                                  
G17  22555331.080   118529015.598          50.000                                                  
G19  20752710.660   109056225.309          50.000                                                  
G24  21107325.640   110919684.938          50.000    21107327.980    82829631.512          50.000  
G28  23518913.680   123592840.117          50.000                                                  
E 2  24628608.940   129424203.578          50.000    24628612.660    96647934.430          50.000  
E15  25255629.000   132719173.313          50.000    25255635.680    99108455.230          50.000  
E27  26616710.940   139871713.996          50.000    26616716.780   104449638.391          50.000  
E30  22324181.940   117314350.867          50.000    22324185.940    87604862.199          50.000  
E36  25489421.820   133947772.477          50.000    25489427.480   100025918.461          50.000  
> 2020  5 28 19 14 14.0000000  0 12       0.000000000000
G 2  21859086.380   114870279.422          50.000                                                  
G 6  20905636.160   109859806.141          50.000    20905638.860    82038166.426          50.000  
G12  22675188.320   119158906.531          50.000                                                  
G17  22555799.140   118531475.270          50.000                                                  
G19  20753048.720   109058001.758          50.000                                                  
G24  21107213.760   110919096.957          50.000    21107216.100    82829192.434          50.000  
G28  23519296.820   123594853.512          50.000                                                  
E 2  24628882.740   129425642.445          50.000    24628888.960    96649008.910          50.000  
E15  25255119.460   132716495.648          50.000    25255128.620    99106455.680          50.000  
E27  26616257.980   139869333.691          50.000    26616266.320   104447860.887          50.000  
E30  22324030.960   117313557.438          50.000    22324037.440    87604269.703          50.000  
E36  25489845.260   133949997.734          50.000    25489853.420   100027580.180          50.000  
> 2020  5 28 19 14 15.0000000  0 12       0.000000000000
G 2  21858623.460   114867846.711          50.000                                                  
G 6  20905430.560   109858725.660          50.000    20905433.260    82037359.574          50.000  
G12  22674692.380   119156300.367          50.000                                                  
G17  22556267.220   118533935.023          50.000                                                  
G19  20753386.820   109059778.555          50.000                                                  
G24  21107101.980   110918509.598          50.000    21107104.320    82828753.816          50.000  
G28  23519680.000   123596867.066          50.000                                                  
E 2  24629156.600   129427081.555          50.000    24629160.320    96650083.570          50.000  
E15  25254609.960   132713818.230          50.000    25254616.640    99104456.313          50.000  
E27  26615805.020   139866953.387          50.000    26615810.860   104446083.391          50.000  
E30  22323880.020   117312764.223          50.000    22323884.000    87603677.371          50.000  
E36  25490268.760   133952223.246          50.000    25490274.440   100029242.086          50.000  
> 2020  5 28 19 14 16.0000000  0 12       0.000000000000
G 2  21858160.600   114865414.426          50.000                                                  
G 6  20905225.080   109857645.820          50.000    20905227.780    82036553.195          50.000  
G12  22674196.460   119153694.281          50.000                                                  
G17  22556735.320   118536394.863          50.000                                                  
G19  20753725.000   109061555.695          50.000                                                  
G24  21106990.340   110917922.875          50.000    21106992.680    82828315.676          50.000  
G28  23520063.180   123598880.777          50.000                                                  
E 2  24629430.500   129428520.918          50.000    24629436.700    96651158.418          50.000  
E15  25254100.520   132711141.051          50.000    25254109.680    99102457.117          50.000  
E27  26615352.060   139864573.066          50.000    26615360.400   104444305.883          50.000  
E30  22323729.120   117311971.238          50.000    22323735.600    87603085.207          50.000  
E36  25490692.320   133954449.020          50.000    25490700.480   100030904.188          50.000  
> 2020  5 28 19 14 17.0000000  0 12       0.000000000000
G 2  21857697.840   114862982.551          50.000                                                  
G 6  20905019.700   109856566.621          50.000    20905022.400    82035747.297          50.000  
G12  22673700.560   119151088.301          50.000                                                  
G17  22557203.420   118538854.797          50.000                                                  
G19  20754063.240   109063333.172          50.000                                                  
G24  21106878.800   110917336.750          50.000    21106881.140    82827877.980          50.000  
G28  23520446.420   123600894.656          50.000                                                  
E 2  24629704.440   129429960.539          50.000    24629708.160    96652233.457          50.000  
E15  25253591.120   132708464.113          50.000    25253597.780    99100458.105          50.000  
E27  26614899.100   139862192.734          50.000    26614904.940   104442528.359          50.000  
E30  22323578.260   117311178.473          50.000    22323582.240    87602493.207          50.000  
E36  25491115.920   133956675.043          50.000    25491121.580   100032566.480          50.000  
> 2020  5 28 19 14 18.0000000  0 12       0.000000000000
G 2  21857235.140   114860551.105          50.000                                                  
G 6  20904814.460   109855488.082          50.000    20904817.160    82034941.891          50.000  
G12  22673204.660   119148482.395          50.000                                                  
G17  22557671.560   118541314.809          50.000                                                  
G19  20754401.560   109065111.000          50.000                                                  
G24  21106767.380   110916751.277          50.000    21106769.720    82827440.773          50.000  
G28  23520829.680   123602908.691          50.000                                                  
E 2  24629978.440   129431400.398          50.000    24629982.160    96653308.676          50.000  
E15  25253081.760   132705787.414          50.000    25253088.420    99098459.273          50.000  
E27  26614446.140   139859812.406          50.000    26614451.980   104440750.844          50.000  
E30  22323427.440   117310385.930          50.000    22323431.440    87601901.375          50.000  
E36  25491539.560   133958901.332          50.000    25491545.240   100034228.965          50.000  
> 2020  5 28 19 14 19.0000000  0 12       0.000000000000
G 2  21856772.540   114858120.098          50.000                                                  
G 6  20904609.340   109854410.188          50.000    20904612.060    82034136.969          50.000  
G12  22672708.800   119145876.574          50.000                                                  
G17  22558139.700   118543774.910          50.000                                                  
G19  20754739.940   109066889.172          50.000                                                  
G24  21106656.100   110916166.449          50.000    21106658.440    82827004.047          50.000  
G28  23521212.960   123604922.883          50.000                                                  
E 2  24630252.480   129432840.500          50.000    24630256.200    96654384.078          50.000  
E15  25252572.440   132703110.949          50.000    25252579.100    99096460.617          50.000  
E27  26613993.180   139857432.074          50.000    26613999.020   104438973.324          50.000  
E30  22323276.660   117309593.602          50.000    22323280.660    87601309.699          50.000  
E36  25491963.260   133961127.875          50.000    25491968.940   100035891.641          50.000  
> 2020  5 28 19 14 20.0000000  0 12       0.000000000000
G 2  21856310.020   114855689.508          50.000                                                  
G 6  20904404.360   109853332.949          50.000    20904407.060    82033332.531          50.000  
G12  22672212.940   119143270.852          50.000                                                  
G17  22558607.860   118546235.094          50.000                                                  
G19  20755078.380   109068667.684          50.000                                                  
G24  21106544.920   110915582.230          50.000    21106547.260    82826567.773          50.000  
G28  23521596.280   123606937.230          50.000                                                  
E 2  24630526.580   129434280.844          50.000    24630530.300    96655459.656          50.000  
E15  25252063.160   132700434.727          50.000    25252069.840    99094462.141          50.000  
E27  26613540.200   139855051.734          50.000    26613546.040   104437195.801          50.000  
E30  22323125.940   117308801.496          50.000    22323129.920    87600718.191          50.000  
E36  25492387.020   133963354.672          50.000    25492392.680   100037554.508          50.000  
> 2020  5 28 19 14 21.0000000  0 12       0.000000000000
G 2  21855847.560   114853259.352          50.000                                                  
G 6  20904199.480   109852256.348          50.000    20904202.200    82032528.570          50.000  
G12  22671717.100   119140665.203          50.000                                                  
G17  22559076.020   118548695.359          50.000                                                  
G19  20755416.880   109070446.535          50.000                                                  
G24  21106433.880   110914998.664          50.000    21106436.220    82826131.992          50.000  
G28  23521979.640   123608951.742          50.000                                                  
E 2  24630800.720   129435721.441          50.000    24630804.440    96656535.430          50.000  
E15  25251553.940   132697758.754          50.000    25251560.620    99092463.852          50.000  
E27  26613087.240   139852671.387          50.000    26613093.080   104435418.270          50.000  
E30  22322975.240   117308009.621          50.000    22322979.240    87600126.859          50.000  
E36  25492810.800   133965581.730          50.000    25492816.480   100039217.570          50.000  
> 2020  5 28 19 14 22.0000000  0 12       0.000000000000
G 2  21855385.200   114850829.617          50.000                                                  
G 6  20903994.740   109851180.402          50.000    20903997.440    82031725.102          50.000  
G12  22671221.280   119138059.637          50.000                                                  
G17  22559544.220   118551155.715          50.000                                                  
G19  20755755.440   109072225.742          50.000                                                  
G24  21106322.960   110914415.734          50.000    21106325.300    82825696.684          50.000  
G28  23522363.020   123610966.406          50.000                                                  
E 2  24631074.900   129437162.289          50.000    24631078.620    96657611.387          50.000  
E15  25251044.780   132695083.023          50.000    25251051.440    99090465.742          50.000  
E27  26612634.280   139850291.039          50.000    26612640.120   104433640.738          50.000  
E30  22322824.600   117307217.969          50.000    22322828.600    87599535.691          50.000  
E36  25493234.660   133967809.043          50.000    25493240.320   100040880.824          50.000  
