     3.03           OBSERVATION DATA    M: Mixed            RINEX VERSION / TYPE
sbp2rinex v2.2 (RTKL                    20210504 171526 UTC PGM / RUN BY / DATE 
log: 2020-06-05-US-MTV-2.sbp                                COMMENT             
format: Swift Navigation SBP, option: CONVBASE,EPHALL,OBSALLCOMMENT             
                                                            MARKER NAME         
                                                            MARKER NUMBER       
                                                            MARKER TYPE         
                                                            OBSERVER / AGENCY   
                                                            REC # / TYPE / VERS 
                                                            ANT # / TYPE        
 -2744475.9526 -4320022.2477  3793289.6547                  APPROX POSITION XYZ 
        0.0000        0.0000        0.0000                  ANTENNA: DELTA H/E/N
G    6 C1C L1C S1C C5I L5I S5I                              SYS / # / OBS TYPES 
E    6 C1B L1B S1B C5I L5I S5I                              SYS / # / OBS TYPES 
  2020     6     5    20    18   25.0000000     GPS         TIME OF FIRST OBS   
  2020     6     5    20    48   23.0000000     GPS         TIME OF LAST OBS    
G                                                           SYS / PHASE SHIFT   
E                                                           SYS / PHASE SHIFT   
  0                                                         GLONASS SLOT / FRQ #
 C1C    0.000 C1P    0.000 C2C    0.000 C2P    0.000        GLONASS COD/PHS/BIS 
                                                            END OF HEADER       
> 2020  6  5 20 18 25.0000000  0 13       0.000000000000
G 2  20815434.880   109385868.320          50.000                                                  
G 5  23819664.640   125173069.215          50.000                                                  
G 6  21805197.520   114587033.250          50.000    21805200.220    85568238.543          50.000  
G12  20360670.060   106996050.375          50.000                                                  
G19  23429068.300   123120568.641          50.000                                                  
G24  22395990.320   117691654.945          50.000    22395993.380    87886619.379          50.000  
G25  21960274.100   115401953.711          50.000    21960276.720    86176781.223          50.000  
E11  22998569.320   120858317.805          50.000    22998569.460    90251334.434          50.000  
E12  22043934.460   115841680.566          50.000    22043935.300    86505146.176          50.000  
E24  21677077.660   113913635.395          50.000    21677093.400    85065344.406          50.000  
E25  25101110.300   131907197.660          50.000    25101115.100    98502116.324          50.000  
E31  26243370.580   137909797.355          50.000    26243376.620   102984572.074          50.000  
E33  27726476.360   145703601.117          50.000    27726480.360   108804625.227          50.000  
> 2020  6  5 20 18 26.0000000  0 13       0.000000000000
G 2  20815547.140   109386458.199          50.000                                                  
G 5  23819050.020   125169839.316          50.000                                                  
G 6  21805655.460   114589439.727          50.000    21805658.160    85570035.590          50.000  
G12  20360441.560   106994849.555          50.000                                                  
G19  23429595.720   123123340.238          50.000                                                  
G24  22396491.760   117694289.984          50.000    22396494.800    87888587.102          50.000  
G25  21959764.200   115399274.168          50.000    21959766.820    86174780.262          50.000  
E11  22998315.740   120856985.324          50.000    22998315.900    90250339.398          50.000  
E12  22044184.500   115842994.488          50.000    22044185.340    86506127.355          50.000  
E24  21677180.520   113914175.977          50.000    21677196.280    85065748.090          50.000  
E25  25100719.760   131905145.309          50.000    25100724.540    98500583.723          50.000  
E31  26243860.480   137912371.797          50.000    26243866.520   102986494.547          50.000  
E33  27726987.660   145706287.988          50.000    27726991.660   108806631.656          50.000  
> 2020  6  5 20 18 27.0000000  0 13       0.000000000000
G 2  20815659.480   109387048.566          50.000                                                  
G 5  23818435.400   125166609.480          50.000                                                  
G 6  21806113.480   114591846.594          50.000    21806116.180    85571832.926          50.000  
G12  20360213.140   106993649.176          50.000                                                  
G19  23430123.140   123126111.875          50.000                                                  
G24  22396993.240   117696925.367          50.000    22396996.300    87890555.082          50.000  
G25  21959254.360   115396594.871          50.000    21959256.960    86172779.488          50.000  
E11  22998062.260   120855653.203          50.000    22998062.400    90249344.633          50.000  
E12  22044434.580   115844308.676          50.000    22044435.420    86507108.727          50.000  
E24  21677283.480   113914716.953          50.000    21677299.220    85066152.066          50.000  
E25  25100329.240   131903093.168          50.000    25100334.040    98499051.281          50.000  
E31  26244350.420   137914946.445          50.000    26244356.460   102988417.172          50.000  
E33  27727498.960   145708974.848          50.000    27727502.960   108808638.074          50.000  
> 2020  6  5 20 18 28.0000000  0 13       0.000000000000
G 2  20815771.920   109387639.434          50.000                                                  
G 5  23817820.780   125163379.711          50.000                                                  
G 6  21806571.560   114594253.879          50.000    21806574.280    85573630.574          50.000  
G12  20359984.780   106992449.207          50.000                                                  
G19  23430650.580   123128883.555          50.000                                                  
G24  22397494.820   117699561.090          50.000    22397497.860    87892523.316          50.000  
G25  21958744.540   115393915.805          50.000    21958747.140    86170778.891          50.000  
E11  22997808.820   120854321.402          50.000    22997808.960    90248350.109          50.000  
E12  22044684.700   115845623.129          50.000    22044685.560    86508090.301          50.000  
E24  21677386.480   113915258.309          50.000    21677402.240    85066556.324          50.000  
E25  25099938.780   131901041.262          50.000    25099943.580    98497519.012          50.000  
E31  26244840.400   137917521.316          50.000    26244846.440   102990339.965          50.000  
E33  27728010.240   145711661.699          50.000    27728014.240   108810644.488          50.000  
> 2020  6  5 20 18 29.0000000  0 13       0.000000000000
G 2  20815884.440   109388230.797          50.000                                                  
G 5  23817206.200   125160150.020          50.000                                                  
G 6  21807029.740   114596661.566          50.000    21807032.440    85575428.523          50.000  
G12  20359756.520   106991249.672          50.000                                                  
G19  23431178.020   123131655.285          50.000                                                  
G24  22397996.440   117702197.148          50.000    22397999.500    87894491.797          50.000  
G25  21958234.780   115391237.004          50.000    21958237.380    86168778.484          50.000  
E11  22997555.460   120852989.949          50.000    22997555.600    90247355.840          50.000  
E12  22044934.880   115846937.855          50.000    22044935.740    86509072.074          50.000  
E24  21677489.580   113915800.094          50.000    21677505.340    85066960.902          50.000  
E25  25099548.360   131898989.582          50.000    25099553.140    98495986.914          50.000  
E31  26245330.420   137920096.395          50.000    26245336.460   102992262.910          50.000  
E33  27728521.540   145714348.551          50.000    27728525.540   108812650.902          50.000  
> 2020  6  5 20 18 30.0000000  0 13       0.000000000000
G 2  20815997.080   109388822.641          50.000                                                  
G 5  23816591.620   125156920.387          50.000                                                  
G 6  21807487.980   114599069.668          50.000    21807490.680    85577226.777          50.000  
G12  20359528.340   106990050.563          50.000                                                  
G19  23431705.460   123134427.051          50.000                                                  
G24  22398498.120   117704833.539          50.000    22398501.180    87896460.531          50.000  
G25  21957725.080   115388558.445          50.000    21957727.680    86166778.266          50.000  
E11  22997302.140   120851658.789          50.000    22997302.280    90246361.793          50.000  
E12  22045185.120   115848252.844          50.000    22045185.980    86510054.047          50.000  
E24  21677592.760   113916342.262          50.000    21677608.500    85067365.770          50.000  
E25  25099157.980   131896938.113          50.000    25099162.760    98494454.977          50.000  
E31  26245820.480   137922671.703          50.000    26245826.540   102994186.027          50.000  
E33  27729032.820   145717035.391          50.000    27729036.820   108814657.309          50.000  
> 2020  6  5 20 18 31.0000000  0 13       0.000000000000
G 2  20816109.800   109389414.988          50.000                                                  
G 5  23815977.060   125153690.828          50.000                                                  
G 6  21807946.300   114601478.172          50.000    21807949.000    85579025.336          50.000  
G12  20359300.240   106988851.875          50.000                                                  
G19  23432232.920   123137198.867          50.000                                                  
G24  22398999.880   117707470.250          50.000    22399002.940    87898429.504          50.000  
G25  21957215.400   115385880.121          50.000    21957218.000    86164778.219          50.000  
E11  22997048.900   120850327.988          50.000    22997049.040    90245368.012          50.000  
E12  22045435.400   115849568.102          50.000    22045436.260    86511036.219          50.000  
E24  21677696.000   113916884.816          50.000    21677711.740    85067770.926          50.000  
E25  25098767.640   131894886.859          50.000    25098772.420    98492923.195          50.000  
E31  26246310.600   137925247.207          50.000    26246316.640   102996109.293          50.000  
E33  27729544.120   145719722.238          50.000    27729548.120   108816663.719          50.000  
> 2020  6  5 20 18 32.0000000  0 13       0.000000000000
G 2  20816222.600   109390007.828          50.000                                                  
G 5  23815362.500   125150461.344          50.000                                                  
G 6  21808404.700   114603887.086          50.000    21808407.420    85580824.199          50.000  
G12  20359072.220   106987653.621          50.000                                                  
G19  23432760.400   123139970.723          50.000                                                  
G24  22399501.700   117710107.297          50.000    22399504.740    87900398.727          50.000  
G25  21956705.780   115383202.063          50.000    21956708.380    86162778.371          50.000  
E11  22996795.700   120848997.480          50.000    22996795.860    90244374.453          50.000  
E12  22045685.740   115850883.617          50.000    22045686.600    86512018.586          50.000  
E24  21677799.320   113917427.773          50.000    21677815.060    85068176.379          50.000  
E25  25098377.340   131892835.828          50.000    25098382.120    98491391.582          50.000  
E31  26246800.740   137927822.945          50.000    26246806.780   102998032.734          50.000  
E33  27730055.400   145722409.059          50.000    27730059.400   108818670.109          50.000  
> 2020  6  5 20 18 33.0000000  0 13       0.000000000000
G 2  20816335.520   109390601.152          50.000                                                  
G 5  23814747.960   125147231.918          50.000                                                  
G 6  21808863.180   114606296.395          50.000    21808865.880    85582623.359          50.000  
G12  20358844.280   106986455.801          50.000                                                  
G19  23433287.880   123142742.621          50.000                                                  
G24  22400003.560   117712744.676          50.000    22400006.620    87902368.195          50.000  
G25  21956196.220   115380524.234          50.000    21956198.820    86160778.695          50.000  
E11  22996542.600   120847667.332          50.000    22996542.740    90243381.160          50.000  
E12  22045936.120   115852199.395          50.000    22045936.980    86513001.148          50.000  
E24  21677902.720   113917971.125          50.000    21677918.460    85068582.125          50.000  
E25  25097987.080   131890785.023          50.000    25097991.880    98489860.137          50.000  
E31  26247290.920   137930398.883          50.000    26247296.980   102999956.320          50.000  
E33  27730566.680   145725095.871          50.000    27730570.680   108820676.492          50.000  
> 2020  6  5 20 18 34.0000000  0 13       0.000000000000
G 2  20816448.520   109391194.980          50.000                                                  
G 5  23814133.420   125144002.555          50.000                                                  
G 6  21809321.740   114608706.105          50.000    21809324.440    85584422.816          50.000  
G12  20358616.420   106985258.395          50.000                                                  
G19  23433815.360   123145514.555          50.000                                                  
G24  22400505.500   117715382.367          50.000    22400508.560    87904337.898          50.000  
G25  21955686.680   115377846.664          50.000    21955689.280    86158779.215          50.000  
E11  22996289.540   120846337.520          50.000    22996289.680    90242388.121          50.000  
E12  22046186.560   115853515.445          50.000    22046187.420    86513983.910          50.000  
E24  21678006.200   113918514.863          50.000    21678021.940    85068988.164          50.000  
E25  25097596.860   131888734.445          50.000    25097601.660    98488328.863          50.000  
E31  26247781.160   137932975.031          50.000    26247787.200   103001880.066          50.000  
E33  27731077.980   145727782.680          50.000    27731081.960   108822682.875          50.000  
> 2020  6  5 20 18 35.0000000  0 13       0.000000000000
G 2  20816561.620   109391789.301          50.000                                                  
G 5  23813518.920   125140773.270          50.000                                                  
G 6  21809780.360   114611116.246          50.000    21809783.080    85586222.598          50.000  
G12  20358388.640   106984061.418          50.000                                                  
G19  23434342.840   123148286.539          50.000                                                  
G24  22401007.500   117718020.391          50.000    22401010.560    87906307.852          50.000  
G25  21955177.200   115375169.348          50.000    21955179.820    86156779.918          50.000  
E11  22996036.540   120845008.035          50.000    22996036.700    90241395.320          50.000  
E12  22046437.040   115854831.754          50.000    22046437.900    86514966.871          50.000  
E24  21678109.740   113919059.016          50.000    21678125.480    85069394.512          50.000  
E25  25097206.700   131886684.094          50.000    25097211.500    98486797.754          50.000  
E31  26248271.420   137935551.410          50.000    26248277.460   103003803.984          50.000  
E33  27731589.260   145730469.480          50.000    27731593.260   108824689.254          50.000  
> 2020  6  5 20 18 36.0000000  0 13       0.000000000000
G 2  20816674.800   109392384.117          50.000                                                  
G 5  23812904.420   125137544.055          50.000                                                  
G 6  21810239.080   114613526.773          50.000    21810241.780    85588022.664          50.000  
G12  20358160.960   106982864.875          50.000                                                  
G19  23434870.340   123151058.570          50.000                                                  
G24  22401509.560   117720658.738          50.000    22401512.620    87908278.043          50.000  
G25  21954667.780   115372492.281          50.000    21954670.380    86154780.809          50.000  
E11  22995783.620   120843678.883          50.000    22995783.760    90240402.773          50.000  
E12  22046687.580   115856148.344          50.000    22046688.440    86515950.035          50.000  
E24  21678213.360   113919603.555          50.000    21678229.100    85069801.148          50.000  
E25  25096816.560   131884633.949          50.000    25096821.360    98485266.805          50.000  
E31  26248761.740   137938128.004          50.000    26248767.780   103005728.063          50.000  
E33  27732100.540   145733156.270          50.000    27732104.540   108826695.621          50.000  
> 2020  6  5 20 18 37.0000000  0 13       0.000000000000
G 2  20816788.080   109392979.430          50.000                                                  
G 5  23812289.920   125134314.906          50.000                                                  
G 6  21810697.860   114615937.707          50.000    21810700.560    85589823.039          50.000  
G12  20357933.340   106981668.742          50.000                                                  
G19  23435397.860   123153830.645          50.000                                                  
G24  22402011.680   117723297.418          50.000    22402014.740    87910248.488          50.000  
G25  21954158.400   115369815.445          50.000    21954161.000    86152781.875          50.000  
E11  22995530.740   120842350.035          50.000    22995530.900    90239410.453          50.000  
E12  22046938.180   115857465.176          50.000    22046939.020    86516933.387          50.000  
E24  21678317.060   113920148.484          50.000    21678332.800    85070208.074          50.000  
E25  25096426.480   131882584.031          50.000    25096431.280    98483736.020          50.000  
E31  26249252.080   137940704.797          50.000    26249258.120   103007652.289          50.000  
E33  27732611.820   145735843.047          50.000    27732615.800   108828701.977          50.000  
> 2020  6  5 20 18 38.0000000  0 13       0.000000000000
G 2  20816901.460   109393575.234          50.000                                                  
G 5  23811675.460   125131085.816          50.000                                                  
G 6  21811156.720   114618349.059          50.000    21811159.440    85591623.723          50.000  
G12  20357705.800   106980473.055          50.000                                                  
G19  23435925.380   123156602.766          50.000                                                  
G24  22402513.880   117725936.449          50.000    22402516.940    87912219.191          50.000  
G25  21953649.060   115367138.855          50.000    21953651.660    86150783.125          50.000  
E11  22995277.940   120841021.535          50.000    22995278.080    90238418.391          50.000  
E12  22047188.820   115858782.289          50.000    22047189.660    86517916.945          50.000  
E24  21678420.840   113920693.816          50.000    21678436.580    85070615.305          50.000  
E25  25096036.440   131880534.340          50.000    25096041.220    98482205.406          50.000  
E31  26249742.480   137943281.813          50.000    26249748.520   103009576.684          50.000  
E33  27733123.080   145738529.828          50.000    27733127.080   108830708.340          50.000  
> 2020  6  5 20 18 39.0000000  0 13       0.000000000000
G 2  20817014.940   109394171.531          50.000                                                  
G 5  23811060.980   125127856.793          50.000                                                  
G 6  21811615.660   114620760.801          50.000    21811618.380    85593424.699          50.000  
G12  20357478.360   106979277.793          50.000                                                  
G19  23436452.900   123159374.922          50.000                                                  
G24  22403016.140   117728575.820          50.000    22403019.200    87914190.148          50.000  
G25  21953139.760   115364462.512          50.000    21953142.360    86148784.555          50.000  
E11  22995025.200   120839693.367          50.000    22995025.340    90237426.578          50.000  
E12  22047439.500   115860099.660          50.000    22047440.340    86518900.695          50.000  
E24  21678524.680   113921239.539          50.000    21678540.420    85071022.824          50.000  
E25  25095646.440   131878484.863          50.000    25095651.220    98480674.953          50.000  
E31  26250232.900   137945859.039          50.000    26250238.940   103011501.234          50.000  
E33  27733634.360   145741216.594          50.000    27733638.360   108832714.688          50.000  
> 2020  6  5 20 18 40.0000000  0 13       0.000000000000
G 2  20817128.500   109394768.328          50.000                                                  
G 5  23810446.540   125124627.836          50.000                                                  
G 6  21812074.680   114623172.961          50.000    21812077.400    85595225.988          50.000  
G12  20357250.980   106978082.949          50.000                                                  
G19  23436980.420   123162147.113          50.000                                                  
G24  22403518.460   117731215.523          50.000    22403521.520    87916161.355          50.000  
G25  21952630.520   115361786.418          50.000    21952633.120    86146786.176          50.000  
E11  22994772.520   120838365.531          50.000    22994772.660    90236435.016          50.000  
E12  22047690.240   115861417.301          50.000    22047691.080    86519884.648          50.000  
E24  21678628.600   113921785.664          50.000    21678644.340    85071430.645          50.000  
E25  25095256.480   131876435.629          50.000    25095261.260    98479144.684          50.000  
E31  26250723.380   137948436.488          50.000    26250729.420   103013425.953          50.000  
E33  27734145.640   145743903.348          50.000    27734149.640   108834721.031          50.000  
> 2020  6  5 20 18 41.0000000  0 13       0.000000000000
G 2  20817242.160   109395365.617          50.000                                                  
G 5  23809832.100   125121398.957          50.000                                                  
G 6  21812533.780   114625585.512          50.000    21812536.480    85597027.566          50.000  
G12  20357023.680   106976888.527          50.000                                                  
G19  23437507.960   123164919.359          50.000                                                  
G24  22404020.840   117733855.582          50.000    22404023.900    87918132.828          50.000  
G25  21952121.320   115359110.582          50.000    21952123.920    86144787.988          50.000  
E11  22994519.900   120837038.004          50.000    22994520.040    90235443.676          50.000  
E12  22047941.020   115862735.207          50.000    22047941.880    86520868.797          50.000  
E24  21678732.600   113922332.184          50.000    21678748.340    85071838.758          50.000  
E25  25094866.560   131874386.602          50.000    25094871.360    98477614.566          50.000  
E31  26251213.880   137951014.145          50.000    26251219.940   103015350.824          50.000  
E33  27734656.920   145746590.105          50.000    27734660.900   108836727.375          50.000  
> 2020  6  5 20 18 42.0000000  0 13       0.000000000000
G 2  20817355.920   109395963.391          50.000                                                  
G 5  23809217.680   125118170.141          50.000                                                  
G 6  21812992.960   114627998.480          50.000    21812995.660    85598829.457          50.000  
G12  20356796.480   106975694.543          50.000                                                  
G19  23438035.520   123167691.641          50.000                                                  
G24  22404523.300   117736496.000          50.000    22404526.360    87920104.566          50.000  
G25  21951612.180   115356434.984          50.000    21951614.780    86142789.977          50.000  
E11  22994267.340   120835710.809          50.000    22994267.480    90234452.594          50.000  
E12  22048191.860   115864053.367          50.000    22048192.720    86521853.137          50.000  
E24  21678836.680   113922879.098          50.000    21678852.420    85072247.168          50.000  
E25  25094476.680   131872337.773          50.000    25094481.480    98476084.598          50.000  
E31  26251704.440   137953592.027          50.000    26251710.480   103017275.863          50.000  
E33  27735168.180   145749276.840          50.000    27735172.180   108838733.703          50.000  
> 2020  6  5 20 18 43.0000000  0 13       0.000000000000
G 2  20817469.760   109396561.668          50.000                                                  
G 5  23808603.260   125114941.383          50.000                                                  
G 6  21813452.200   114630411.840          50.000    21813454.900    85600631.641          50.000  
G12  20356569.360   106974500.977          50.000                                                  
G19  23438563.080   123170463.969          50.000                                                  
G24  22405025.820   117739136.746          50.000    22405028.880    87922076.551          50.000  
G25  21951103.080   115353759.637          50.000    21951105.680    86140792.152          50.000  
E11  22994014.860   120834383.977          50.000    22994015.000    90233461.773          50.000  
E12  22048442.760   115865371.793          50.000    22048443.600    86522837.676          50.000  
E24  21678940.820   113923426.406          50.000    21678956.580    85072655.875          50.000  
E25  25094086.840   131870289.191          50.000    25094091.640    98474554.813          50.000  
E31  26252195.040   137956170.102          50.000    26252201.080   103019201.047          50.000  
E33  27735679.440   145751963.563          50.000    27735683.440   108840740.016          50.000  
> 2020  6  5 20 18 44.0000000  0 13       0.000000000000
G 2  20817583.700   109397160.434          50.000                                                  
G 5  23807988.860   125111712.703          50.000                                                  
G 6  21813911.520   114632825.613          50.000    21813914.240    85602434.133          50.000  
G12  20356342.300   106973307.840          50.000                                                  
G19  23439090.640   123173236.332          50.000                                                  
G24  22405528.400   117741777.820          50.000    22405531.460    87924048.781          50.000  
G25  21950594.020   115351084.527          50.000    21950596.620    86138794.508          50.000  
E11  22993762.420   120833057.445          50.000    22993762.560    90232471.184          50.000  
E12  22048693.700   115866690.496          50.000    22048694.540    86523822.422          50.000  
E24  21679045.060   113923974.109          50.000    21679060.800    85073064.875          50.000  
E25  25093697.060   131868240.832          50.000    25093701.860    98473025.195          50.000  
E31  26252685.680   137958748.414          50.000    26252691.720   103021126.410          50.000  
E33  27736190.720   145754650.281          50.000    27736194.720   108842746.336          50.000  
> 2020  6  5 20 18 45.0000000  0 13       0.000000000000
G 2  20817697.740   109397759.688          50.000                                                  
G 5  23807374.480   125108484.090          50.000                                                  
G 6  21814370.920   114635239.777          50.000    21814373.640    85604236.918          50.000  
G12  20356115.340   106972115.141          50.000                                                  
G19  23439618.220   123176008.746          50.000                                                  
G24  22406031.040   117744419.223          50.000    22406034.100    87926021.258          50.000  
G25  21950085.000   115348409.672          50.000    21950087.600    86136797.055          50.000  
E11  22993510.060   120831731.238          50.000    22993510.200    90231480.836          50.000  
E12  22048944.680   115868009.449          50.000    22048945.520    86524807.355          50.000  
E24  21679149.360   113924522.207          50.000    21679165.100    85073474.168          50.000  
E25  25093307.300   131866192.699          50.000    25093312.100    98471495.746          50.000  
E31  26253176.340   137961326.918          50.000    26253182.400   103023051.914          50.000  
E33  27736701.980   145757336.988          50.000    27736705.980   108844752.641          50.000  
> 2020  6  5 20 18 46.0000000  0 13       0.000000000000
G 2  20817811.860   109398359.445          50.000                                                  
G 5  23806760.100   125105255.555          50.000                                                  
G 6  21814830.400   114637654.363          50.000    21814833.120    85606040.020          50.000  
G12  20355888.460   106970922.863          50.000                                                  
G19  23440145.800   123178781.195          50.000                                                  
G24  22406533.740   117747060.945          50.000    22406536.800    87927993.969          50.000  
G25  21949576.040   115345735.059          50.000    21949578.640    86134799.777          50.000  
E11  22993257.740   120830405.375          50.000    22993257.900    90230490.742          50.000  
E12  22049195.720   115869328.684          50.000    22049196.580    86525792.496          50.000  
E24  21679253.720   113925070.707          50.000    21679269.480    85073883.758          50.000  
E25  25092917.600   131864144.789          50.000    25092922.400    98469966.461          50.000  
E31  26253667.060   137963905.645          50.000    26253673.120   103024977.586          50.000  
E33  27737213.240   145760023.695          50.000    27737217.240   108846758.945          50.000  
> 2020  6  5 20 18 47.0000000  0 13       0.000000000000
G 2  20817926.080   109398959.688          50.000                                                  
G 5  23806145.740   125102027.082          50.000                                                  
G 6  21815289.960   114640069.348          50.000    21815292.680    85607843.414          50.000  
G12  20355661.660   106969731.000          50.000                                                  
G19  23440673.380   123181553.691          50.000                                                  
G24  22407036.520   117749703.023          50.000    22407039.580    87929966.949          50.000  
G25  21949067.120   115343060.699          50.000    21949069.720    86132802.691          50.000  
E11  22993005.500   120829079.855          50.000    22993005.660    90229500.910          50.000  
E12  22049446.820   115870648.168          50.000    22049447.660    86526777.828          50.000  
E24  21679358.180   113925619.602          50.000    21679373.920    85074293.648          50.000  
E25  25092527.940   131862097.094          50.000    25092532.740    98468437.340          50.000  
E31  26254157.820   137966484.586          50.000    26254163.860   103026903.418          50.000  
E33  27737724.500   145762710.391          50.000    27737728.500   108848765.242          50.000  
> 2020  6  5 20 18 48.0000000  0 13       0.000000000000
G 2  20818040.400   109399560.422          50.000                                                  
G 5  23805531.400   125098798.680          50.000                                                  
G 6  21815749.600   114642484.730          50.000    21815752.300    85609647.109          50.000  
G12  20355434.940   106968539.566          50.000                                                  
G19  23441200.980   123184326.234          50.000                                                  
G24  22407539.340   117752345.430          50.000    22407542.420    87931940.172          50.000  
G25  21948558.260   115340386.586          50.000    21948560.860    86130805.789          50.000  
E11  22992753.340   120827754.656          50.000    22992753.480    90228511.313          50.000  
E12  22049697.960   115871967.918          50.000    22049698.800    86527763.355          50.000  
E24  21679462.700   113926168.891          50.000    21679478.460    85074703.836          50.000  
E25  25092138.320   131860049.605          50.000    25092143.100    98466908.371          50.000  
E31  26254648.620   137969063.746          50.000    26254654.660   103028829.414          50.000  
E33  27738235.760   145765397.074          50.000    27738239.760   108850771.531          50.000  
> 2020  6  5 20 18 49.0000000  0 13       0.000000000000
G 2  20818154.820   109400161.652          50.000                                                  
G 5  23804917.060   125095570.340          50.000                                                  
G 6  21816209.300   114644900.523          50.000    21816212.020    85611451.109          50.000  
G12  20355208.300   106967348.566          50.000                                                  
G19  23441728.580   123187098.828          50.000                                                  
G24  22408042.240   117754988.156          50.000    22408045.300    87933913.637          50.000  
G25  21948049.440   115337712.723          50.000    21948052.040    86128809.074          50.000  
E11  22992501.220   120826429.789          50.000    22992501.360    90227521.961          50.000  
E12  22049949.140   115873287.934          50.000    22049950.000    86528749.082          50.000  
E24  21679567.300   113926718.578          50.000    21679583.060    85075114.313          50.000  
E25  25091748.740   131858002.355          50.000    25091753.540    98465379.582          50.000  
E31  26255139.460   137971643.121          50.000    26255145.500   103030755.566          50.000  
E33  27738747.020   145768083.746          50.000    27738751.020   108852777.813          50.000  
> 2020  6  5 20 18 50.0000000  0 13       0.000000000000
G 2  20818269.320   109400763.371          50.000                                                  
G 5  23804302.740   125092342.078          50.000                                                  
G 6  21816669.100   114647316.719          50.000    21816671.800    85613255.410          50.000  
G12  20354981.740   106966157.992          50.000                                                  
G19  23442256.200   123189871.465          50.000                                                  
G24  22408545.200   117757631.234          50.000    22408548.260    87935887.363          50.000  
G25  21947540.660   115335039.102          50.000    21947543.260    86126812.539          50.000  
E11  22992249.160   120825105.238          50.000    22992249.300    90226532.848          50.000  
E12  22050200.380   115874608.219          50.000    22050201.240    86529735.008          50.000  
E24  21679671.980   113927268.652          50.000    21679687.720    85075525.082          50.000  
E25  25091359.200   131855955.332          50.000    25091364.000    98463850.961          50.000  
E31  26255630.340   137974222.699          50.000    26255636.380   103032681.875          50.000  
E33  27739258.280   145770770.414          50.000    27739262.280   108854784.090          50.000  
> 2020  6  5 20 18 51.0000000  0 13       0.000000000000
G 2  20818383.920   109401365.586          50.000                                                  
G 5  23803688.440   125089113.887          50.000                                                  
G 6  21817128.960   114649733.324          50.000    21817131.660    85615060.020          50.000  
G12  20354755.260   106964967.832          50.000                                                  
G19  23442783.820   123192644.141          50.000                                                  
G24  22409048.220   117760274.629          50.000    22409051.280    87937861.324          50.000  
G25  21947031.940   115332365.734          50.000    21947034.540    86124816.195          50.000  
E11  22991997.180   120823781.035          50.000    22991997.320    90225543.996          50.000  
E12  22050451.680   115875928.758          50.000    22050452.520    86530721.125          50.000  
E24  21679776.740   113927819.121          50.000    21679792.480    85075936.148          50.000  
E25  25090969.700   131853908.535          50.000    25090974.500    98462322.508          50.000  
E31  26256121.260   137976802.500          50.000    26256127.300   103034608.348          50.000  
E33  27739769.540   145773457.074          50.000    27739773.540   108856790.359          50.000  
> 2020  6  5 20 18 52.0000000  0 13       0.000000000000
G 2  20818498.600   109401968.293          50.000                                                  
G 5  23803074.140   125085885.754          50.000                                                  
G 6  21817588.900   114652150.328          50.000    21817591.600    85616864.926          50.000  
G12  20354528.860   106963778.113          50.000                                                  
G19  23443311.460   123195416.859          50.000                                                  
G24  22409551.320   117762918.383          50.000    22409554.380    87939835.559          50.000  
G25  21946523.260   115329692.613          50.000    21946525.860    86122820.031          50.000  
E11  22991745.260   120822457.164          50.000    22991745.400    90224555.391          50.000  
E12  22050703.020   115877249.570          50.000    22050703.860    86531707.445          50.000  
E24  21679881.560   113928369.996          50.000    21679897.300    85076347.516          50.000  
E25  25090580.260   131851861.945          50.000    25090585.040    98460794.211          50.000  
E31  26256612.220   137979382.516          50.000    26256618.260   103036534.980          50.000  
E33  27740280.780   145776143.727          50.000    27740284.780   108858796.621          50.000  
> 2020  6  5 20 18 53.0000000  0 13       0.000000000000
G 2  20818613.400   109402571.488          50.000                                                  
G 5  23802459.860   125082657.688          50.000                                                  
G 6  21818048.920   114654567.734          50.000    21818051.620    85618670.129          50.000  
G12  20354302.540   106962588.828          50.000                                                  
G19  23443839.100   123198189.621          50.000                                                  
G24  22410054.460   117765562.457          50.000    22410057.540    87941810.027          50.000  
G25  21946014.640   115327019.730          50.000    21946017.220    86120824.051          50.000  
E11  22991493.380   120821133.602          50.000    22991493.540    90223567.020          50.000  
E12  22050954.400   115878570.641          50.000    22050955.260    86532693.957          50.000  
E24  21679986.460   113928921.266          50.000    21680002.220    85076759.176          50.000  
E25  25090190.840   131849815.586          50.000    25090195.640    98459266.086          50.000  
E31  26257103.220   137981962.742          50.000    26257109.280   103038461.773          50.000  
E33  27740792.040   145778830.359          50.000    27740796.040   108860802.875          50.000  
> 2020  6  5 20 18 54.0000000  0 13       0.000000000000
G 2  20818728.280   109403175.191          50.000                                                  
G 5  23801845.600   125079429.699          50.000                                                  
G 6  21818509.000   114656985.535          50.000    21818511.720    85620475.633          50.000  
G12  20354076.320   106961399.984          50.000                                                  
G19  23444366.740   123200962.426          50.000                                                  
G24  22410557.680   117768206.871          50.000    22410560.740    87943784.750          50.000  
G25  21945506.040   115324347.117          50.000    21945508.640    86118828.270          50.000  
E11  22991241.580   120819810.375          50.000    22991241.720    90222578.895          50.000  
E12  22051205.860   115879891.980          50.000    22051206.700    86533680.672          50.000  
E24  21680091.440   113929472.934          50.000    21680107.200    85077171.137          50.000  
E25  25089801.480   131847769.438          50.000    25089806.280    98457738.117          50.000  
E31  26257594.260   137984543.176          50.000    26257600.320   103040388.719          50.000  
E33  27741303.280   145781516.996          50.000    27741307.300   108862809.129          50.000  
> 2020  6  5 20 18 55.0000000  0 13       0.000000000000
G 2  20818843.240   109403779.383          50.000                                                  
G 5  23801231.340   125076201.770          50.000                                                  
G 6  21818969.180   114659403.777          50.000    21818971.900    85622281.461          50.000  
G12  20353850.160   106960211.559          50.000                                                  
G19  23444894.400   123203735.277          50.000                                                  
G24  22411060.960   117770851.609          50.000    22411064.020    87945759.715          50.000  
G25  21944997.520   115321674.746          50.000    21945000.100    86116832.668          50.000  
E11  22990989.840   120818487.461          50.000    22990989.980    90221591.004          50.000  
E12  22051457.340   115881213.578          50.000    22051458.200    86534667.578          50.000  
E24  21680196.500   113930024.992          50.000    21680212.240    85077583.387          50.000  
E25  25089412.160   131845723.527          50.000    25089416.940    98456210.328          50.000  
E31  26258085.340   137987123.828          50.000    26258091.400   103042315.828          50.000  
E33  27741814.540   145784203.621          50.000    27741818.540   108864815.371          50.000  
> 2020  6  5 20 18 56.0000000  0 13       0.000000000000
G 2  20818958.320   109404384.070          50.000                                                  
G 5  23800617.100   125072973.910          50.000                                                  
G 6  21819429.420   114661822.391          50.000    21819432.140    85624087.566          50.000  
G12  20353624.100   106959023.570          50.000                                                  
G19  23445422.060   123206508.164          50.000                                                  
G24  22411564.300   117773496.680          50.000    22411567.360    87947734.934          50.000  
G25  21944489.020   115319002.617          50.000    21944491.620    86114837.250          50.000  
E11  22990738.160   120817164.914          50.000    22990738.320    90220603.387          50.000  
E12  22051708.880   115882535.449          50.000    22051709.740    86535654.691          50.000  
E24  21680301.620   113930577.453          50.000    21680317.380    85077995.938          50.000  
E25  25089022.880   131843677.844          50.000    25089027.660    98454682.707          50.000  
E31  26258576.460   137989704.699          50.000    26258582.520   103044243.102          50.000  
E33  27742325.780   145786890.230          50.000    27742329.780   108866821.605          50.000  
> 2020  6  5 20 18 57.0000000  0 13       0.000000000000
G 2  20819073.480   109404989.238          50.000                                                  
G 5  23800002.880   125069746.133          50.000                                                  
G 6  21819889.760   114664241.410          50.000    21819892.460    85625893.977          50.000  
G12  20353398.120   106957835.996          50.000                                                  
G19  23445949.740   123209281.094          50.000                                                  
G24  22412067.700   117776142.086          50.000    22412070.780    87949710.395          50.000  
G25  21943980.580   115316330.734          50.000    21943983.180    86112842.012          50.000  
E11  22990486.540   120815842.648          50.000    22990486.700    90219615.984          50.000  
E12  22051960.480   115883857.566          50.000    22051961.320    86536641.984          50.000  
E24  21680406.840   113931130.301          50.000    21680422.580    85078408.777          50.000  
E25  25088633.640   131841632.371          50.000    25088638.420    98453155.246          50.000  
E31  26259067.640   137992285.777          50.000    26259073.680   103046170.527          50.000  
E33  27742837.020   145789576.828          50.000    27742841.020   108868827.832          50.000  
> 2020  6  5 20 18 58.0000000  0 13       0.000000000000
G 2  20819188.720   109405594.914          50.000                                                  
G 5  23799388.660   125066518.418          50.000                                                  
G 6  21820350.160   114666660.840          50.000    21820352.860    85627700.691          50.000  
G12  20353172.200   106956648.863          50.000                                                  
G19  23446477.420   123212054.066          50.000                                                  
G24  22412571.180   117778787.816          50.000    22412574.240    87951686.102          50.000  
G25  21943472.180   115313659.102          50.000    21943474.780    86110846.961          50.000  
E11  22990235.000   120814520.762          50.000    22990235.140    90218628.859          50.000  
E12  22052212.120   115885179.969          50.000    22052212.980    86537629.492          50.000  
E24  21680512.120   113931683.555          50.000    21680527.860    85078821.922          50.000  
E25  25088244.440   131839587.125          50.000    25088249.220    98451627.949          50.000  
E31  26259558.840   137994867.063          50.000    26259564.880   103048098.109          50.000  
E33  27743348.260   145792263.426          50.000    27743352.280   108870834.055          50.000  
> 2020  6  5 20 18 59.0000000  0 13       0.000000000000
G 2  20819304.080   109406201.070          50.000                                                  
G 5  23798774.460   125063290.770          50.000                                                  
G 6  21820810.640   114669080.656          50.000    21820813.340    85629507.699          50.000  
G12  20352946.380   106955462.137          50.000                                                  
G19  23447005.100   123214827.078          50.000                                                  
G24  22413074.700   117781433.871          50.000    22413077.760    87953662.055          50.000  
G25  21942963.840   115310987.719          50.000    21942966.440    86108852.098          50.000  
E11  22989983.520   120813199.184          50.000    22989983.660    90217641.969          50.000  
E12  22052463.820   115886502.621          50.000    22052464.660    86538617.188          50.000  
E24  21680617.460   113932237.188          50.000    21680633.220    85079235.352          50.000  
E25  25087855.280   131837542.094          50.000    25087860.060    98450100.816          50.000  
E31  26260050.080   137997448.570          50.000    26260056.140   103050025.859          50.000  
E33  27743859.500   145794950.000          50.000    27743863.520   108872840.262          50.000  
> 2020  6  5 20 19  0.0000000  0 13       0.000000000000
G 2  20819419.520   109406807.723          50.000                                                  
G 5  23798160.280   125060063.199          50.000                                                  
G 6  21821271.180   114671500.895          50.000    21821273.900    85631315.020          50.000  
G12  20352720.640   106954275.852          50.000                                                  
G19  23447532.800   123217600.133          50.000                                                  
G24  22413578.300   117784080.266          50.000    22413581.360    87955638.254          50.000  
G25  21942455.540   115308316.594          50.000    21942458.140    86106857.430          50.000  
E11  22989732.100   120811877.957          50.000    22989732.240    90216655.340          50.000  
E12  22052715.560   115887825.543          50.000    22052716.400    86539605.086          50.000  
E24  21680722.900   113932791.227          50.000    21680738.640    85079649.082          50.000  
E25  25087466.160   131835497.297          50.000    25087470.960    98448573.859          50.000  
E31  26260541.360   138000030.293          50.000    26260547.420   103051953.766          50.000  
E33  27744370.740   145797636.574          50.000    27744374.760   108874846.469          50.000  
> 2020  6  5 20 19  1.0000000  0 13       0.000000000000
G 2  20819535.060   109407414.867          50.000                                                  
G 5  23797546.100   125056835.703          50.000                                                  
G 6  21821731.820   114673921.523          50.000    21821734.540    85633122.633          50.000  
G12  20352494.980   106953089.992          50.000                                                  
G19  23448060.500   123220373.242          50.000                                                  
G24  22414081.940   117786726.980          50.000    22414085.020    87957614.699          50.000  
G25  21941947.280   115305645.703          50.000    21941949.880    86104862.934          50.000  
E11  22989480.720   120810557.020          50.000    22989480.880    90215668.926          50.000  
E12  22052967.360   115889148.719          50.000    22052968.200    86540593.172          50.000  
E24  21680828.400   113933345.664          50.000    21680844.140    85080063.109          50.000  
E25  25087077.100   131833452.730          50.000    25087081.880    98447047.074          50.000  
E31  26261032.700   138002612.230          50.000    26261038.740   103053881.836          50.000  
E33  27744881.980   145800323.145          50.000    27744885.980   108876852.672          50.000  
> 2020  6  5 20 19  2.0000000  0 13       0.000000000000
G 2  20819650.680   109408022.500          50.000                                                  
G 5  23796931.940   125053608.285          50.000                                                  
G 6  21822192.520   114676342.559          50.000    21822195.240    85634930.547          50.000  
G12  20352269.400   106951904.555          50.000                                                  
G19  23448588.220   123223146.391          50.000                                                  
G24  22414585.660   117789374.031          50.000    22414588.740    87959591.391          50.000  
G25  21941439.080   115302975.070          50.000    21941441.680    86102868.629          50.000  
E11  22989229.440   120809236.457          50.000    22989229.580    90214682.789          50.000  
E12  22053219.200   115890472.172          50.000    22053220.040    86541581.465          50.000  
E24  21680933.980   113933900.492          50.000    21680949.720    85080477.430          50.000  
E25  25086688.060   131831408.383          50.000    25086692.860    98445520.449          50.000  
E31  26261524.060   138005194.383          50.000    26261530.120   103055810.063          50.000  
E33  27745393.220   145803009.699          50.000    27745397.220   108878858.863          50.000  
> 2020  6  5 20 19  3.0000000  0 13       0.000000000000
G 2  20819766.400   109408630.625          50.000                                                  
G 5  23796317.800   125050380.926          50.000                                                  
G 6  21822653.320   114678764.004          50.000    21822656.020    85636738.770          50.000  
G12  20352043.900   106950719.551          50.000                                                  
G19  23449115.940   123225919.582          50.000                                                  
G24  22415089.440   117792021.434          50.000    22415092.520    87961568.344          50.000  
G25  21940930.920   115300304.672          50.000    21940933.520    86100874.504          50.000  
E11  22988978.200   120807916.188          50.000    22988978.340    90213696.875          50.000  
E12  22053471.080   115891795.883          50.000    22053471.940    86542569.949          50.000  
E24  21681039.640   113934455.723          50.000    21681055.380    85080892.047          50.000  
E25  25086299.080   131829364.250          50.000    25086303.880    98443993.988          50.000  
E31  26262015.480   138007776.746          50.000    26262021.520   103057738.449          50.000  
E33  27745904.460   145805696.238          50.000    27745908.460   108880865.047          50.000  
> 2020  6  5 20 19  4.0000000  0 13       0.000000000000
G 2  20819882.220   109409239.238          50.000                                                  
G 5  23795703.660   125047153.668          50.000                                                  
G 6  21823114.180   114681185.832          50.000    21823116.880    85638547.277          50.000  
G12  20351818.480   106949534.973          50.000                                                  
G19  23449643.660   123228692.813          50.000                                                  
G24  22415593.300   117794669.160          50.000    22415596.360    87963545.543          50.000  
G25  21940422.800   115297634.527          50.000    21940425.400    86098880.566          50.000  
E11  22988727.020   120806596.277          50.000    22988727.160    90212711.227          50.000  
E12  22053723.040   115893119.855          50.000    22053723.880    86543558.629          50.000  
E24  21681145.380   113935011.348          50.000    21681161.120    85081306.961          50.000  
E25  25085910.140   131827320.340          50.000    25085914.940    98442467.691          50.000  
E31  26262506.920   138010359.313          50.000    26262512.980   103059666.988          50.000  
E33  27746415.680   145808382.773          50.000    27746419.680   108882871.223          50.000  
> 2020  6  5 20 19  5.0000000  0 13       0.000000000000
G 2  20819998.140   109409848.348          50.000                                                  
G 5  23795089.560   125043926.496          50.000                                                  
G 6  21823575.120   114683608.090          50.000    21823577.820    85640356.105          50.000  
G12  20351593.140   106948350.813          50.000                                                  
G19  23450171.400   123231466.082          50.000                                                  
G24  22416097.200   117797317.238          50.000    22416100.280    87965523.004          50.000  
G25  21939914.740   115294964.645          50.000    21939917.340    86096886.820          50.000  
E11  22988475.920   120805276.680          50.000    22988476.060    90211725.813          50.000  
E12  22053975.020   115894444.094          50.000    22053975.880    86544547.508          50.000  
E24  21681251.180   113935567.363          50.000    21681266.920    85081722.168          50.000  
E25  25085521.240   131825276.652          50.000    25085526.040    98440941.563          50.000  
E31  26262998.400   138012942.105          50.000    26263004.460   103061595.695          50.000  
E33  27746926.920   145811069.297          50.000    27746930.920   108884877.391          50.000  
> 2020  6  5 20 19  6.0000000  0 13       0.000000000000
G 2  20820114.140   109410457.949          50.000                                                  
G 5  23794475.460   125040699.383          50.000                                                  
G 6  21824036.120   114686030.734          50.000    21824038.840    85642165.223          50.000  
G12  20351367.880   106947167.082          50.000                                                  
G19  23450699.160   123234239.395          50.000                                                  
G24  22416601.180   117799965.641          50.000    22416604.240    87967500.703          50.000  
G25  21939406.720   115292294.996          50.000    21939409.320    86094893.254          50.000  
E11  22988224.860   120803957.406          50.000    22988225.000    90210740.645          50.000  
E12  22054227.080   115895768.598          50.000    22054227.920    86545536.586          50.000  
E24  21681357.060   113936123.781          50.000    21681372.800    85082137.676          50.000  
E25  25085132.380   131823233.191          50.000    25085137.180    98439415.602          50.000  
E31  26263489.940   138015525.105          50.000    26263496.000   103063524.559          50.000  
E33  27747438.140   145813755.805          50.000    27747442.140   108886883.547          50.000  
> 2020  6  5 20 19  7.0000000  0 13       0.000000000000
G 2  20820230.240   109411068.039          50.000                                                  
G 5  23793861.360   125037472.344          50.000                                                  
G 6  21824497.220   114688453.777          50.000    21824499.920    85643974.641          50.000  
G12  20351142.720   106945983.789          50.000                                                  
G19  23451226.900   123237012.750          50.000                                                  
G24  22417105.220   117802614.359          50.000    22417108.280    87969478.641          50.000  
G25  21938898.760   115289625.605          50.000    21938901.360    86092899.879          50.000  
E11  22987973.880   120802638.477          50.000    22987974.020    90209755.730          50.000  
E12  22054479.160   115897093.355          50.000    22054480.020    86546525.852          50.000  
E24  21681463.020   113936680.590          50.000    21681478.760    85082553.473          50.000  
E25  25084743.560   131821189.953          50.000    25084748.360    98437889.809          50.000  
E31  26263981.500   138018108.313          50.000    26263987.560   103065453.574          50.000  
E33  27747949.360   145816442.309          50.000    27747953.360   108888889.703          50.000  
> 2020  6  5 20 19  8.0000000  0 13       0.000000000000
G 2  20820346.420   109411678.621          50.000                                                  
G 5  23793247.300   125034245.375          50.000                                                  
G 6  21824958.380   114690877.227          50.000    21824961.100    85645784.355          50.000  
G12  20350917.620   106944800.930          50.000                                                  
G19  23451754.660   123239786.148          50.000                                                  
G24  22417609.320   117805263.445          50.000    22417612.400    87971456.855          50.000  
G25  21938390.840   115286956.465          50.000    21938393.440    86090906.691          50.000  
E11  22987722.940   120801319.848          50.000    22987723.100    90208771.039          50.000  
E12  22054731.300   115898418.379          50.000    22054732.160    86547515.320          50.000  
E24  21681569.060   113937237.797          50.000    21681584.800    85082969.570          50.000  
E25  25084354.800   131819146.953          50.000    25084359.580    98436364.191          50.000  
E31  26264473.120   138020691.746          50.000    26264479.180   103067382.762          50.000  
E33  27748460.580   145819128.805          50.000    27748464.600   108890895.852          50.000  
> 2020  6  5 20 19  9.0000000  0 13       0.000000000000
G 2  20820462.700   109412289.695          50.000                                                  
G 5  23792633.240   125031018.473          50.000                                                  
G 6  21825419.640   114693301.090          50.000    21825422.340    85647594.383          50.000  
G12  20350692.600   106943618.488          50.000                                                  
G19  23452282.440   123242559.594          50.000                                                  
G24  22418113.480   117807912.852          50.000    22418116.560    87973435.309          50.000  
G25  21937882.960   115284287.566          50.000    21937885.560    86088913.680          50.000  
E11  22987472.100   120800001.586          50.000    22987472.240    90207786.625          50.000  
E12  22054983.500   115899743.672          50.000    22054984.360    86548504.984          50.000  
E24  21681675.160   113937795.398          50.000    21681690.900    85083385.961          50.000  
E25  25083966.060   131817104.156          50.000    25083970.860    98434838.727          50.000  
E31  26264964.780   138023275.395          50.000    26264970.820   103069312.109          50.000  
E33  27748971.800   145821815.289          50.000    27748975.820   108892901.988          50.000  
> 2020  6  5 20 19 10.0000000  0 13       0.000000000000
G 2  20820579.080   109412901.273          50.000                                                  
G 5  23792019.180   125027791.637          50.000                                                  
G 6  21825880.960   114695725.348          50.000    21825883.660    85649404.707          50.000  
G12  20350467.680   106942436.477          50.000                                                  
G19  23452810.200   123245333.059          50.000                                                  
G24  22418617.720   117810562.590          50.000    22418620.780    87975414.008          50.000  
G25  21937375.140   115281618.926          50.000    21937377.720    86086920.867          50.000  
E11  22987221.300   120798683.645          50.000    22987221.440    90206802.445          50.000  
E12  22055235.740   115901069.230          50.000    22055236.600    86549494.852          50.000  
E24  21681781.340   113938353.402          50.000    21681797.080    85083802.652          50.000  
E25  25083577.380   131815061.598          50.000    25083582.160    98433313.441          50.000  
E31  26265456.460   138025859.246          50.000    26265462.520   103071241.605          50.000  
E33  27749483.020   145824501.762          50.000    27749487.040   108894908.121          50.000  
> 2020  6  5 20 19 11.0000000  0 13       0.000000000000
G 2  20820695.560   109413513.328          50.000                                                  
G 5  23791405.160   125024564.871          50.000                                                  
G 6  21826342.340   114698149.996          50.000    21826345.060    85651215.316          50.000  
G12  20350242.840   106941254.891          50.000                                                  
G19  23453338.000   123248106.578          50.000                                                  
G24  22419122.000   117813212.652          50.000    22419125.080    87977392.949          50.000  
G25  21936867.360   115278950.523          50.000    21936869.940    86084928.230          50.000  
E11  22986970.560   120797366.039          50.000    22986970.700    90205818.523          50.000  
E12  22055488.040   115902395.035          50.000    22055488.900    86550484.898          50.000  
E24  21681887.600   113938911.793          50.000    21681903.340    85084219.633          50.000  
E25  25083188.740   131813019.266          50.000    25083193.520    98431788.324          50.000  
E31  26265948.200   138028443.316          50.000    26265954.260   103073171.266          50.000  
E33  27749994.240   145827188.223          50.000    27749998.260   108896914.246          50.000  
> 2020  6  5 20 19 12.0000000  0 13       0.000000000000
G 2  20820812.120   109414125.883          50.000                                                  
G 5  23790791.120   125021338.172          50.000                                                  
G 6  21826803.820   114700575.043          50.000    21826806.540    85653026.230          50.000  
G12  20350018.060   106940073.734          50.000                                                  
G19  23453865.780   123250880.137          50.000                                                  
G24  22419626.360   117815863.039          50.000    22419629.420    87979372.133          50.000  
G25  21936359.620   115276282.387          50.000    21936362.220    86082935.793          50.000  
E11  22986719.880   120796048.742          50.000    22986720.040    90204834.824          50.000  
E12  22055740.380   115903721.117          50.000    22055741.240    86551475.156          50.000  
E24  21681993.940   113939470.586          50.000    21682009.680    85084636.910          50.000  
E25  25082800.120   131810977.141          50.000    25082804.920    98430263.363          50.000  
E31  26266439.960   138031027.598          50.000    26266446.020   103075101.086          50.000  
E33  27750505.460   145829874.676          50.000    27750509.460   108898920.359          50.000  
> 2020  6  5 20 19 13.0000000  0 13       0.000000000000
G 2  20820928.780   109414738.926          50.000                                                  
G 5  23790177.120   125018111.551          50.000                                                  
G 6  21827265.360   114703000.496          50.000    21827268.080    85654837.445          50.000  
G12  20349793.380   106938893.004          50.000                                                  
G19  23454393.580   123253653.734          50.000                                                  
G24  22420130.780   117818513.746          50.000    22420133.840    87981351.559          50.000  
G25  21935851.940   115273614.492          50.000    21935854.540    86080943.531          50.000  
E11  22986469.280   120794731.789          50.000    22986469.420    90203851.387          50.000  
E12  22055992.780   115905047.461          50.000    22055993.640    86552465.609          50.000  
E24  21682100.340   113940029.777          50.000    21682116.100    85085054.488          50.000  
E25  25082411.560   131808935.246          50.000    25082416.360    98428738.570          50.000  
E31  26266931.780   138033612.098          50.000    26266937.840   103077031.070          50.000  
E33  27751016.680   145832561.117          50.000    27751020.680   108900926.469          50.000  
> 2020  6  5 20 19 14.0000000  0 13       0.000000000000
G 2  20821045.520   109415352.453          50.000                                                  
G 5  23789563.120   125014884.992          50.000                                                  
G 6  21827727.000   114705426.375          50.000    21827729.700    85656648.977          50.000  
G12  20349568.780   106937712.711          50.000                                                  
G19  23454921.380   123256427.379          50.000                                                  
G24  22420635.260   117821164.801          50.000    22420638.320    87983331.238          50.000  
G25  21935344.300   115270946.855          50.000    21935346.900    86078951.469          50.000  
E11  22986218.740   120793415.164          50.000    22986218.880    90202868.195          50.000  
E12  22056245.220   115906374.066          50.000    22056246.080    86553456.254          50.000  
E24  21682206.840   113940589.359          50.000    21682222.580    85085472.359          50.000  
E25  25082023.040   131806893.566          50.000    25082027.840    98427213.941          50.000  
E31  26267423.640   138036196.801          50.000    26267429.700   103078961.203          50.000  
E33  27751527.880   145835247.551          50.000    27751531.900   108902932.570          50.000  
> 2020  6  5 20 19 15.0000000  0 13       0.000000000000
G 2  20821162.380   109415966.477          50.000                                                  
G 5  23788949.140   125011658.508          50.000                                                  
G 6  21828188.700   114707852.633          50.000    21828191.420    85658460.793          50.000  
G12  20349344.260   106936532.836          50.000                                                  
G19  23455449.200   123259201.059          50.000                                                  
G24  22421139.800   117823816.188          50.000    22421142.860    87985311.172          50.000  
G25  21934836.720   115268279.449          50.000    21934839.300    86076959.574          50.000  
E11  22985968.240   120792098.848          50.000    22985968.400    90201885.230          50.000  
E12  22056497.720   115907700.934          50.000    22056498.580    86554447.098          50.000  
E24  21682313.400   113941149.336          50.000    21682329.140    85085890.523          50.000  
E25  25081634.580   131804852.125          50.000    25081639.360    98425689.488          50.000  
E31  26267915.540   138038781.723          50.000    26267921.580   103080891.500          50.000  
E33  27752039.100   145837933.980          50.000    27752043.100   108904938.672          50.000  
> 2020  6  5 20 19 16.0000000  0 13       0.000000000000
G 2  20821279.320   109416580.996          50.000                                                  
G 5  23788335.180   125008432.098          50.000                                                  
G 6  21828650.480   114710279.293          50.000    21828653.180    85660272.906          50.000  
G12  20349119.820   106935353.387          50.000                                                  
G19  23455977.020   123261974.789          50.000                                                  
G24  22421644.400   117826467.918          50.000    22421647.480    87987291.359          50.000  
G25  21934329.180   115265612.293          50.000    21934331.760    86074967.867          50.000  
E11  22985717.840   120790782.902          50.000    22985717.980    90200902.547          50.000  
E12  22056750.260   115909028.063          50.000    22056751.120    86555438.137          50.000  
E24  21682420.020   113941709.711          50.000    21682435.780    85086308.984          50.000  
E25  25081246.140   131802810.914          50.000    25081250.940    98424165.207          50.000  
E31  26268407.460   138041366.855          50.000    26268413.520   103082821.957          50.000  
E33  27752550.300   145840620.387          50.000    27752554.320   108906944.754          50.000  
> 2020  6  5 20 19 17.0000000  0 13       0.000000000000
G 2  20821396.340   109417196.000          50.000                                                  
G 5  23787721.220   125005205.766          50.000                                                  
G 6  21829112.340   114712706.363          50.000    21829115.040    85662085.328          50.000  
G12  20348895.460   106934174.363          50.000                                                  
G19  23456504.860   123264748.547          50.000                                                  
G24  22422149.080   117829119.957          50.000    22422152.140    87989271.777          50.000  
G25  21933821.680   115262945.402          50.000    21933824.260    86072976.359          50.000  
E11  22985467.480   120789467.266          50.000    22985467.620    90199920.090          50.000  
E12  22057002.860   115910355.453          50.000    22057003.700    86556429.367          50.000  
E24  21682526.740   113942270.480          50.000    21682542.480    85086727.742          50.000  
E25  25080857.760   131800769.906          50.000    25080862.540    98422641.078          50.000  
E31  26268899.440   138043952.195          50.000    26268905.500   103084752.566          50.000  
E33  27753061.520   145843306.793          50.000    27753065.520   108908950.832          50.000  
> 2020  6  5 20 19 18.0000000  0 13       0.000000000000
G 2  20821513.460   109417811.500          50.000                                                  
G 5  23787107.280   125001979.500          50.000                                                  
G 6  21829574.260   114715133.828          50.000    21829576.980    85663898.047          50.000  
G12  20348671.180   106932995.777          50.000                                                  
G19  23457032.700   123267522.363          50.000                                                  
G24  22422653.800   117831772.344          50.000    22422656.880    87991252.453          50.000  
G25  21933314.240   115260278.754          50.000    21933316.820    86070985.031          50.000  
E11  22985217.180   120788151.957          50.000    22985217.320    90198937.879          50.000  
E12  22057255.500   115911683.109          50.000    22057256.360    86557420.801          50.000  
E24  21682633.520   113942831.645          50.000    21682649.280    85087146.793          50.000  
E25  25080469.400   131798729.137          50.000    25080474.200    98421117.129          50.000  
E31  26269391.460   138046537.754          50.000    26269397.520   103086683.340          50.000  
E33  27753572.720   145845993.188          50.000    27753576.720   108910956.902          50.000  
> 2020  6  5 20 19 19.0000000  0 13       0.000000000000
G 2  20821630.680   109418427.488          50.000                                                  
G 5  23786493.360   124998753.309          50.000                                                  
G 6  21830036.280   114717561.684          50.000    21830038.980    85665711.055          50.000  
G12  20348446.980   106931817.609          50.000                                                  
G19  23457560.540   123270296.211          50.000                                                  
G24  22423158.600   117834425.070          50.000    22423161.680    87993233.383          50.000  
G25  21932806.840   115257612.352          50.000    21932809.420    86068993.891          50.000  
E11  22984966.940   120786836.969          50.000    22984967.080    90197955.906          50.000  
E12  22057508.200   115913011.035          50.000    22057509.040    86558412.430          50.000  
E24  21682740.380   113943393.207          50.000    21682756.140    85087566.141          50.000  
E25  25080081.100   131796688.582          50.000    25080085.900    98419593.340          50.000  
E31  26269883.520   138049123.523          50.000    26269889.580   103088614.270          50.000  
E33  27754083.920   145848679.563          50.000    27754087.920   108912962.961          50.000  
> 2020  6  5 20 19 20.0000000  0 13       0.000000000000
G 2  20821748.000   109419043.973          50.000                                                  
G 5  23785879.460   124995527.191          50.000                                                  
G 6  21830498.360   114719989.973          50.000    21830501.080    85667524.387          50.000  
G12  20348222.860   106930639.875          50.000                                                  
G19  23458088.400   123273070.105          50.000                                                  
G24  22423663.460   117837078.141          50.000    22423666.540    87995214.570          50.000  
G25  21932299.480   115254946.207          50.000    21932302.080    86067002.938          50.000  
E11  22984716.780   120785522.320          50.000    22984716.920    90196974.191          50.000  
E12  22057760.940   115914339.211          50.000    22057761.800    86559404.250          50.000  
E24  21682847.320   113943955.164          50.000    21682863.080    85087985.785          50.000  
E25  25079692.840   131794648.254          50.000    25079697.640    98418069.719          50.000  
E31  26270375.620   138051709.512          50.000    26270381.680   103090545.363          50.000  
E33  27754595.120   145851365.926          50.000    27754599.120   108914969.012          50.000  
> 2020  6  5 20 19 21.0000000  0 14       0.000000000000
G 2  20821865.400   109419660.984          50.000                                                  
G 5  23785265.540   124992301.156          50.000                                                  
G 6  21830960.520   114722418.645          50.000    21830963.220    85669338.012          50.000  
G12  20347998.820   106929462.570          50.000                                                  
G19  23458616.260   123275843.984          50.000                                                  
G24  22424168.400   117839731.496          50.000    22424171.480    87997195.941          50.000  
G25  21931792.180   115252280.305          50.000    21931794.760    86065012.164          50.000  
G29  23885427.000   125518728.676          50.000                                                  
E11  22984466.660   120784208.020          50.000    22984466.800    90195992.742          50.000  
E12  22058013.740   115915667.633          50.000    22058014.580    86560396.250          50.000  
E24  21682954.380   113944517.313          50.000    21682970.140    85088405.453          50.000  
E25  25079304.620   131792608.156          50.000    25079309.400    98416546.273          50.000  
E31  26270867.740   138054295.699          50.000    26270873.800   103092476.609          50.000  
E33  27755106.300   145854052.297          50.000    27755110.320   108916975.082          50.000  
> 2020  6  5 20 19 22.0000000  0 14       0.000000000000
G 2  20821982.900   109420278.449          50.000                                                  
G 5  23784651.660   124989075.184          50.000                                                  
G 6  21831422.760   114724847.719          50.000    21831425.460    85671151.930          50.000  
G12  20347774.860   106928285.703          50.000                                                  
G19  23459144.140   123278617.965          50.000                                                  
G24  22424673.380   117842385.227          50.000    22424676.460    87999177.621          50.000  
G25  21931284.920   115249614.656          50.000    21931287.500    86063021.586          50.000  
G29  23884958.200   125516265.223          50.000                                                  
E11  22984216.620   120782894.039          50.000    22984216.760    90195011.520          50.000  
E12  22058266.580   115916996.344          50.000    22058267.440    86561388.469          50.000  
E24  21683061.460   113945080.070          50.000    21683077.240    85088825.695          50.000  
E25  25078916.440   131790568.293          50.000    25078921.240    98415022.996          50.000  
E31  26271359.920   138056882.109          50.000    26271365.980   103094408.016          50.000  
E33  27755617.500   145856738.648          50.000    27755621.500   108918981.121          50.000  
> 2020  6  5 20 19 23.0000000  0 14       0.000000000000
G 2  20822100.480   109420896.414          50.000                                                  
G 5  23784037.780   124985849.285          50.000                                                  
G 6  21831885.060   114727277.203          50.000    21831887.780    85672966.156          50.000  
G12  20347551.000   106927109.262          50.000                                                  
G19  23459672.020   123281391.984          50.000                                                  
G24  22425178.440   117845039.273          50.000    22425181.520    88001159.539          50.000  
G25  21930777.700   115246949.277          50.000    21930780.300    86061031.207          50.000  
G29  23884489.440   125513801.883          50.000                                                  
E11  22983966.640   120781580.387          50.000    22983966.780    90194030.547          50.000  
E12  22058519.480   115918325.316          50.000    22058520.320    86562380.883          50.000  
E24  21683168.620   113945643.230          50.000    21683184.400    85089246.234          50.000  
E25  25078528.300   131788528.637          50.000    25078533.100    98413499.879          50.000  
E31  26271852.140   138059468.746          50.000    26271858.200   103096339.594          50.000  
E33  27756128.700   145859424.992          50.000    27756132.700   108920987.156          50.000  
> 2020  6  5 20 19 24.0000000  0 14       0.000000000000
G 2  20822218.180   109421514.867          50.000                                                  
G 5  23783423.920   124982623.449          50.000                                                  
G 6  21832347.460   114729707.066          50.000    21832350.160    85674780.664          50.000  
G12  20347327.200   106925933.250          50.000                                                  
G19  23460199.900   123284166.059          50.000                                                  
G24  22425683.540   117847693.645          50.000    22425686.620    88003141.699          50.000  
G25  21930270.540   115244284.125          50.000    21930273.140    86059040.996          50.000  
G29  23884020.720   125511338.680          50.000                                                  
E11  22983716.720   120780267.039          50.000    22983716.860    90193049.801          50.000  
E12  22058772.420   115919654.559          50.000    22058773.260    86563373.496          50.000  
E24  21683275.860   113946206.777          50.000    21683291.640    85089667.066          50.000  
E25  25078140.220   131786489.215          50.000    25078145.000    98411976.934          50.000  
E31  26272344.400   138062055.590          50.000    26272350.460   103098271.324          50.000  
E33  27756639.880   145862111.328          50.000    27756643.900   108922993.184          50.000  
> 2020  6  5 20 19 25.0000000  0 14       0.000000000000
G 2  20822335.960   109422133.816          50.000                                                  
G 5  23782810.080   124979397.699          50.000                                                  
G 6  21832809.920   114732137.355          50.000    21832812.620    85676595.488          50.000  
G12  20347103.500   106924757.672          50.000                                                  
G19  23460727.800   123286940.168          50.000                                                  
G24  22426188.720   117850348.348          50.000    22426191.800    88005124.105          50.000  
G25  21929763.420   115241619.238          50.000    21929766.020    86057050.984          50.000  
G29  23883552.000   125508875.613          50.000                                                  
E11  22983466.860   120778954.059          50.000    22983467.000    90192069.328          50.000  
E12  22059025.400   115920984.055          50.000    22059026.260    86564366.301          50.000  
E24  21683383.180   113946770.719          50.000    21683398.960    85090088.191          50.000  
E25  25077752.160   131784450.012          50.000    25077756.960    98410454.156          50.000  
E31  26272836.700   138064642.633          50.000    26272842.760   103100203.207          50.000  
E33  27757151.080   145864797.648          50.000    27757155.080   108924999.203          50.000  
> 2020  6  5 20 19 26.0000000  0 14       0.000000000000
G 2  20822453.820   109422753.262          50.000                                                  
G 5  23782196.260   124976172.023          50.000                                                  
G 6  21833272.460   114734568.031          50.000    21833275.160    85678410.602          50.000  
G12  20346879.880   106923582.520          50.000                                                  
G19  23461255.700   123289714.320          50.000                                                  
G24  22426693.940   117853003.375          50.000    22426697.020    88007106.758          50.000  
G25  21929256.360   115238954.602          50.000    21929258.960    86055061.156          50.000  
G29  23883083.320   125506412.656          50.000                                                  
E11  22983217.060   120777641.379          50.000    22983217.200    90191089.078          50.000  
E12  22059278.460   115922313.820          50.000    22059279.300    86565359.309          50.000  
E24  21683490.560   113947335.063          50.000    21683506.340    85090509.617          50.000  
E25  25077364.160   131782411.047          50.000    25077368.940    98408931.551          50.000  
E31  26273329.040   138067229.902          50.000    26273335.100   103102135.258          50.000  
E33  27757662.260   145867483.965          50.000    27757666.260   108927005.219          50.000  
> 2020  6  5 20 19 27.0000000  0 14       0.000000000000
G 2  20822571.800   109423373.195          50.000                                                  
G 5  23781582.440   124972946.414          50.000                                                  
G 6  21833735.080   114736999.117          50.000    21833737.780    85680226.023          50.000  
G12  20346656.340   106922407.801          50.000                                                  
G19  23461783.600   123292488.516          50.000                                                  
G24  22427199.240   117855658.742          50.000    22427202.320    88009089.660          50.000  
G25  21928749.340   115236290.203          50.000    21928751.940    86053071.512          50.000  
G29  23882614.660   125503949.828          50.000                                                  
E11  22982967.340   120776329.066          50.000    22982967.480    90190109.109          50.000  
E12  22059531.540   115923643.832          50.000    22059532.400    86566352.500          50.000  
E24  21683598.020   113947899.789          50.000    21683613.800    85090931.328          50.000  
E25  25076976.200   131780372.309          50.000    25076980.980    98407409.117          50.000  
E31  26273821.420   138069817.379          50.000    26273827.480   103104067.465          50.000  
E33  27758173.440   145870170.270          50.000    27758177.460   108929011.223          50.000  
> 2020  6  5 20 19 28.0000000  0 14       0.000000000000
G 2  20822689.860   109423993.621          50.000                                                  
G 5  23780968.640   124969720.879          50.000                                                  
G 6  21834197.780   114739430.598          50.000    21834200.480    85682041.742          50.000  
G12  20346432.860   106921233.492          50.000                                                  
G19  23462311.520   123295262.746          50.000                                                  
G24  22427704.600   117858314.445          50.000    22427707.680    88011072.813          50.000  
G25  21928242.380   115233626.070          50.000    21928244.960    86051082.063          50.000  
G29  23882146.020   125501487.125          50.000                                                  
E11  22982717.680   120775017.070          50.000    22982717.820    90189129.371          50.000  
E12  22059784.680   115924974.117          50.000    22059785.540    86567345.895          50.000  
E24  21683705.560   113948464.941          50.000    21683721.340    85091353.355          50.000  
E25  25076588.280   131778333.777          50.000    25076593.060    98405886.836          50.000  
E31  26274313.840   138072405.078          50.000    26274319.900   103105999.836          50.000  
E33  27758684.620   145872856.555          50.000    27758688.640   108931017.215          50.000  
> 2020  6  5 20 19 29.0000000  0 14       0.000000000000
G 2  20822808.020   109424614.543          50.000                                                  
G 5  23780354.840   124966495.414          50.000                                                  
G 6  21834660.540   114741862.484          50.000    21834663.260    85683857.758          50.000  
G12  20346209.480   106920059.621          50.000                                                  
G19  23462839.440   123298037.023          50.000                                                  
G24  22428210.040   117860970.500          50.000    22428213.120    88013056.230          50.000  
G25  21927735.460   115230962.191          50.000    21927738.040    86049092.805          50.000  
G29  23881677.400   125499024.547          50.000                                                  
E11  22982468.060   120773705.398          50.000    22982468.200    90188149.875          50.000  
E12  22060037.880   115926304.664          50.000    22060038.740    86568339.484          50.000  
E24  21683813.180   113949030.473          50.000    21683828.960    85091775.668          50.000  
E25  25076200.400   131776295.488          50.000    25076205.180    98404364.738          50.000  
E31  26274806.300   138074992.973          50.000    26274812.360   103107932.352          50.000  
E33  27759195.800   145875542.840          50.000    27759199.820   108933023.207          50.000  
> 2020  6  5 20 19 30.0000000  0 14       0.000000000000
G 2  20822926.260   109425235.945          50.000                                                  
G 5  23779741.080   124963270.027          50.000                                                  
G 6  21835123.380   114744294.766          50.000    21835126.100    85685674.070          50.000  
G12  20345986.180   106918886.188          50.000                                                  
G19  23463367.380   123300811.344          50.000                                                  
G24  22428715.520   117863626.883          50.000    22428718.600    88015039.891          50.000  
G25  21927228.580   115228298.551          50.000    21927231.160    86047103.723          50.000  
G29  23881208.800   125496562.105          50.000                                                  
E11  22982218.520   120772394.051          50.000    22982218.660    90187170.625          50.000  
E12  22060291.120   115927635.480          50.000    22060291.980    86569333.273          50.000  
E24  21683920.880   113949596.391          50.000    21683936.640    85092198.270          50.000  
E25  25075812.560   131774257.410          50.000    25075817.360    98402842.797          50.000  
E31  26275298.800   138077581.098          50.000    26275304.860   103109865.039          50.000  
E33  27759706.980   145878229.113          50.000    27759711.000   108935029.188          50.000  
> 2020  6  5 20 19 31.0000000  0 14       0.000000000000
G 2  20823044.600   109425857.844          50.000                                                  
G 5  23779127.320   124960044.711          50.000                                                  
G 6  21835586.320   114746727.453          50.000    21835589.020    85687490.691          50.000  
G12  20345762.960   106917713.176          50.000                                                  
G19  23463895.320   123303585.707          50.000                                                  
G24  22429221.080   117866283.566          50.000    22429224.160    88017023.777          50.000  
G25  21926721.740   115225635.160          50.000    21926724.340    86045114.828          50.000  
G29  23880740.240   125494099.789          50.000                                                  
E11  22981969.040   120771083.000          50.000    22981969.180    90186191.594          50.000  
E12  22060544.420   115928966.543          50.000    22060545.260    86570327.250          50.000  
E24  21684028.640   113950162.715          50.000    21684044.420    85092621.172          50.000  
E25  25075424.780   131772219.547          50.000    25075429.560    98401321.020          50.000  
E31  26275791.340   138080169.414          50.000    26275797.400   103111797.875          50.000  
E33  27760218.160   145880915.371          50.000    27760222.180   108937035.160          50.000  
> 2020  6  5 20 19 32.0000000  0 14       0.000000000000
G 2  20823163.040   109426480.230          50.000                                                  
G 5  23778513.560   124956819.477          50.000                                                  
G 6  21836049.300   114749160.527          50.000    21836052.020    85689307.598          50.000  
G12  20345539.820   106916540.594          50.000                                                  
G19  23464423.280   123306360.109          50.000                                                  
G24  22429726.700   117868940.609          50.000    22429729.780    88019007.930          50.000  
G25  21926214.960   115222972.031          50.000    21926217.560    86043126.129          50.000  
G29  23880271.700   125491637.590          50.000                                                  
E11  22981719.620   120769772.328          50.000    22981719.760    90185212.844          50.000  
E12  22060797.760   115930297.875          50.000    22060798.600    86571321.426          50.000  
E24  21684136.480   113950729.441          50.000    21684152.260    85093044.375          50.000  
E25  25075037.020   131770181.934          50.000    25075041.820    98399799.426          50.000  
E31  26276283.920   138082757.957          50.000    26276289.980   103113730.875          50.000  
E33  27760729.340   145883601.625          50.000    27760733.360   108939041.125          50.000  
> 2020  6  5 20 19 33.0000000  0 14       0.000000000000
G 2  20823281.560   109427103.109          50.000                                                  
G 5  23777899.840   124953594.305          50.000                                                  
G 6  21836512.380   114751594.000          50.000    21836515.100    85691124.797          50.000  
G12  20345316.780   106915368.441          50.000                                                  
G19  23464951.240   123309134.551          50.000                                                  
G24  22430232.380   117871597.980          50.000    22430235.460    88020992.332          50.000  
G25  21925708.240   115220309.145          50.000    21925710.820    86041137.609          50.000  
G29  23879803.180   125489175.523          50.000                                                  
E11  22981470.260   120768461.973          50.000    22981470.400    90184234.336          50.000  
E12  22061051.140   115931629.461          50.000    22061052.000    86572315.793          50.000  
E24  21684244.400   113951296.563          50.000    21684260.180    85093467.875          50.000  
E25  25074649.320   131768144.527          50.000    25074654.100    98398277.984          50.000  
E31  26276776.540   138085346.703          50.000    26276782.600   103115664.027          50.000  
E33  27761240.520   145886287.852          50.000    27761244.520   108941047.074          50.000  
> 2020  6  5 20 19 34.0000000  0 14       0.000000000000
G 2  20823400.180   109427726.488          50.000                                                  
G 5  23777286.120   124950369.234          50.000                                                  
G 6  21836975.540   114754027.883          50.000    21836978.240    85692942.309          50.000  
G12  20345093.800   106914196.719          50.000                                                  
G19  23465479.200   123311909.035          50.000                                                  
G24  22430738.120   117874255.691          50.000    22430741.200    88022976.984          50.000  
G25  21925201.540   115217646.516          50.000    21925204.140    86039149.281          50.000  
G29  23879334.680   125486713.586          50.000                                                  
E11  22981220.980   120767151.938          50.000    22981221.120    90183256.059          50.000  
E12  22061304.600   115932961.320          50.000    22061305.440    86573310.363          50.000  
E24  21684352.380   113951864.070          50.000    21684368.160    85093891.664          50.000  
E25  25074261.660   131766107.359          50.000    25074266.440    98396756.723          50.000  
E31  26277269.200   138087935.668          50.000    26277275.260   103117597.344          50.000  
E33  27761751.680   145888974.082          50.000    27761755.700   108943053.023          50.000  
> 2020  6  5 20 19 35.0000000  0 14       0.000000000000
G 2  20823518.900   109428350.348          50.000                                                  
G 5  23776672.420   124947144.234          50.000                                                  
G 6  21837438.760   114756462.172          50.000    21837441.480    85694760.121          50.000  
G12  20344870.900   106913025.430          50.000                                                  
G19  23466007.180   123314683.570          50.000                                                  
G24  22431243.920   117876913.734          50.000    22431247.000    88024961.887          50.000  
G25  21924694.920   115214984.141          50.000    21924697.500    86037161.148          50.000  
G29  23878866.220   125484251.773          50.000                                                  
E11  22980971.740   120765842.254          50.000    22980971.880    90182278.051          50.000  
E12  22061558.080   115934293.445          50.000    22061558.940    86574305.133          50.000  
E24  21684460.460   113952431.988          50.000    21684476.240    85094315.758          50.000  
E25  25073874.040   131764070.414          50.000    25073878.820    98395235.629          50.000  
E31  26277761.900   138090524.859          50.000    26277767.980   103119530.828          50.000  
E33  27762262.860   145891660.301          50.000    27762266.860   108945058.965          50.000  
> 2020  6  5 20 19 36.0000000  0 14       0.000000000000
G 2  20823637.700   109428974.699          50.000                                                  
G 5  23776058.740   124943919.301          50.000                                                  
G 6  21837902.060   114758896.852          50.000    21837904.780    85696578.227          50.000  
G12  20344648.100   106911854.570          50.000                                                  
G19  23466535.160   123317458.141          50.000                                                  
G24  22431749.800   117879572.105          50.000    22431752.880    88026947.031          50.000  
G25  21924188.320   115212322.008          50.000    21924190.920    86035173.191          50.000  
G29  23878397.760   125481790.086          50.000                                                  
E11  22980722.580   120764532.879          50.000    22980722.720    90181300.270          50.000  
E12  22061811.620   115935625.820          50.000    22061812.480    86575300.086          50.000  
E24  21684568.600   113953000.289          50.000    21684584.380    85094740.141          50.000  
E25  25073486.460   131762033.680          50.000    25073491.240    98393714.691          50.000  
E31  26278254.660   138093114.250          50.000    26278260.720   103121464.465          50.000  
E33  27762774.020   145894346.500          50.000    27762778.040   108947064.891          50.000  
> 2020  6  5 20 19 37.0000000  0 14       0.000000000000
G 2  20823756.600   109429599.535          50.000                                                  
G 5  23775445.060   124940694.445          50.000                                                  
G 6  21838365.440   114761331.930          50.000    21838368.160    85698396.629          50.000  
G12  20344425.380   106910684.137          50.000                                                  
G19  23467063.140   123320232.762          50.000                                                  
G24  22432255.720   117882230.801          50.000    22432258.800    88028932.422          50.000  
G25  21923681.780   115209660.133          50.000    21923684.380    86033185.430          50.000  
G29  23877929.340   125479328.527          50.000                                                  
E11  22980473.480   120763223.844          50.000    22980473.620    90180322.742          50.000  
E12  22062065.220   115936958.453          50.000    22062066.060    86576295.234          50.000  
E24  21684676.820   113953568.984          50.000    21684692.600    85095164.816          50.000  
E25  25073098.920   131759997.188          50.000    25073103.700    98392193.934          50.000  
E31  26278747.440   138095703.859          50.000    26278753.500   103123398.262          50.000  
E33  27763285.180   145897032.699          50.000    27763289.200   108949070.816          50.000  
> 2020  6  5 20 19 38.0000000  0 14       0.000000000000
G 2  20823875.600   109430224.875          50.000                                                  
G 5  23774831.400   124937469.668          50.000                                                  
G 6  21838828.900   114763767.422          50.000    21838831.600    85700215.336          50.000  
G12  20344202.720   106909514.145          50.000                                                  
G19  23467591.140   123323007.422          50.000                                                  
G24  22432761.720   117884889.840          50.000    22432764.800    88030918.066          50.000  
G25  21923175.300   115206998.508          50.000    21923177.880    86031197.852          50.000  
G29  23877460.940   125476867.098          50.000                                                  
E11  22980224.420   120761915.109          50.000    22980224.560    90179345.445          50.000  
E12  22062318.860   115938291.375          50.000    22062319.720    86577290.602          50.000  
E24  21684785.120   113954138.094          50.000    21684800.900    85095589.797          50.000  
E25  25072711.420   131757960.918          50.000    25072716.220    98390673.344          50.000  
E31  26279240.260   138098293.668          50.000    26279246.320   103125332.207          50.000  
E33  27763796.340   145899718.879          50.000    27763800.360   108951076.730          50.000  
> 2020  6  5 20 19 39.0000000  0 14       0.000000000000
G 2  20823994.700   109430850.707          50.000                                                  
G 5  23774217.760   124934244.957          50.000                                                  
G 6  21839292.420   114766203.297          50.000    21839295.140    85702034.336          50.000  
G12  20343980.160   106908344.578          50.000                                                  
G19  23468119.140   123325782.109          50.000                                                  
G24  22433267.780   117887549.191          50.000    22433270.860    88032903.945          50.000  
G25  21922668.840   115204337.133          50.000    21922671.440    86029210.461          50.000  
G29  23876992.580   125474405.793          50.000                                                  
E11  22979975.440   120760606.723          50.000    22979975.580    90178368.402          50.000  
E12  22062572.540   115939624.535          50.000    22062573.400    86578286.141          50.000  
E24  21684893.480   113954707.586          50.000    21684909.260    85096015.066          50.000  
E25  25072323.980   131755924.871          50.000    25072328.760    98389152.918          50.000  
E31  26279733.120   138100883.691          50.000    26279739.200   103127266.316          50.000  
E33  27764307.500   145902405.047          50.000    27764311.520   108953082.633          50.000  
> 2020  6  5 20 19 40.0000000  0 14       0.000000000000
G 2  20824113.880   109431477.023          50.000                                                  
G 5  23773604.120   124931020.332          50.000                                                  
G 6  21839756.040   114768639.574          50.000    21839758.740    85703853.637          50.000  
G12  20343757.680   106907175.449          50.000                                                  
G19  23468647.160   123328556.844          50.000                                                  
G24  22433773.900   117890208.867          50.000    22433776.980    88034890.066          50.000  
G25  21922162.440   115201676.020          50.000    21922165.040    86027223.270          50.000  
G29  23876524.220   125471944.617          50.000                                                  
E11  22979726.540   120759298.703          50.000    22979726.680    90177391.633          50.000  
E12  22062826.280   115940957.957          50.000    22062827.140    86579281.879          50.000  
E24  21685001.920   113955277.480          50.000    21685017.700    85096440.641          50.000  
E25  25071936.580   131753889.047          50.000    25071941.360    98387632.660          50.000  
E31  26280226.020   138103473.926          50.000    26280232.100   103129200.582          50.000  
E33  27764818.660   145905091.215          50.000    27764822.680   108955088.535          50.000  
> 2020  6  5 20 19 41.0000000  0 14       0.000000000000
G 2  20824233.160   109432103.840          50.000                                                  
G 5  23772990.520   124927795.781          50.000                                                  
G 6  21840219.720   114771076.238          50.000    21840222.420    85705673.223          50.000  
G12  20343535.280   106906006.742          50.000                                                  
G19  23469175.180   123331331.621          50.000                                                  
G24  22434280.080   117892868.875          50.000    22434283.160    88036876.434          50.000  
G25  21921656.100   115199015.148          50.000    21921658.680    86025236.258          50.000  
G29  23876055.900   125469483.570          50.000                                                  
E11  22979477.680   120757990.980          50.000    22979477.820    90176415.086          50.000  
E12  22063080.080   115942291.645          50.000    22063080.940    86580277.813          50.000  
E24  21685110.460   113955847.777          50.000    21685126.220    85096866.508          50.000  
E25  25071549.200   131751853.453          50.000    25071554.000    98386112.574          50.000  
E31  26280718.980   138106064.391          50.000    26280725.040   103131135.016          50.000  
E33  27765329.820   145907777.355          50.000    27765333.840   108957094.422          50.000  
> 2020  6  5 20 19 42.0000000  0 14       0.000000000000
G 2  20824352.520   109432731.133          50.000                                                  
G 5  23772376.920   124924571.297          50.000                                                  
G 6  21840683.480   114773513.324          50.000    21840686.180    85707493.121          50.000  
G12  20343312.960   106904838.473          50.000                                                  
G19  23469703.220   123334106.441          50.000                                                  
G24  22434786.320   117895529.188          50.000    22434789.400    88038863.031          50.000  
G25  21921149.800   115196354.531          50.000    21921152.380    86023249.434          50.000  
G29  23875587.600   125467022.641          50.000                                                  
E11  22979228.900   120756683.605          50.000    22979229.040    90175438.805          50.000  
E12  22063333.920   115943625.594          50.000    22063334.780    86581273.949          50.000  
E24  21685219.040   113956418.453          50.000    21685234.820    85097292.668          50.000  
E25  25071161.880   131749818.070          50.000    25071166.680    98384592.652          50.000  
E31  26281211.960   138108655.059          50.000    26281218.040   103133069.609          50.000  
E33  27765840.980   145910463.488          50.000    27765844.980   108959100.297          50.000  
> 2020  6  5 20 19 43.0000000  0 14       0.000000000000
G 2  20824471.980   109433358.926          50.000                                                  
G 5  23771763.320   124921346.895          50.000                                                  
G 6  21841147.300   114775950.801          50.000    21841150.020    85709313.316          50.000  
G12  20343090.740   106903670.629          50.000                                                  
G19  23470231.260   123336881.309          50.000                                                  
G24  22435292.620   117898189.820          50.000    22435295.700    88040849.863          50.000  
G25  21920643.540   115193694.168          50.000    21920646.140    86021262.797          50.000  
G29  23875119.320   125464561.844          50.000                                                  
E11  22978980.160   120755376.523          50.000    22978980.300    90174462.742          50.000  
E12  22063587.820   115944959.805          50.000    22063588.660    86582270.277          50.000  
E24  21685327.720   113956989.527          50.000    21685343.500    85097719.121          50.000  
E25  25070774.620   131747782.934          50.000    25070779.400    98383072.910          50.000  
E31  26281705.000   138111245.926          50.000    26281711.060   103135004.348          50.000  
E33  27766352.120   145913149.613          50.000    27766356.140   108961106.176          50.000  
> 2020  6  5 20 19 44.0000000  0 14       0.000000000000
G 2  20824591.540   109433987.211          50.000                                                  
G 5  23771149.760   124918122.566          50.000                                                  
G 6  21841611.220   114778388.680          50.000    21841613.940    85711133.809          50.000  
G12  20342868.580   106902503.223          50.000                                                  
G19  23470759.300   123339656.203          50.000                                                  
G24  22435798.980   117900850.793          50.000    22435802.060    88042836.953          50.000  
G25  21920137.340   115191034.059          50.000    21920139.920    86019276.352          50.000  
G29  23874651.060   125462101.172          50.000                                                  
E11  22978731.500   120754069.773          50.000    22978731.640    90173486.926          50.000  
E12  22063841.760   115946294.270          50.000    22063842.600    86583266.797          50.000  
E24  21685436.460   113957561.004          50.000    21685452.240    85098145.879          50.000  
E25  25070387.380   131745748.020          50.000    25070392.160    98381553.336          50.000  
E31  26282198.060   138113837.008          50.000    26282204.120   103136939.250          50.000  
E33  27766863.280   145915835.727          50.000    27766867.280   108963112.043          50.000  
> 2020  6  5 20 19 45.0000000  0 14       0.000000000000
G 2  20824711.180   109434615.977          50.000                                                  
G 5  23770536.200   124914898.316          50.000                                                  
G 6  21842075.200   114780826.945          50.000    21842077.920    85712954.594          50.000  
G12  20342646.500   106901336.234          50.000                                                  
G19  23471287.340   123342431.148          50.000                                                  
G24  22436305.420   117903512.113          50.000    22436308.500    88044824.301          50.000  
G25  21919631.180   115188374.191          50.000    21919633.760    86017290.090          50.000  
G29  23874182.840   125459640.629          50.000                                                  
E11  22978482.900   120752763.379          50.000    22978483.040    90172511.375          50.000  
E12  22064095.740   115947628.992          50.000    22064096.600    86584263.508          50.000  
E24  21685545.300   113958132.875          50.000    21685561.060    85098572.930          50.000  
E25  25070000.180   131743713.305          50.000    25070004.960    98380033.910          50.000  
E31  26282691.160   138116428.297          50.000    26282697.240   103138874.309          50.000  
E33  27767374.420   145918521.820          50.000    27767378.440   108965117.891          50.000  
> 2020  6  5 20 19 46.0000000  0 14       0.000000000000
G 2  20824830.920   109435245.230          50.000                                                  
G 5  23769922.660   124911674.141          50.000                                                  
G 6  21842539.260   114783265.621          50.000    21842541.980    85714775.680          50.000  
G12  20342424.520   106900169.668          50.000                                                  
G19  23471815.400   123345206.129          50.000                                                  
G24  22436811.900   117906173.766          50.000    22436815.000    88046811.898          50.000  
G25  21919125.080   115185714.594          50.000    21919127.660    86015304.027          50.000  
G29  23873714.640   125457180.211          50.000                                                  
E11  22978234.360   120751457.301          50.000    22978234.500    90171536.063          50.000  
E12  22064349.780   115948963.988          50.000    22064350.640    86585260.426          50.000  
E24  21685654.180   113958705.137          50.000    21685669.960    85099000.270          50.000  
E25  25069613.040   131741678.836          50.000    25069617.820    98378514.672          50.000  
E31  26283184.320   138119019.809          50.000    26283190.380   103140809.531          50.000  
E33  27767885.580   145921207.906          50.000    27767889.580   108967123.738          50.000  
> 2020  6  5 20 19 47.0000000  0 14       0.000000000000
G 2  20824950.760   109435874.980          50.000                                                  
G 5  23769309.120   124908450.039          50.000                                                  
G 6  21843003.400   114785704.684          50.000    21843006.120    85716597.055          50.000  
G12  20342202.600   106899003.555          50.000                                                  
G19  23472343.480   123347981.152          50.000                                                  
G24  22437318.460   117908835.750          50.000    22437321.560    88048799.742          50.000  
G25  21918619.020   115183055.238          50.000    21918621.600    86013318.148          50.000  
G29  23873246.460   125454719.922          50.000                                                  
E11  22977985.880   120750151.555          50.000    22977986.020    90170560.996          50.000  
E12  22064603.880   115950299.230          50.000    22064604.720    86586257.527          50.000  
E24  21685763.160   113959277.809          50.000    21685778.940    85099427.918          50.000  
E25  25069225.940   131739644.590          50.000    25069230.720    98376995.594          50.000  
E31  26283677.500   138121611.516          50.000    26283683.560   103142744.898          50.000  
E33  27768396.720   145923893.984          50.000    27768400.720   108969129.578          50.000  
> 2020  6  5 20 19 48.0000000  0 14       0.000000000000
G 2  20825070.700   109436505.211          50.000                                                  
G 5  23768695.600   124905226.020          50.000                                                  
G 6  21843467.620   114788144.152          50.000    21843470.320    85718418.738          50.000  
G12  20341980.780   106897837.859          50.000                                                  
G19  23472871.560   123350756.230          50.000                                                  
G24  22437825.080   117911498.051          50.000    22437828.160    88050787.824          50.000  
G25  21918113.000   115180396.145          50.000    21918115.580    86011332.461          50.000  
G29  23872778.300   125452259.770          50.000                                                  
E11  22977737.480   120748846.129          50.000    22977737.600    90169586.172          50.000  
E12  22064858.020   115951634.746          50.000    22064858.860    86587254.828          50.000  
E24  21685872.220   113959850.863          50.000    21685887.980    85099855.852          50.000  
E25  25068838.880   131737610.574          50.000    25068843.660    98375476.691          50.000  
E31  26284170.740   138124203.453          50.000    26284176.800   103144680.438          50.000  
E33  27768907.860   145926580.039          50.000    27768911.860   108971135.402          50.000  
> 2020  6  5 20 19 49.0000000  0 14       0.000000000000
G 2  20825190.720   109437135.941          50.000                                                  
G 5  23768082.100   124902002.063          50.000                                                  
G 6  21843931.900   114790584.020          50.000    21843934.620    85720240.715          50.000  
G12  20341759.040   106896672.602          50.000                                                  
G19  23473399.640   123353531.336          50.000                                                  
G24  22438331.760   117914160.668          50.000    22438334.840    88052776.141          50.000  
G25  21917607.040   115177737.297          50.000    21917609.620    86009346.957          50.000  
G29  23872310.160   125449799.738          50.000                                                  
E11  22977489.120   120747541.039          50.000    22977489.260    90168611.598          50.000  
E12  22065112.200   115952970.512          50.000    22065113.040    86588252.320          50.000  
E24  21685981.340   113960424.316          50.000    21685997.100    85100284.082          50.000  
E25  25068451.860   131735576.781          50.000    25068456.640    98373957.953          50.000  
E31  26284664.000   138126795.602          50.000    26284670.060   103146616.137          50.000  
E33  27769419.000   145929266.094          50.000    27769423.000   108973141.227          50.000  
> 2020  6  5 20 19 50.0000000  0 14       0.000000000000
G 2  20825310.820   109437767.152          50.000                                                  
G 5  23767468.620   124898778.191          50.000                                                  
G 6  21844396.280   114793024.301          50.000    21844398.980    85722063.004          50.000  
G12  20341537.380   106895507.773          50.000                                                  
G19  23473927.740   123356306.496          50.000                                                  
G24  22438838.500   117916823.613          50.000    22438841.580    88054764.703          50.000  
G25  21917101.120   115175078.688          50.000    21917103.700    86007361.637          50.000  
G29  23871842.060   125447339.832          50.000                                                  
E11  22977240.840   120746236.301          50.000    22977240.960    90167637.281          50.000  
E12  22065366.440   115954306.543          50.000    22065367.280    86589250.012          50.000  
E24  21686090.540   113960998.176          50.000    21686106.300    85100712.621          50.000  
E25  25068064.880   131733543.219          50.000    25068069.660    98372439.387          50.000  
E31  26285157.320   138129387.953          50.000    26285163.380   103148551.984          50.000  
E33  27769930.140   145931952.137          50.000    27769934.140   108975147.039          50.000  
> 2020  6  5 20 19 51.0000000  0 14       0.000000000000
G 2  20825431.040   109438398.855          50.000                                                  
G 5  23766855.160   124895554.398          50.000                                                  
G 6  21844860.720   114795464.969          50.000    21844863.420    85723885.578          50.000  
G12  20341315.800   106894343.383          50.000                                                  
G19  23474455.840   123359081.688          50.000                                                  
G24  22439345.300   117919486.895          50.000    22439348.400    88056753.516          50.000  
G25  21916595.260   115172420.348          50.000    21916597.840    86005376.512          50.000  
G29  23871373.980   125444880.051          50.000                                                  
E11  22976992.620   120744931.852          50.000    22976992.740    90166663.184          50.000  
E12  22065620.720   115955642.848          50.000    22065621.580    86590247.902          50.000  
E24  21686199.820   113961572.430          50.000    21686215.580    85101141.449          50.000  
E25  25067677.960   131731509.871          50.000    25067682.720    98370920.984          50.000  
E31  26285650.660   138131980.527          50.000    26285656.720   103150488.000          50.000  
E33  27770441.260   145934638.176          50.000    27770445.280   108977152.848          50.000  
> 2020  6  5 20 19 52.0000000  0 14       0.000000000000
G 2  20825551.340   109439031.051          50.000                                                  
G 5  23766241.700   124892330.676          50.000                                                  
G 6  21845325.240   114797906.031          50.000    21845327.940    85725708.449          50.000  
G12  20341094.300   106893179.414          50.000                                                  
G19  23474983.940   123361856.914          50.000                                                  
G24  22439852.180   117922150.504          50.000    22439855.260    88058742.574          50.000  
G25  21916089.440   115169762.258          50.000    21916092.020    86003391.574          50.000  
G29  23870905.920   125442420.398          50.000                                                  
E11  22976744.460   120743627.785          50.000    22976744.580    90165689.375          50.000  
E12  22065875.060   115956979.406          50.000    22065875.900    86591245.988          50.000  
E24  21686309.160   113962147.078          50.000    21686324.940    85101570.570          50.000  
E25  25067291.060   131729476.762          50.000    25067295.840    98369402.758          50.000  
E31  26286144.060   138134573.309          50.000    26286150.120   103152424.172          50.000  
E33  27770952.400   145937324.191          50.000    27770956.400   108979158.645          50.000  
> 2020  6  5 20 19 53.0000000  0 14       0.000000000000
G 2  20825671.720   109439663.738          50.000                                                  
G 5  23765628.260   124889107.031          50.000                                                  
G 6  21845789.820   114800347.492          50.000    21845792.540    85727531.617          50.000  
G12  20340872.880   106892015.883          50.000                                                  
G19  23475512.060   123364632.191          50.000                                                  
G24  22440359.100   117924814.426          50.000    22440362.180    88060731.867          50.000  
G25  21915583.660   115167104.414          50.000    21915586.240    86001406.824          50.000  
G29  23870437.880   125439960.863          50.000                                                  
E11  22976496.360   120742323.996          50.000    22976496.480    90164715.770          50.000  
E12  22066129.460   115958316.219          50.000    22066130.300    86592244.262          50.000  
E24  21686418.600   113962722.129          50.000    21686434.360    85101999.996          50.000  
E25  25066904.220   131727443.871          50.000    25066908.980    98367884.695          50.000  
E31  26286637.480   138137166.305          50.000    26286643.540   103154360.504          50.000  
E33  27771463.540   145940010.195          50.000    27771467.540   108981164.430          50.000  
> 2020  6  5 20 19 54.0000000  0 14       0.000000000000
G 2  20825792.220   109440296.914          50.000                                                  
G 5  23765014.820   124885883.465          50.000                                                  
G 6  21846254.500   114802789.352          50.000    21846257.200    85729355.086          50.000  
G12  20340651.560   106890852.773          50.000                                                  
G19  23476040.180   123367407.500          50.000                                                  
G24  22440866.080   117927478.684          50.000    22440869.180    88062721.410          50.000  
G25  21915077.940   115164446.824          50.000    21915080.520    85999422.258          50.000  
G29  23869969.860   125437501.461          50.000                                                  
E11  22976248.320   120741020.574          50.000    22976248.440    90163742.438          50.000  
E12  22066383.900   115959653.309          50.000    22066384.740    86593242.738          50.000  
E24  21686528.100   113963297.574          50.000    21686543.860    85102429.719          50.000  
E25  25066517.420   131725411.223          50.000    25066522.180    98366366.813          50.000  
E31  26287130.960   138139759.508          50.000    26287137.020   103156296.988          50.000  
E33  27771974.660   145942696.188          50.000    27771978.660   108983170.207          50.000  
> 2020  6  5 20 19 55.0000000  0 14       0.000000000000
G 2  20825912.800   109440930.582          50.000                                                  
G 5  23764401.400   124882659.973          50.000                                                  
G 6  21846719.240   114805231.621          50.000    21846721.960    85731178.859          50.000  
G12  20340430.300   106889690.102          50.000                                                  
G19  23476568.300   123370182.852          50.000                                                  
G24  22441373.140   117930143.246          50.000    22441376.220    88064711.180          50.000  
G25  21914572.260   115161789.492          50.000    21914574.840    85997437.891          50.000  
G29  23869501.880   125435042.184          50.000                                                  
E11  22976000.340   120739717.445          50.000    22976000.460    90162769.328          50.000  
E12  22066638.380   115960990.641          50.000    22066639.220    86594241.402          50.000  
E24  21686637.680   113963873.410          50.000    21686653.440    85102859.730          50.000  
E25  25066130.660   131723378.781          50.000    25066135.420    98364849.086          50.000  
E31  26287624.460   138142352.922          50.000    26287630.520   103158233.629          50.000  
E33  27772485.780   145945382.176          50.000    27772489.800   108985175.977          50.000  
> 2020  6  5 20 19 56.0000000  0 14       0.000000000000
G 2  20826033.460   109441564.727          50.000                                                  
G 5  23763788.020   124879436.566          50.000                                                  
G 6  21847184.060   114807674.270          50.000    21847186.780    85733002.914          50.000  
G12  20340209.140   106888527.863          50.000                                                  
G19  23477096.440   123372958.250          50.000                                                  
G24  22441880.240   117932808.137          50.000    22441883.340    88066701.195          50.000  
G25  21914066.640   115159132.422          50.000    21914069.220    85995453.715          50.000  
G29  23869033.920   125432583.035          50.000                                                  
E11  22975752.440   120738414.676          50.000    22975752.560    90161796.484          50.000  
E12  22066892.920   115962328.238          50.000    22066893.760    86595240.262          50.000  
E24  21686747.340   113964449.645          50.000    21686763.100    85103290.035          50.000  
E25  25065743.940   131721346.566          50.000    25065748.700    98363331.527          50.000  
E31  26288118.020   138144946.539          50.000    26288124.080   103160170.426          50.000  
E33  27772996.920   145948068.137          50.000    27773000.920   108987181.730          50.000  
> 2020  6  5 20 19 57.0000000  0 14       0.000000000000
G 2  20826154.240   109442199.367          50.000                                                  
G 5  23763174.620   124876213.230          50.000                                                  
G 6  21847648.960   114810117.320          50.000    21847651.660    85734827.270          50.000  
G12  20339988.040   106887366.051          50.000                                                  
G19  23477624.600   123375733.680          50.000                                                  
G24  22442387.420   117935473.367          50.000    22442390.500    88068691.465          50.000  
G25  21913561.060   115156475.598          50.000    21913563.640    85993469.723          50.000  
G29  23868565.980   125430124.016          50.000                                                  
E11  22975504.580   120737112.246          50.000    22975504.700    90160823.895          50.000  
E12  22067147.500   115963666.109          50.000    22067148.340    86596239.324          50.000  
E24  21686857.060   113965026.273          50.000    21686872.820    85103720.641          50.000  
E25  25065357.260   131719314.590          50.000    25065362.020    98361814.145          50.000  
E31  26288611.620   138147540.387          50.000    26288617.660   103162107.395          50.000  
E33  27773508.040   145950754.098          50.000    27773512.040   108989187.484          50.000  
> 2020  6  5 20 19 58.0000000  0 14       0.000000000000
G 2  20826275.100   109442834.504          50.000                                                  
G 5  23762561.260   124872989.961          50.000                                                  
G 6  21848113.920   114812560.773          50.000    21848116.640    85736651.926          50.000  
G12  20339767.040   106886204.672          50.000                                                  
G19  23478152.740   123378509.160          50.000                                                  
G24  22442894.660   117938138.926          50.000    22442897.740    88070681.977          50.000  
G25  21913055.520   115153819.016          50.000    21913058.100    85991485.914          50.000  
G29  23868098.060   125427665.109          50.000                                                  
E11  22975256.800   120735810.117          50.000    22975256.920    90159851.531          50.000  
E12  22067402.140   115965004.227          50.000    22067402.980    86597238.570          50.000  
E24  21686966.860   113965603.301          50.000    21686982.620    85104151.543          50.000  
E25  25064970.640   131717282.824          50.000    25064975.400    98360296.922          50.000  
E31  26289105.240   138150134.426          50.000    26289111.300   103164044.504          50.000  
E33  27774019.160   145953440.047          50.000    27774023.160   108991193.227          50.000  
> 2020  6  5 20 19 59.0000000  0 14       0.000000000000
G 2  20826396.040   109443470.125          50.000                                                  
G 5  23761947.900   124869766.781          50.000                                                  
G 6  21848578.980   114815004.613          50.000    21848581.680    85738476.871          50.000  
G12  20339546.120   106885043.715          50.000                                                  
G19  23478680.920   123381284.680          50.000                                                  
G24  22443401.960   117940804.813          50.000    22443405.040    88072672.738          50.000  
G25  21912550.040   115151162.695          50.000    21912552.620    85989502.297          50.000  
G29  23867630.180   125425206.352          50.000                                                  
E11  22975009.080   120734508.332          50.000    22975009.200    90158879.422          50.000  
E12  22067656.820   115966342.602          50.000    22067657.660    86598238.008          50.000  
E24  21687076.740   113966180.727          50.000    21687092.500    85104582.738          50.000  
E25  25064584.040   131715251.309          50.000    25064588.820    98358779.883          50.000  
E31  26289598.920   138152728.699          50.000    26289604.980   103165981.781          50.000  
E33  27774530.260   145956125.977          50.000    27774534.280   108993198.957          50.000  
> 2020  6  5 20 20  0.0000000  0 14       0.000000000000
G 2  20826517.100   109444106.238          50.000                                                  
G 5  23761334.560   124866543.672          50.000                                                  
G 6  21849044.100   114817448.863          50.000    21849046.820    85740302.121          50.000  
G12  20339325.280   106883883.211          50.000                                                  
G19  23479209.080   123384060.242          50.000                                                  
G24  22443909.320   117943471.059          50.000    22443912.420    88074663.766          50.000  
G25  21912044.600   115148506.629          50.000    21912047.180    85987518.875          50.000  
G29  23867162.300   125422747.711          50.000                                                  
E11  22974761.420   120733206.883          50.000    22974761.540    90157907.559          50.000  
E12  22067911.560   115967681.250          50.000    22067912.400    86599237.648          50.000  
E24  21687186.700   113966758.563          50.000    21687202.460    85105014.238          50.000  
E25  25064197.500   131713220.004          50.000    25064202.260    98357263.000          50.000  
E31  26290092.620   138155323.180          50.000    26290098.680   103167919.219          50.000  
E33  27775041.380   145958811.898          50.000    27775045.380   108995204.676          50.000  
> 2020  6  5 20 20  1.0000000  0 14       0.000000000000
G 2  20826638.220   109444742.828          50.000                                                  
G 5  23760721.240   124863320.641          50.000                                                  
G 6  21849509.300   114819893.508          50.000    21849512.000    85742127.668          50.000  
G12  20339104.520   106882723.117          50.000                                                  
G19  23479737.260   123386835.840          50.000                                                  
G24  22444416.760   117946137.613          50.000    22444419.840    88076655.020          50.000  
G25  21911539.220   115145850.816          50.000    21911541.800    85985535.637          50.000  
G29  23866694.460   125420289.195          50.000                                                  
E11  22974513.820   120731905.742          50.000    22974513.940    90156935.926          50.000  
E12  22068166.340   115969020.152          50.000    22068167.180    86600237.477          50.000  
E24  21687296.740   113967336.770          50.000    21687312.500    85105446.016          50.000  
E25  25063811.000   131711188.922          50.000    25063815.760    98355746.285          50.000  
E31  26290586.380   138157917.863          50.000    26290592.440   103169856.805          50.000  
E33  27775552.500   145961497.813          50.000    27775556.500   108997210.387          50.000  
> 2020  6  5 20 20  2.0000000  0 14       0.000000000000
G 2  20826759.460   109445379.914          50.000                                                  
G 5  23760107.920   124860097.680          50.000                                                  
G 6  21849974.560   114822338.543          50.000    21849977.280    85743953.504          50.000  
G12  20338883.840   106881563.465          50.000                                                  
G19  23480265.440   123389611.480          50.000                                                  
G24  22444924.240   117948804.500          50.000    22444927.340    88078646.527          50.000  
G25  21911033.880   115143195.258          50.000    21911036.460    85983552.594          50.000  
G29  23866226.640   125417830.805          50.000                                                  
E11  22974266.280   120730604.934          50.000    22974266.400    90155964.547          50.000  
E12  22068421.180   115970359.316          50.000    22068422.020    86601237.504          50.000  
E24  21687406.840   113967915.379          50.000    21687422.600    85105878.094          50.000  
E25  25063424.540   131709158.074          50.000    25063429.300    98354229.742          50.000  
E31  26291080.180   138160512.754          50.000    26291086.240   103171794.547          50.000  
E33  27776063.600   145964183.711          50.000    27776067.620   108999216.090          50.000  
> 2020  6  5 20 20  3.0000000  0 14       0.000000000000
G 2  20826880.780   109446017.492          50.000                                                  
G 5  23759494.620   124856874.797          50.000                                                  
G 6  21850439.920   114824783.977          50.000    21850442.640    85745779.641          50.000  
G12  20338663.240   106880404.234          50.000                                                  
G19  23480793.640   123392387.160          50.000                                                  
G24  22445431.800   117951471.707          50.000    22445434.880    88080638.273          50.000  
G25  21910528.580   115140539.953          50.000    21910531.160    85981569.734          50.000  
G29  23865758.840   125415372.547          50.000                                                  
E11  22974018.820   120729304.469          50.000    22974018.940    90154993.418          50.000  
E12  22068676.060   115971698.742          50.000    22068676.900    86602237.723          50.000  
E24  21687517.020   113968494.387          50.000    21687532.780    85106310.469          50.000  
E25  25063038.120   131707127.445          50.000    25063042.880    98352713.363          50.000  
E31  26291574.000   138163107.852          50.000    26291580.060   103173732.445          50.000  
E33  27776574.720   145966869.598          50.000    27776578.720   109001221.781          50.000  
> 2020  6  5 20 20  4.0000000  0 14       0.000000000000
G 2  20827002.200   109446655.551          50.000                                                  
G 5  23758881.340   124853651.992          50.000                                                  
G 6  21850905.340   114827229.809          50.000    21850908.060    85747606.074          50.000  
G12  20338442.740   106879245.449          50.000                                                  
G19  23481321.840   123395162.875          50.000                                                  
G24  22445939.400   117954139.246          50.000    22445942.500    88082630.262          50.000  
G25  21910023.340   115137884.910          50.000    21910025.920    85979587.074          50.000  
G29  23865291.080   125412914.418          50.000                                                  
E11  22973771.400   120728004.344          50.000    22973771.520    90154022.547          50.000  
E12  22068931.000   115973038.422          50.000    22068931.840    86603238.133          50.000  
E24  21687627.280   113969073.801          50.000    21687643.040    85106743.148          50.000  
E25  25062651.760   131705097.059          50.000    25062656.520    98351197.168          50.000  
E31  26292067.880   138165703.180          50.000    26292073.940   103175670.512          50.000  
E33  27777085.820   145969555.473          50.000    27777089.820   109003227.469          50.000  
> 2020  6  5 20 20  5.0000000  0 14       0.000000000000
G 2  20827123.720   109447294.102          50.000                                                  
G 5  23758268.080   124850429.277          50.000                                                  
G 6  21851370.840   114829676.039          50.000    21851373.560    85749432.801          50.000  
G12  20338222.300   106878087.082          50.000                                                  
G19  23481850.040   123397938.633          50.000                                                  
G24  22446447.080   117956807.105          50.000    22446450.180    88084622.492          50.000  
G25  21909518.140   115135230.113          50.000    21909520.740    85977604.598          50.000  
G29  23864823.340   125410456.410          50.000                                                  
E11  22973524.060   120726704.543          50.000    22973524.180    90153051.918          50.000  
E12  22069185.980   115974378.359          50.000    22069186.820    86604238.734          50.000  
E24  21687737.620   113969653.605          50.000    21687753.380    85107176.117          50.000  
E25  25062265.420   131703066.887          50.000    25062270.200    98349681.129          50.000  
E31  26292561.800   138168298.703          50.000    26292567.860   103177608.723          50.000  
E33  27777596.920   145972241.336          50.000    27777600.920   109005233.141          50.000  
> 2020  6  5 20 20  6.0000000  0 14       0.000000000000
G 2  20827245.320   109447933.148          50.000                                                  
G 5  23757654.820   124847206.633          50.000                                                  
G 6  21851836.420   114832122.668          50.000    21851839.140    85751259.832          50.000  
G12  20338001.960   106876929.156          50.000                                                  
G19  23482378.260   123400714.438          50.000                                                  
G24  22446954.820   117959475.281          50.000    22446957.900    88086614.965          50.000  
G25  21909013.000   115132575.566          50.000    21909015.580    85975622.305          50.000  
G29  23864355.620   125407998.523          50.000                                                  
E11  22973276.780   120725405.059          50.000    22973276.900    90152081.523          50.000  
E12  22069441.020   115975718.563          50.000    22069441.840    86605239.535          50.000  
E24  21687848.020   113970233.809          50.000    21687863.780    85107609.387          50.000  
E25  25061879.140   131701036.949          50.000    25061883.900    98348165.270          50.000  
E31  26293055.740   138170894.445          50.000    26293061.800   103179547.105          50.000  
E33  27778108.020   145974927.184          50.000    27778112.040   109007238.809          50.000  
> 2020  6  5 20 20  7.0000000  0 14       0.000000000000
G 2  20827367.020   109448572.680          50.000                                                  
G 5  23757041.600   124843984.066          50.000                                                  
G 6  21852302.060   114834569.691          50.000    21852304.780    85753087.152          50.000  
G12  20337781.680   106875771.652          50.000                                                  
G19  23482906.480   123403490.281          50.000                                                  
G24  22447462.620   117962143.797          50.000    22447465.700    88088607.684          50.000  
G25  21908507.900   115129921.270          50.000    21908510.480    85973640.203          50.000  
G29  23863887.920   125405540.770          50.000                                                  
E11  22973029.560   120724105.910          50.000    22973029.680    90151111.379          50.000  
E12  22069696.100   115977059.031          50.000    22069696.920    86606240.535          50.000  
E24  21687958.500   113970814.406          50.000    21687974.260    85108042.949          50.000  
E25  25061492.900   131699007.227          50.000    25061497.660    98346649.566          50.000  
E31  26293549.740   138173490.402          50.000    26293555.800   103181485.641          50.000  
E33  27778619.120   145977613.023          50.000    27778623.120   109009244.469          50.000  
> 2020  6  5 20 20  8.0000000  0 14       0.000000000000
G 2  20827488.800   109449212.699          50.000                                                  
G 5  23756428.380   124840761.586          50.000                                                  
G 6  21852767.800   114837017.113          50.000    21852770.520    85754914.773          50.000  
G12  20337561.500   106874614.598          50.000                                                  
G19  23483434.720   123406266.164          50.000                                                  
G24  22447970.480   117964812.648          50.000    22447973.580    88090600.656          50.000  
G25  21908002.860   115127267.234          50.000    21908005.440    85971658.293          50.000  
G29  23863420.240   125403083.145          50.000                                                  
E11  22972782.400   120722807.074          50.000    22972782.520    90150141.473          50.000  
E12  22069951.220   115978399.754          50.000    22069952.060    86607241.723          50.000  
E24  21688069.060   113971395.398          50.000    21688084.820    85108476.805          50.000  
E25  25061106.700   131696977.734          50.000    25061111.460    98345134.035          50.000  
E31  26294043.780   138176086.563          50.000    26294049.840   103183424.332          50.000  
E33  27779130.220   145980298.852          50.000    27779134.220   109011250.113          50.000  
> 2020  6  5 20 20  9.0000000  0 14       0.000000000000
G 2  20827610.680   109449853.203          50.000                                                  
G 5  23755815.160   124837539.168          50.000                                                  
G 6  21853233.600   114839464.938          50.000    21853236.320    85756742.691          50.000  
G12  20337341.400   106873457.965          50.000                                                  
G19  23483962.960   123409042.086          50.000                                                  
G24  22448478.420   117967481.824          50.000    22448481.500    88092593.875          50.000  
G25  21907497.860   115124613.453          50.000    21907500.440    85969676.574          50.000  
G29  23862952.580   125400625.633          50.000                                                  
E11  22972535.300   120721508.598          50.000    22972535.420    90149171.828          50.000  
E12  22070206.400   115979740.730          50.000    22070207.240    86608243.105          50.000  
E24  21688179.700   113971976.789          50.000    21688195.460    85108910.965          50.000  
E25  25060720.540   131694948.477          50.000    25060725.300    98343618.684          50.000  
E31  26294537.860   138178682.945          50.000    26294543.920   103185363.184          50.000  
E33  27779641.320   145982984.660          50.000    27779645.320   109013255.754          50.000  
> 2020  6  5 20 20 10.0000000  0 14       0.000000000000
G 2  20827732.660   109450494.207          50.000                                                  
G 5  23755201.960   124834316.832          50.000                                                  
G 6  21853699.480   114841913.141          50.000    21853702.200    85758570.898          50.000  
G12  20337121.380   106872301.770          50.000                                                  
G19  23484491.200   123411818.047          50.000                                                  
G24  22448986.400   117970151.340          50.000    22448989.500    88094587.340          50.000  
G25  21906992.900   115121959.930          50.000    21906995.480    85967695.047          50.000  
G29  23862484.960   125398168.246          50.000                                                  
E11  22972288.280   120720210.441          50.000    22972288.400    90148202.430          50.000  
E12  22070461.640   115981081.977          50.000    22070462.480    86609244.684          50.000  
E24  21688290.420   113972558.582          50.000    21688306.180    85109345.418          50.000  
E25  25060334.440   131692919.453          50.000    25060339.200    98342103.504          50.000  
E31  26295031.960   138181279.527          50.000    26295038.020   103187302.191          50.000  
E33  27780152.400   145985670.457          50.000    27780156.420   109015261.379          50.000  
> 2020  6  5 20 20 11.0000000  0 14       0.000000000000
G 2  20827854.740   109451135.703          50.000                                                  
G 5  23754588.780   124831094.566          50.000                                                  
G 6  21854165.440   114844361.762          50.000    21854168.140    85760399.414          50.000  
G12  20336901.440   106871146.000          50.000                                                  
G19  23485019.460   123414594.051          50.000                                                  
G24  22449494.440   117972821.160          50.000    22449497.540    88096581.035          50.000  
G25  21906488.000   115119306.656          50.000    21906490.580    85965713.707          50.000  
G29  23862017.360   125395710.996          50.000                                                  
E11  22972041.320   120718912.617          50.000    22972041.440    90147233.270          50.000  
E12  22070716.920   115982423.477          50.000    22070717.760    86610246.453          50.000  
E24  21688401.200   113973140.770          50.000    21688416.960    85109780.168          50.000  
E25  25059948.360   131690890.652          50.000    25059953.120    98340588.488          50.000  
E31  26295526.120   138183876.316          50.000    26295532.180   103189241.352          50.000  
E33  27780663.500   145988356.242          50.000    27780667.500   109017266.992          50.000  
> 2020  6  5 20 20 12.0000000  0 14       0.000000000000
G 2  20827976.900   109451777.684          50.000                                                  
G 5  23753975.620   124827872.391          50.000                                                  
G 6  21854631.460   114846810.762          50.000    21854634.180    85762228.211          50.000  
G12  20336681.580   106869990.668          50.000                                                  
G19  23485547.720   123417370.098          50.000                                                  
G24  22450002.560   117975491.313          50.000    22450005.660    88098574.980          50.000  
G25  21905983.140   115116653.633          50.000    21905985.720    85963732.555          50.000  
G29  23861549.780   125393253.867          50.000                                                  
E11  22971794.400   120717615.082          50.000    22971794.520    90146264.336          50.000  
E12  22070972.240   115983765.246          50.000    22070973.080    86611248.422          50.000  
E24  21688512.060   113973723.355          50.000    21688527.820    85110215.215          50.000  
E25  25059562.340   131688862.070          50.000    25059567.100    98339073.641          50.000  
E31  26296020.320   138186473.328          50.000    26296026.380   103191180.676          50.000  
E33  27781174.580   145991042.012          50.000    27781178.580   109019272.602          50.000  
> 2020  6  5 20 20 13.0000000  0 14       0.000000000000
G 2  20828099.160   109452420.160          50.000                                                  
G 5  23753362.480   124824650.285          50.000                                                  
G 6  21855097.560   114849260.164          50.000    21855100.280    85764057.309          50.000  
G12  20336461.820   106868835.762          50.000                                                  
G19  23486075.980   123420146.180          50.000                                                  
G24  22450510.740   117978161.773          50.000    22450513.820    88100569.156          50.000  
G25  21905478.340   115114000.875          50.000    21905480.920    85961751.598          50.000  
G29  23861082.220   125390796.859          50.000                                                  
E11  22971547.560   120716317.922          50.000    22971547.680    90145295.676          50.000  
E12  22071227.620   115985107.277          50.000    22071228.460    86612250.590          50.000  
E24  21688623.000   113974306.336          50.000    21688638.760    85110650.559          50.000  
E25  25059176.360   131686833.715          50.000    25059181.120    98337558.961          50.000  
E31  26296514.560   138189070.547          50.000    26296520.620   103193120.156          50.000  
E33  27781685.660   145993727.785          50.000    27781689.680   109021278.207          50.000  
> 2020  6  5 20 20 14.0000000  0 14       0.000000000000
G 2  20828221.500   109453063.121          50.000                                                  
G 5  23752749.340   124821428.270          50.000                                                  
G 6  21855563.740   114851709.965          50.000    21855566.460    85765886.703          50.000  
G12  20336242.120   106867681.297          50.000                                                  
G19  23486604.260   123422922.305          50.000                                                  
G24  22451018.960   117980832.566          50.000    22451022.060    88102563.578          50.000  
G25  21904973.580   115111348.352          50.000    21904976.160    85959770.820          50.000  
G29  23860614.700   125388339.980          50.000                                                  
E11  22971300.780   120715021.082          50.000    22971300.900    90144327.258          50.000  
E12  22071483.060   115986449.551          50.000    22071483.880    86613252.934          50.000  
E24  21688734.020   113974889.711          50.000    21688749.780    85111086.195          50.000  
E25  25058790.420   131684805.590          50.000    25058795.180    98336044.453          50.000  
E31  26297008.820   138191667.969          50.000    26297014.880   103195059.789          50.000  
E33  27782196.740   145996413.523          50.000    27782200.760   109023283.789          50.000  
> 2020  6  5 20 20 15.0000000  0 14       0.000000000000
G 2  20828343.940   109453706.570          50.000                                                  
G 5  23752136.220   124818206.324          50.000                                                  
G 6  21856030.000   114854160.152          50.000    21856032.720    85767716.391          50.000  
G12  20336022.520   106866527.258          50.000                                                  
G19  23487132.560   123425698.473          50.000                                                  
G24  22451527.260   117983503.680          50.000    22451530.360    88104558.238          50.000  
G25  21904468.860   115108696.102          50.000    21904471.440    85957790.246          50.000  
G29  23860147.180   125385883.238          50.000                                                  
E11  22971054.060   120713724.559          50.000    22971054.180    90143359.074          50.000  
E12  22071738.520   115987792.094          50.000    22071739.360    86614255.484          50.000  
E24  21688845.100   113975473.473          50.000    21688860.860    85111522.121          50.000  
E25  25058404.520   131682777.703          50.000    25058409.280    98334530.121          50.000  
E31  26297503.140   138194265.613          50.000    26297509.200   103196999.586          50.000  
E33  27782707.820   145999099.266          50.000    27782711.840   109025289.375          50.000  
> 2020  6  5 20 20 16.0000000  0 14       0.000000000000
G 2  20828466.480   109454350.512          50.000                                                  
G 5  23751523.120   124814984.457          50.000                                                  
G 6  21856496.320   114856610.742          50.000    21856499.040    85769546.375          50.000  
G12  20335803.000   106865373.660          50.000                                                  
G19  23487660.840   123428474.676          50.000                                                  
G24  22452035.620   117986175.129          50.000    22452038.700    88106553.152          50.000  
G25  21903964.200   115106044.109          50.000    21903966.780    85955809.863          50.000  
G29  23859679.700   125383426.613          50.000                                                  
E11  22970807.400   120712428.383          50.000    22970807.520    90142391.148          50.000  
E12  22071994.060   115989134.906          50.000    22071994.900    86615258.230          50.000  
E24  21688956.260   113976057.652          50.000    21688972.020    85111958.359          50.000  
E25  25058018.660   131680750.035          50.000    25058023.420    98333015.953          50.000  
E31  26297997.500   138196863.469          50.000    26298003.560   103198939.539          50.000  
E33  27783218.900   146001784.988          50.000    27783222.920   109027294.945          50.000  
> 2020  6  5 20 20 17.0000000  0 14       0.000000000000
G 2  20828589.120   109454994.945          50.000                                                  
G 5  23750910.020   124811762.785          50.000                                                  
G 6  21856962.740   114859061.660          50.000    21856965.440    85771376.668          50.000  
G12  20335583.560   106864220.402          50.000                                                  
G19  23488189.160   123431250.934          50.000                                                  
G24  22452544.080   117988846.715          50.000    22452547.180    88108548.156          50.000  
G25  21903459.600   115103392.387          50.000    21903462.140    85953829.805          50.000  
G29  23859212.240   125380970.129          50.000                                                  
E11  22970560.800   120711132.617          50.000    22970560.900    90141423.586          50.000  
E12  22072249.640   115990477.965          50.000    22072250.480    86616261.168          50.000  
E24  21689067.520   113976642.203          50.000    21689083.280    85112394.863          50.000  
E25  25057632.840   131678722.680          50.000    25057637.600    98331502.066          50.000  
E31  26298491.900   138199461.527          50.000    26298497.960   103200879.641          50.000  
E33  27783729.980   146004470.801          50.000    27783733.980   109029300.625          50.000  
> 2020  6  5 20 20 18.0000000  0 14       0.000000000000
G 2  20828711.840   109455639.840          50.000                                                  
G 5  23750296.960   124808541.066          50.000                                                  
G 6  21857429.220   114861513.023          50.000    21857431.920    85773207.238          50.000  
G12  20335364.200   106863067.656          50.000                                                  
G19  23488717.460   123434027.215          50.000                                                  
G24  22453052.560   117991518.766          50.000    22453055.640    88110543.527          50.000  
G25  21902955.040   115100740.887          50.000    21902957.580    85951849.797          50.000  
G29  23858744.820   125378513.746          50.000                                                  
E11  22970314.260   120709837.105          50.000    22970314.380    90140456.160          50.000  
E12  22072505.260   115991821.285          50.000    22072506.100    86617264.297          50.000  
E24  21689178.840   113977227.172          50.000    21689194.600    85112831.688          50.000  
E25  25057247.080   131676695.445          50.000    25057251.820    98329988.219          50.000  
E31  26298986.340   138202059.793          50.000    26298992.400   103202819.902          50.000  
E33  27784241.040   146007156.484          50.000    27784245.040   109031306.164          50.000  
> 2020  6  5 20 20 19.0000000  0 14       0.000000000000
G 2  20828834.660   109456285.242          50.000                                                  
G 5  23749683.900   124805319.434          50.000                                                  
G 6  21857895.780   114863964.789          50.000    21857898.480    85775038.109          50.000  
G12  20335144.940   106861915.352          50.000                                                  
G19  23489245.780   123436803.527          50.000                                                  
G24  22453561.100   117994191.137          50.000    22453564.180    88112539.137          50.000  
G25  21902450.520   115098089.645          50.000    21902453.060    85949869.977          50.000  
G29  23858277.400   125376057.500          50.000                                                  
E11  22970067.800   120708541.910          50.000    22970067.900    90139488.969          50.000  
E12  22072760.940   115993164.863          50.000    22072761.780    86618267.617          50.000  
E24  21689290.220   113977812.520          50.000    21689305.980    85113268.797          50.000  
E25  25056861.360   131674668.461          50.000    25056866.100    98328474.566          50.000  
E31  26299480.820   138204658.266          50.000    26299486.880   103204760.320          50.000  
E33  27784752.120   146009842.172          50.000    27784756.120   109033311.711          50.000  
> 2020  6  5 20 20 20.0000000  0 14       0.000000000000
G 2  20828957.560   109456931.129          50.000                                                  
G 5  23749070.860   124802097.887          50.000                                                  
G 6  21858362.420   114866416.953          50.000    21858365.120    85776869.277          50.000  
G12  20334925.740   106860763.473          50.000                                                  
G19  23489774.100   123439579.887          50.000                                                  
G24  22454069.700   117996863.863          50.000    22454072.780    88114535.008          50.000  
G25  21901946.060   115095438.660          50.000    21901948.600    85947890.355          50.000  
G29  23857810.020   125373601.371          50.000                                                  
E11  22969821.400   120707247.047          50.000    22969821.500    90138522.027          50.000  
E12  22073016.660   115994508.703          50.000    22073017.500    86619271.133          50.000  
E24  21689401.700   113978398.285          50.000    21689417.460    85113706.219          50.000  
E25  25056475.680   131672641.699          50.000    25056480.440    98326961.074          50.000  
E31  26299975.340   138207256.957          50.000    26299981.400   103206700.898          50.000  
E33  27785263.180   146012527.836          50.000    27785267.180   109035317.238          50.000  
> 2020  6  5 20 20 21.0000000  0 14       0.000000000000
G 2  20829080.560   109457577.500          50.000                                                  
G 5  23748457.840   124798876.410          50.000                                                  
G 6  21858829.120   114868869.508          50.000    21858831.820    85778700.742          50.000  
G12  20334706.640   106859612.031          50.000                                                  
G19  23490302.440   123442356.285          50.000                                                  
G24  22454578.360   117999536.918          50.000    22454581.460    88116531.125          50.000  
G25  21901441.640   115092787.918          50.000    21901444.180    85945910.914          50.000  
G29  23857342.660   125371145.371          50.000                                                  
E11  22969575.040   120705952.457          50.000    22969575.160    90137555.285          50.000  
E12  22073272.440   115995852.789          50.000    22073273.280    86620274.832          50.000  
E24  21689513.240   113978984.430          50.000    21689529.000    85114143.922          50.000  
E25  25056090.040   131670615.164          50.000    25056094.800    98325447.754          50.000  
E31  26300469.880   138209855.852          50.000    26300475.960   103208641.629          50.000  
E33  27785774.260   146015213.484          50.000    27785778.240   109037322.754          50.000  
> 2020  6  5 20 20 22.0000000  0 14       0.000000000000
G 2  20829203.660   109458224.363          50.000                                                  
G 5  23747844.820   124795655.023          50.000                                                  
G 6  21859295.920   114871322.465          50.000    21859298.600    85780532.500          50.000  
G12  20334487.600   106858461.031          50.000                                                  
G19  23490830.780   123445132.719          50.000                                                  
G24  22455087.100   118002210.305          50.000    22455090.180    88118527.496          50.000  
G25  21900937.260   115090137.434          50.000    21900939.800    85943931.668          50.000  
G29  23856875.320   125368689.508          50.000                                                  
E11  22969328.780   120704658.289          50.000    22969328.880    90136588.863          50.000  
E12  22073528.260   115997197.141          50.000    22073529.100    86621278.730          50.000  
E24  21689624.860   113979570.984          50.000    21689640.620    85114581.938          50.000  
E25  25055704.460   131668588.859          50.000    25055709.200    98323934.605          50.000  
E31  26300964.480   138212454.961          50.000    26300970.560   103210582.520          50.000  
E33  27786285.320   146017899.133          50.000    27786289.320   109039328.270          50.000  
> 2020  6  5 20 20 23.0000000  0 14       0.000000000000
G 2  20829326.840   109458871.707          50.000                                                  
G 5  23747231.820   124792433.703          50.000                                                  
G 6  21859762.780   114873775.816          50.000    21859765.460    85782364.555          50.000  
G12  20334268.660   106857310.445          50.000                                                  
G19  23491359.120   123447909.203          50.000                                                  
G24  22455595.880   118004883.996          50.000    22455598.980    88120524.090          50.000  
G25  21900432.940   115087487.203          50.000    21900435.480    85941952.605          50.000  
G29  23856408.020   125366233.762          50.000                                                  
E11  22969082.560   120703364.398          50.000    22969082.660    90135622.648          50.000  
E12  22073784.140   115998541.750          50.000    22073784.980    86622282.824          50.000  
E24  21689736.540   113980157.918          50.000    21689752.300    85115020.230          50.000  
E25  25055318.900   131666562.770          50.000    25055323.660    98322421.617          50.000  
E31  26301459.120   138215054.285          50.000    26301465.180   103212523.574          50.000  
E33  27786796.380   146020584.754          50.000    27786800.380   109041333.762          50.000  
> 2020  6  5 20 20 24.0000000  0 14       0.000000000000
G 2  20829450.120   109459519.547          50.000                                                  
G 5  23746618.840   124789212.480          50.000                                                  
G 6  21860229.700   114876229.551          50.000    21860232.400    85784196.895          50.000  
G12  20334049.800   106856160.309          50.000                                                  
G19  23491887.480   123450685.723          50.000                                                  
G24  22456104.740   118007558.023          50.000    22456107.820    88122520.930          50.000  
G25  21899928.660   115084837.223          50.000    21899931.200    85939973.727          50.000  
G29  23855940.720   125363778.148          50.000                                                  
E11  22968836.400   120702070.824          50.000    22968836.500    90134656.668          50.000  
E12  22074040.060   115999886.621          50.000    22074040.900    86623287.109          50.000  
E24  21689848.320   113980745.258          50.000    21689864.080    85115458.828          50.000  
E25  25054933.400   131664536.922          50.000    25054938.140    98320908.809          50.000  
E31  26301953.800   138217653.809          50.000    26301959.860   103214464.773          50.000  
E33  27787307.440   146023270.367          50.000    27787311.440   109043339.254          50.000  
> 2020  6  5 20 20 25.0000000  0 14       0.000000000000
G 2  20829573.500   109460167.867          50.000                                                  
G 5  23746005.880   124785991.328          50.000                                                  
G 6  21860696.700   114878683.691          50.000    21860699.400    85786029.531          50.000  
G12  20333831.020   106855010.605          50.000                                                  
G19  23492415.860   123453462.301          50.000                                                  
G24  22456613.640   118010232.363          50.000    22456616.740    88124518.000          50.000  
G25  21899424.440   115082187.520          50.000    21899426.980    85937995.059          50.000  
G29  23855473.460   125361322.660          50.000                                                  
E11  22968590.320   120700777.641          50.000    22968590.420    90133690.977          50.000  
E12  22074296.020   116001231.750          50.000    22074296.860    86624291.590          50.000  
E24  21689960.160   113981332.996          50.000    21689975.920    85115897.723          50.000  
E25  25054547.940   131662511.301          50.000    25054552.680    98319396.172          50.000  
E31  26302448.520   138220253.547          50.000    26302454.580   103216406.137          50.000  
E33  27787818.480   146025955.973          50.000    27787822.480   109045344.738          50.000  
> 2020  6  5 20 20 26.0000000  0 14       0.000000000000
G 2  20829696.960   109460816.676          50.000                                                  
G 5  23745392.940   124782770.262          50.000                                                  
G 6  21861163.800   114881138.234          50.000    21861166.480    85787862.469          50.000  
G12  20333612.320   106853861.332          50.000                                                  
G19  23492944.220   123456238.910          50.000                                                  
G24  22457122.620   118012907.043          50.000    22457125.700    88126515.328          50.000  
G25  21898920.280   115079538.063          50.000    21898922.800    85936016.566          50.000  
G29  23855006.220   125358867.297          50.000                                                  
E11  22968344.300   120699484.742          50.000    22968344.400    90132725.504          50.000  
E12  22074552.060   116002577.152          50.000    22074552.880    86625296.273          50.000  
E24  21690072.080   113981921.141          50.000    21690087.840    85116336.922          50.000  
E25  25054162.520   131660485.906          50.000    25054167.260    98317883.699          50.000  
E31  26302943.280   138222853.512          50.000    26302949.340   103218347.668          50.000  
E33  27788329.540   146028641.559          50.000    27788333.540   109047350.207          50.000  
> 2020  6  5 20 20 27.0000000  0 14       0.000000000000
G 2  20829820.520   109461465.977          50.000                                                  
G 5  23744780.000   124779549.270          50.000                                                  
G 6  21861630.960   114883593.160          50.000    21861633.640    85789695.691          50.000  
G12  20333393.700   106852712.492          50.000                                                  
G19  23493472.600   123459015.566          50.000                                                  
G24  22457631.660   118015582.043          50.000    22457634.740    88128512.891          50.000  
G25  21898416.140   115076888.855          50.000    21898418.680    85934038.266          50.000  
G29  23854539.000   125356412.063          50.000                                                  
E11  22968098.320   120698192.172          50.000    22968098.440    90131760.273          50.000  
E12  22074808.120   116003922.801          50.000    22074808.960    86626301.141          50.000  
E24  21690184.080   113982509.664          50.000    21690199.840    85116776.406          50.000  
E25  25053777.140   131658460.742          50.000    25053781.900    98316371.402          50.000  
E31  26303438.080   138225453.680          50.000    26303444.140   103220289.352          50.000  
E33  27788840.600   146031327.133          50.000    27788844.600   109049355.664          50.000  
> 2020  6  5 20 20 28.0000000  0 14       0.000000000000
G 2  20829944.160   109462115.758          50.000                                                  
G 5  23744167.080   124776328.371          50.000                                                  
G 6  21862098.180   114886048.484          50.000    21862100.880    85791529.211          50.000  
G12  20333175.160   106851564.070          50.000                                                  
G19  23494000.980   123461792.254          50.000                                                  
G24  22458140.760   118018257.383          50.000    22458143.840    88130510.707          50.000  
G25  21897912.060   115074239.918          50.000    21897914.600    85932060.164          50.000  
G29  23854071.820   125353956.949          50.000                                                  
E11  22967852.420   120696899.941          50.000    22967852.520    90130795.293          50.000  
E12  22075064.240   116005268.703          50.000    22075065.080    86627306.195          50.000  
E24  21690296.140   113983098.605          50.000    21690311.920    85117216.195          50.000  
E25  25053391.820   131656435.809          50.000    25053396.560    98314859.277          50.000  
E31  26303932.900   138228054.047          50.000    26303938.980   103222231.180          50.000  
E33  27789351.640   146034012.699          50.000    27789355.640   109051361.121          50.000  
> 2020  6  5 20 20 29.0000000  0 14       0.000000000000
G 2  20830067.920   109462766.035          50.000                                                  
G 5  23743554.180   124773107.543          50.000                                                  
G 6  21862565.500   114888504.215          50.000    21862568.180    85793363.035          50.000  
G12  20332956.700   106850416.102          50.000                                                  
G19  23494529.380   123464568.988          50.000                                                  
G24  22458649.920   118020933.047          50.000    22458653.000    88132508.770          50.000  
G25  21897408.040   115071591.215          50.000    21897410.560    85930082.234          50.000  
G29  23853604.640   125351501.965          50.000                                                  
E11  22967606.580   120695608.031          50.000    22967606.680    90129830.555          50.000  
E12  22075320.400   116006614.867          50.000    22075321.240    86628311.449          50.000  
E24  21690408.300   113983687.938          50.000    21690424.060    85117656.281          50.000  
E25  25053006.520   131654411.090          50.000    25053011.280    98313347.313          50.000  
E31  26304427.780   138230654.641          50.000    26304433.860   103224173.180          50.000  
E33  27789862.680   146036698.246          50.000    27789866.680   109053366.559          50.000  
> 2020  6  5 20 20 30.0000000  0 14       0.000000000000
G 2  20830191.740   109463416.801          50.000                                                  
G 5  23742941.280   124769886.805          50.000                                                  
G 6  21863032.880   114890960.324          50.000    21863035.560    85795197.145          50.000  
G12  20332738.340   106849268.563          50.000                                                  
G19  23495057.780   123467345.758          50.000                                                  
G24  22459159.140   118023609.027          50.000    22459162.240    88134507.066          50.000  
G25  21896904.060   115068942.781          50.000    21896906.580    85928104.512          50.000  
G29  23853137.500   125349047.117          50.000                                                  
E11  22967360.800   120694316.469          50.000    22967360.920    90128866.078          50.000  
E12  22075576.620   116007961.289          50.000    22075577.460    86629316.895          50.000  
E24  21690520.520   113984277.664          50.000    21690536.280    85118096.664          50.000  
E25  25052621.280   131652386.621          50.000    25052626.040    98311835.535          50.000  
E31  26304922.700   138233255.422          50.000    26304928.780   103226115.324          50.000  
E33  27790373.740   146039383.785          50.000    27790377.740   109055371.992          50.000  
> 2020  6  5 20 20 31.0000000  0 14       0.000000000000
G 2  20830315.680   109464068.051          50.000                                                  
G 5  23742328.420   124766666.137          50.000                                                  
G 6  21863500.340   114893416.832          50.000    21863503.020    85797031.551          50.000  
G12  20332520.040   106848121.449          50.000                                                  
G19  23495586.200   123470122.566          50.000                                                  
G24  22459668.420   118026285.324          50.000    22459671.520    88136505.598          50.000  
G25  21896400.120   115066294.613          50.000    21896402.660    85926126.984          50.000  
G29  23852670.380   125346592.387          50.000                                                  
E11  22967115.100   120693025.227          50.000    22967115.200    90127901.840          50.000  
E12  22075832.900   116009307.977          50.000    22075833.740    86630322.539          50.000  
E24  21690632.820   113984867.781          50.000    21690648.580    85118537.336          50.000  
E25  25052236.080   131650362.371          50.000    25052240.840    98310323.922          50.000  
E31  26305417.660   138235856.438          50.000    26305423.740   103228057.637          50.000  
E33  27790884.780   146042069.305          50.000    27790888.780   109057377.414          50.000  
> 2020  6  5 20 20 32.0000000  0 14       0.000000000000
G 2  20830439.700   109464719.793          50.000                                                  
G 5  23741715.560   124763445.563          50.000                                                  
G 6  21863967.880   114895873.750          50.000    21863970.560    85798866.258          50.000  
G12  20332301.840   106846974.781          50.000                                                  
G19  23496114.620   123472899.410          50.000                                                  
G24  22460177.780   118028961.949          50.000    22460180.860    88138504.375          50.000  
G25  21895896.240   115063646.688          50.000    21895898.780    85924149.637          50.000  
G29  23852203.280   125344137.785          50.000                                                  
E11  22966869.440   120691734.301          50.000    22966869.540    90126937.836          50.000  
E12  22076089.220   116010654.926          50.000    22076090.040    86631328.375          50.000  
E24  21690745.200   113985458.297          50.000    21690760.960    85118978.305          50.000  
E25  25051850.920   131648338.348          50.000    25051855.680    98308812.473          50.000  
E31  26305912.660   138238457.648          50.000    26305918.740   103230000.098          50.000  
E33  27791395.820   146044754.820          50.000    27791399.820   109059382.828          50.000  
> 2020  6  5 20 20 33.0000000  0 14       0.000000000000
G 2  20830563.820   109465372.027          50.000                                                  
G 5  23741102.720   124760225.066          50.000                                                  
G 6  21864435.480   114898331.043          50.000    21864438.160    85800701.250          50.000  
G12  20332083.720   106845828.547          50.000                                                  
G19  23496643.040   123475676.293          50.000                                                  
G24  22460687.180   118031638.887          50.000    22460690.260    88140503.383          50.000  
G25  21895392.400   115060999.020          50.000    21895394.940    85922172.484          50.000  
G29  23851736.220   125341683.313          50.000                                                  
E11  22966623.860   120690443.707          50.000    22966623.960    90125974.082          50.000  
E12  22076345.580   116012002.129          50.000    22076346.420    86632334.402          50.000  
E24  21690857.640   113986049.211          50.000    21690873.400    85119419.570          50.000  
E25  25051465.820   131646314.559          50.000    25051470.560    98307301.203          50.000  
E31  26306407.700   138241059.074          50.000    26306413.760   103231942.723          50.000  
E33  27791906.840   146047440.316          50.000    27791910.840   109061388.230          50.000  
> 2020  6  5 20 20 34.0000000  0 14       0.000000000000
G 2  20830688.020   109466024.746          50.000                                                  
G 5  23740489.880   124757004.645          50.000                                                  
G 6  21864903.160   114900788.727          50.000    21864905.860    85802536.535          50.000  
G12  20331865.680   106844682.738          50.000                                                  
G19  23497171.460   123478453.211          50.000                                                  
G24  22461196.640   118034316.148          50.000    22461199.740    88142502.641          50.000  
G25  21894888.620   115058351.625          50.000    21894891.160    85920195.535          50.000  
G29  23851269.160   125339228.969          50.000                                                  
E11  22966378.340   120689153.477          50.000    22966378.440    90125010.598          50.000  
E12  22076602.000   116013349.602          50.000    22076602.840    86633340.633          50.000  
E24  21690970.160   113986640.527          50.000    21690985.940    85119861.137          50.000  
E25  25051080.740   131644290.980          50.000    25051085.480    98305790.090          50.000  
E31  26306902.780   138243660.719          50.000    26306908.840   103233885.508          50.000  
E33  27792417.880   146050125.801          50.000    27792421.880   109063393.625          50.000  
> 2020  6  5 20 20 35.0000000  0 14       0.000000000000
G 2  20830812.320   109466677.953          50.000                                                  
G 5  23739877.080   124753784.301          50.000                                                  
G 6  21865370.920   114903246.813          50.000    21865373.600    85804372.117          50.000  
G12  20331647.720   106843537.371          50.000                                                  
G19  23497699.900   123481230.168          50.000                                                  
G24  22461706.180   118036993.754          50.000    22461709.260    88144502.148          50.000  
G25  21894384.880   115055704.469          50.000    21894387.420    85918218.762          50.000  
G29  23850802.140   125336774.734          50.000                                                  
E11  22966132.860   120687863.543          50.000    22966132.960    90124047.336          50.000  
E12  22076858.460   116014697.309          50.000    22076859.300    86634347.039          50.000  
E24  21691082.760   113987232.238          50.000    21691098.540    85120303.000          50.000  
E25  25050695.720   131642267.648          50.000    25050700.460    98304279.164          50.000  
E31  26307397.900   138246262.559          50.000    26307403.960   103235828.438          50.000  
E33  27792928.920   146052811.270          50.000    27792932.920   109065399.004          50.000  
> 2020  6  5 20 20 36.0000000  0 14       0.000000000000
G 2  20830936.720   109467331.656          50.000                                                  
G 5  23739264.280   124750564.047          50.000                                                  
G 6  21865838.760   114905705.289          50.000    21865841.440    85806207.992          50.000  
G12  20331429.860   106842392.441          50.000                                                  
G19  23498228.360   123484007.172          50.000                                                  
G24  22462215.780   118039671.691          50.000    22462218.860    88146501.906          50.000  
G25  21893881.200   115053057.590          50.000    21893883.720    85916242.195          50.000  
G29  23850335.140   125334320.637          50.000                                                  
E11  22965887.460   120686573.934          50.000    22965887.560    90123084.316          50.000  
E12  22077114.980   116016045.289          50.000    22077115.820    86635353.648          50.000  
E24  21691195.440   113987824.352          50.000    21691211.220    85120745.164          50.000  
E25  25050310.740   131640244.547          50.000    25050315.480    98302768.406          50.000  
E31  26307893.060   138248864.617          50.000    26307899.120   103237771.531          50.000  
E33  27793439.940   146055496.727          50.000    27793443.940   109067404.379          50.000  
> 2020  6  5 20 20 37.0000000  0 14       0.000000000000
G 2  20831061.200   109467985.828          50.000                                                  
G 5  23738651.500   124747343.867          50.000                                                  
G 6  21866306.660   114908164.156          50.000    21866309.340    85808044.160          50.000  
G12  20331212.060   106841247.934          50.000                                                  
G19  23498756.800   123486784.211          50.000                                                  
G24  22462725.440   118042349.953          50.000    22462728.520    88148501.906          50.000  
G25  21893377.560   115050410.941          50.000    21893380.080    85914265.805          50.000  
G29  23849868.160   125331866.664          50.000                                                  
E11  22965642.120   120685284.680          50.000    22965642.240    90122121.563          50.000  
E12  22077371.540   116017393.535          50.000    22077372.380    86636360.453          50.000  
E24  21691308.200   113988416.855          50.000    21691323.960    85121187.617          50.000  
E25  25049925.800   131638221.680          50.000    25049930.540    98301257.820          50.000  
E31  26308388.240   138251466.883          50.000    26308394.320   103239714.781          50.000  
E33  27793950.960   146058182.160          50.000    27793954.960   109069409.730          50.000  
> 2020  6  5 20 20 38.0000000  0 14       0.000000000000
G 2  20831185.780   109468640.500          50.000                                                  
G 5  23738038.740   124744123.770          50.000                                                  
G 6  21866774.640   114910623.426          50.000    21866777.340    85809880.625          50.000  
G12  20330994.360   106840103.867          50.000                                                  
G19  23499285.260   123489561.289          50.000                                                  
G24  22463235.160   118045028.547          50.000    22463238.240    88150502.152          50.000  
G25  21892873.960   115047764.559          50.000    21892876.500    85912289.609          50.000  
G29  23849401.200   125329412.820          50.000                                                  
E11  22965396.860   120683995.734          50.000    22965396.960    90121159.039          50.000  
E12  22077628.160   116018742.031          50.000    22077628.980    86637367.445          50.000  
E24  21691421.020   113989009.770          50.000    21691436.800    85121630.375          50.000  
E25  25049540.900   131636199.016          50.000    25049545.640    98299747.391          50.000  
E31  26308883.480   138254069.375          50.000    26308889.560   103241658.195          50.000  
E33  27794461.980   146060867.590          50.000    27794465.980   109071415.082          50.000  
> 2020  6  5 20 20 39.0000000  0 14       0.000000000000
G 2  20831310.460   109469295.652          50.000                                                  
G 5  23737425.980   124740903.758          50.000                                                  
G 6  21867242.700   114913083.086          50.000    21867245.400    85811717.387          50.000  
G12  20330776.720   106838960.227          50.000                                                  
G19  23499813.740   123492338.418          50.000                                                  
G24  22463744.920   118047707.430          50.000    22463748.020    88152502.617          50.000  
G25  21892370.420   115045118.430          50.000    21892372.960    85910313.605          50.000  
G29  23848934.280   125326959.102          50.000                                                  
E11  22965151.640   120682707.129          50.000    22965151.740    90120196.770          50.000  
E12  22077884.820   116020090.793          50.000    22077885.660    86638374.641          50.000  
E24  21691533.920   113989603.055          50.000    21691549.700    85122073.414          50.000  
E25  25049156.040   131634176.598          50.000    25049160.800    98298237.145          50.000  
E31  26309378.760   138256672.066          50.000    26309384.840   103243601.766          50.000  
E33  27794973.000   146063553.008          50.000    27794977.020   109073420.430          50.000  
> 2020  6  5 20 20 40.0000000  0 14       0.000000000000
G 2  20831435.220   109469951.301          50.000                                                  
G 5  23736813.260   124737683.824          50.000                                                  
G 6  21867710.840   114915543.141          50.000    21867713.520    85813554.438          50.000  
G12  20330559.180   106837817.039          50.000                                                  
G19  23500342.220   123495115.574          50.000                                                  
G24  22464254.760   118050386.605          50.000    22464257.840    88154503.301          50.000  
G25  21891866.940   115042472.559          50.000    21891869.460    85908337.793          50.000  
G29  23848467.380   125324505.523          50.000                                                  
E11  22964906.500   120681418.863          50.000    22964906.600    90119234.754          50.000  
E12  22078141.520   116021439.797          50.000    22078142.360    86639382.012          50.000  
E24  21691646.900   113990196.754          50.000    21691662.680    85122516.762          50.000  
E25  25048771.240   131632154.406          50.000    25048775.980    98296727.066          50.000  
E31  26309874.080   138259274.957          50.000    26309880.160   103245545.480          50.000  
E33  27795484.020   146066238.414          50.000    27795488.040   109075425.762          50.000  
> 2020  6  5 20 20 41.0000000  0 14       0.000000000000
G 2  20831560.080   109470607.426          50.000                                                  
G 5  23736200.540   124734463.980          50.000                                                  
G 6  21868179.040   114918003.586          50.000    21868181.740    85815391.781          50.000  
G12  20330341.720   106836674.277          50.000                                                  
G19  23500870.700   123497892.777          50.000                                                  
G24  22464764.660   118053066.117          50.000    22464767.740    88156504.230          50.000  
G25  21891363.480   115039826.949          50.000    21891366.020    85906362.180          50.000  
G29  23848000.500   125322052.059          50.000                                                  
E11  22964661.400   120680130.930          50.000    22964661.520    90118272.984          50.000  
E12  22078398.280   116022789.070          50.000    22078399.120    86640389.586          50.000  
E24  21691759.960   113990790.840          50.000    21691775.720    85122960.395          50.000  
E25  25048386.480   131630132.449          50.000    25048391.220    98295217.164          50.000  
E31  26310369.440   138261878.066          50.000    26310375.520   103247489.359          50.000  
E33  27795995.040   146068923.801          50.000    27795999.040   109077431.082          50.000  
> 2020  6  5 20 20 42.0000000  0 14       0.000000000000
G 2  20831685.020   109471264.039          50.000                                                  
G 5  23735587.840   124731244.219          50.000                                                  
G 6  21868647.320   114920464.434          50.000    21868650.020    85817229.430          50.000  
G12  20330124.340   106835531.953          50.000                                                  
G19  23501399.200   123500670.012          50.000                                                  
G24  22465274.600   118055745.945          50.000    22465277.700    88158505.402          50.000  
G25  21890860.100   115037181.594          50.000    21890862.620    85904386.750          50.000  
G29  23847533.640   125319598.727          50.000                                                  
E11  22964416.380   120678843.309          50.000    22964416.480    90117311.449          50.000  
E12  22078655.100   116024138.594          50.000    22078655.920    86641397.348          50.000  
E24  21691873.100   113991385.332          50.000    21691888.860    85123404.332          50.000  
E25  25048001.760   131628110.711          50.000    25048006.500    98293707.426          50.000  
E31  26310864.840   138264481.387          50.000    26310870.920   103249433.395          50.000  
E33  27796506.060   146071609.164          50.000    27796510.060   109079436.387          50.000  
> 2020  6  5 20 20 43.0000000  0 14       0.000000000000
G 2  20831810.060   109471921.141          50.000                                                  
G 5  23734975.140   124728024.539          50.000                                                  
G 6  21869115.680   114922925.668          50.000    21869118.380    85819067.363          50.000  
G12  20329907.060   106834390.059          50.000                                                  
G19  23501927.700   123503447.297          50.000                                                  
G24  22465784.620   118058426.125          50.000    22465787.720    88160506.836          50.000  
G25  21890356.740   115034536.496          50.000    21890359.280    85902411.516          50.000  
G29  23847066.820   125317145.512          50.000                                                  
E11  22964171.420   120677556.004          50.000    22964171.520    90116350.152          50.000  
E12  22078911.940   116025488.383          50.000    22078912.780    86642405.309          50.000  
E24  21691986.300   113991980.219          50.000    21692002.060    85123848.566          50.000  
E25  25047617.080   131626089.211          50.000    25047621.820    98292197.863          50.000  
E31  26311360.280   138267084.910          50.000    26311366.360   103251377.582          50.000  
E33  27797017.060   146074294.523          50.000    27797021.060   109081441.684          50.000  
> 2020  6  5 20 20 44.0000000  0 14       0.000000000000
G 2  20831935.200   109472578.738          50.000                                                  
G 5  23734362.480   124724804.957          50.000                                                  
G 6  21869584.120   114925387.301          50.000    21869586.800    85820905.594          50.000  
G12  20329689.840   106833248.613          50.000                                                  
G19  23502456.200   123506224.617          50.000                                                  
G24  22466294.720   118061106.629          50.000    22466297.800    88162508.508          50.000  
G25  21889853.460   115031891.656          50.000    21889855.980    85900436.477          50.000  
G29  23846600.000   125314692.434          50.000                                                  
E11  22963926.520   120676269.055          50.000    22963926.620    90115389.117          50.000  
E12  22079168.860   116026838.438          50.000    22079169.700    86643413.465          50.000  
E24  21692099.580   113992575.508          50.000    21692115.340    85124293.102          50.000  
E25  25047232.440   131624067.938          50.000    25047237.180    98290688.473          50.000  
E31  26311855.760   138269688.660          50.000    26311861.840   103253321.941          50.000  
E33  27797528.060   146076979.867          50.000    27797532.080   109083446.973          50.000  
> 2020  6  5 20 20 45.0000000  0 14       0.000000000000
G 2  20832060.440   109473236.816          50.000                                                  
G 5  23733749.820   124721585.441          50.000                                                  
G 6  21870052.620   114927849.324          50.000    21870055.320    85822744.117          50.000  
G12  20329472.720   106832107.598          50.000                                                  
G19  23502984.720   123509001.980          50.000                                                  
G24  22466804.840   118063787.422          50.000    22466807.940    88164510.398          50.000  
G25  21889350.200   115029247.070          50.000    21889352.740    85898461.625          50.000  
G29  23846133.220   125312239.469          50.000                                                  
E11  22963681.680   120674982.410          50.000    22963681.780    90114428.313          50.000  
E12  22079425.820   116028188.742          50.000    22079426.660    86644421.809          50.000  
E24  21692212.940   113993171.195          50.000    21692228.700    85124737.934          50.000  
E25  25046847.840   131622046.891          50.000    25046852.600    98289179.250          50.000  
E31  26312351.280   138272292.602          50.000    26312357.360   103255266.441          50.000  
E33  27798039.080   146079665.199          50.000    27798043.080   109085452.254          50.000  
> 2020  6  5 20 20 46.0000000  0 14       0.000000000000
G 2  20832185.760   109473895.383          50.000                                                  
G 5  23733137.180   124718366.023          50.000                                                  
G 6  21870521.200   114930311.727          50.000    21870523.900    85824582.926          50.000  
G12  20329255.660   106830967.008          50.000                                                  
G19  23503513.240   123511779.363          50.000                                                  
G24  22467315.060   118066468.547          50.000    22467318.140    88166512.535          50.000  
G25  21888847.000   115026602.750          50.000    21888849.540    85896486.969          50.000  
G29  23845666.460   125309786.645          50.000                                                  
E11  22963436.920   120673696.117          50.000    22963437.020    90113467.770          50.000  
E12  22079682.820   116029539.293          50.000    22079683.660    86645430.336          50.000  
E24  21692326.360   113993767.270          50.000    21692342.140    85125183.055          50.000  
E25  25046463.300   131620026.082          50.000    25046468.060    98287670.203          50.000  
E31  26312846.840   138274896.762          50.000    26312852.900   103257211.105          50.000  
E33  27798550.080   146082350.523          50.000    27798554.080   109087457.527          50.000  
> 2020  6  5 20 20 47.0000000  0 14       0.000000000000
G 2  20832311.160   109474554.438          50.000                                                  
G 5  23732524.560   124715146.684          50.000                                                  
G 6  21870989.860   114932774.535          50.000    21870992.560    85826422.035          50.000  
G12  20329038.700   106829826.863          50.000                                                  
G19  23504041.760   123514556.805          50.000                                                  
G24  22467825.320   118069150.000          50.000    22467828.400    88168514.918          50.000  
G25  21888343.860   115023958.672          50.000    21888346.380    85894512.496          50.000  
G29  23845199.720   125307333.930          50.000                                                  
E11  22963192.200   120672410.148          50.000    22963192.300    90112507.469          50.000  
E12  22079939.880   116030890.117          50.000    22079940.700    86646439.066          50.000  
E24  21692439.880   113994363.746          50.000    21692455.640    85125628.477          50.000  
E25  25046078.800   131618005.488          50.000    25046083.540    98286161.320          50.000  
E31  26313342.440   138277501.129          50.000    26313348.500   103259155.922          50.000  
E33  27799061.080   146085035.828          50.000    27799065.080   109089462.785          50.000  
> 2020  6  5 20 20 48.0000000  0 14       0.000000000000
G 2  20832436.680   109475213.980          50.000                                                  
G 5  23731911.960   124711927.426          50.000                                                  
G 6  21871458.600   114935237.730          50.000    21871461.280    85828261.434          50.000  
G12  20328821.820   106828687.156          50.000                                                  
G19  23504570.300   123517334.281          50.000                                                  
G24  22468335.640   118071831.805          50.000    22468338.740    88170517.566          50.000  
G25  21887840.760   115021314.863          50.000    21887843.280    85892538.223          50.000  
G29  23844733.020   125304881.348          50.000                                                  
E11  22962947.560   120671124.520          50.000    22962947.660    90111547.422          50.000  
E12  22080196.980   116032241.191          50.000    22080197.820    86647447.988          50.000  
E24  21692553.460   113994960.617          50.000    21692569.220    85126074.191          50.000  
E25  25045694.340   131615985.141          50.000    25045699.080    98284652.617          50.000  
E31  26313838.060   138280105.707          50.000    26313844.140   103261100.898          50.000  
E33  27799572.060   146087721.117          50.000    27799576.080   109091468.031          50.000  
> 2020  6  5 20 20 49.0000000  0 14       0.000000000000
G 2  20832562.280   109475874.016          50.000                                                  
G 5  23731299.380   124708708.258          50.000                                                  
G 6  21871927.400   114937701.324          50.000    21871930.080    85830101.129          50.000  
G12  20328605.020   106827547.867          50.000                                                  
G19  23505098.840   123520111.805          50.000                                                  
G24  22468846.040   118074513.938          50.000    22468849.120    88172520.457          50.000  
G25  21887337.700   115018671.305          50.000    21887340.220    85890564.137          50.000  
G29  23844266.320   125302428.898          50.000                                                  
E11  22962702.980   120669839.211          50.000    22962703.080    90110587.613          50.000  
E12  22080454.140   116033592.531          50.000    22080454.960    86648457.105          50.000  
E24  21692667.120   113995557.895          50.000    21692682.880    85126520.207          50.000  
E25  25045309.920   131613965.016          50.000    25045314.680    98283144.086          50.000  
E31  26314333.740   138282710.500          50.000    26314339.820   103263046.035          50.000  
E33  27800083.060   146090406.398          50.000    27800087.080   109093473.270          50.000  
> 2020  6  5 20 20 50.0000000  0 14       0.000000000000
G 2  20832687.960   109476534.531          50.000                                                  
G 5  23730686.800   124705489.160          50.000                                                  
G 6  21872396.280   114940165.305          50.000    21872398.980    85831941.117          50.000  
G12  20328388.300   106826409.027          50.000                                                  
G19  23505627.400   123522889.367          50.000                                                  
G24  22469356.500   118077196.379          50.000    22469359.580    88174523.574          50.000  
G25  21886834.700   115016027.996          50.000    21886837.220    85888590.242          50.000  
G29  23843799.660   125299976.566          50.000                                                  
E11  22962458.460   120668554.223          50.000    22962458.560    90109628.043          50.000  
E12  22080711.340   116034944.125          50.000    22080712.160    86649466.414          50.000  
E24  21692780.860   113996155.559          50.000    21692796.620    85126966.516          50.000  
E25  25044925.560   131611945.098          50.000    25044930.300    98281635.707          50.000  
E31  26314829.460   138285315.488          50.000    26314835.540   103264991.316          50.000  
E33  27800594.060   146093091.660          50.000    27800598.060   109095478.500          50.000  
> 2020  6  5 20 20 51.0000000  0 14       0.000000000000
G 2  20832813.760   109477195.535          50.000                                                  
G 5  23730074.240   124702270.145          50.000                                                  
G 6  21872865.240   114942629.684          50.000    21872867.920    85833781.398          50.000  
G12  20328171.680   106825270.605          50.000                                                  
G19  23506155.960   123525666.973          50.000                                                  
G24  22469867.000   118079879.137          50.000    22469870.100    88176526.930          50.000  
G25  21886331.740   115013384.953          50.000    21886334.260    85886616.539          50.000  
G29  23843333.020   125297524.371          50.000                                                  
E11  22962213.980   120667269.547          50.000    22962214.080    90108668.711          50.000  
E12  22080968.580   116036295.977          50.000    22080969.420    86650475.910          50.000  
E24  21692894.660   113996753.625          50.000    21692910.420    85127413.121          50.000  
E25  25044541.220   131609925.438          50.000    25044545.960    98280127.520          50.000  
E31  26315325.220   138287920.695          50.000    26315331.300   103266936.766          50.000  
E33  27801105.040   146095776.906          50.000    27801109.060   109097483.715          50.000  
> 2020  6  5 20 20 52.0000000  0 14       0.000000000000
G 2  20832939.620   109477857.012          50.000                                                  
G 5  23729461.700   124699051.219          50.000                                                  
G 6  21873334.260   114945094.457          50.000    21873336.960    85835621.973          50.000  
G12  20327955.120   106824132.629          50.000                                                  
G19  23506684.520   123528444.605          50.000                                                  
G24  22470377.580   118082562.211          50.000    22470380.660    88178530.527          50.000  
G25  21885828.840   115010742.176          50.000    21885831.360    85884643.039          50.000  
G29  23842866.420   125295072.309          50.000                                                  
E11  22961969.600   120665985.223          50.000    22961969.700    90107709.637          50.000  
E12  22081225.880   116037648.086          50.000    22081226.720    86651485.605          50.000  
E24  21693008.540   113997352.082          50.000    21693024.320    85127860.023          50.000  
E25  25044156.940   131607906.004          50.000    25044161.680    98278619.500          50.000  
E31  26315821.020   138290526.113          50.000    26315827.100   103268882.367          50.000  
E33  27801616.040   146098462.145          50.000    27801620.040   109099488.922          50.000  
> 2020  6  5 20 20 53.0000000  0 14       0.000000000000
G 2  20833065.600   109478518.984          50.000                                                  
G 5  23728849.160   124695832.371          50.000                                                  
G 6  21873803.360   114947559.613          50.000    21873806.060    85837462.840          50.000  
G12  20327738.660   106822995.082          50.000                                                  
G19  23507213.100   123531222.293          50.000                                                  
G24  22470888.220   118085245.605          50.000    22470891.300    88180534.359          50.000  
G25  21885325.980   115008099.652          50.000    21885328.500    85882669.727          50.000  
G29  23842399.820   125292620.367          50.000                                                  
E11  22961725.260   120664701.230          50.000    22961725.360    90106750.813          50.000  
E12  22081483.240   116039000.457          50.000    22081484.060    86652495.488          50.000  
E24  21693122.500   113997950.941          50.000    21693138.280    85128307.223          50.000  
E25  25043772.700   131605886.805          50.000    25043777.440    98277111.656          50.000  
E31  26316316.860   138293131.742          50.000    26316322.940   103270828.129          50.000  
E33  27802127.020   146101147.359          50.000    27802131.020   109101494.113          50.000  
> 2020  6  5 20 20 54.0000000  0 14       0.000000000000
G 2  20833191.660   109479181.445          50.000                                                  
G 5  23728236.660   124692613.605          50.000                                                  
G 6  21874272.540   114950025.168          50.000    21874275.240    85839304.000          50.000  
G12  20327522.280   106821857.969          50.000                                                  
G19  23507741.680   123534000.016          50.000                                                  
G24  22471398.900   118087929.305          50.000    22471402.000    88182538.418          50.000  
G25  21884823.160   115005457.371          50.000    21884825.700    85880696.594          50.000  
G29  23841933.260   125290168.555          50.000                                                  
E11  22961480.980   120663417.586          50.000    22961481.100    90105792.246          50.000  
E12  22081740.620   116040353.078          50.000    22081741.460    86653505.563          50.000  
E24  21693236.540   113998550.207          50.000    21693252.320    85128754.723          50.000  
E25  25043388.500   131603867.824          50.000    25043393.240    98275603.977          50.000  
E31  26316812.740   138295737.574          50.000    26316818.800   103272774.039          50.000  
E33  27802638.000   146103832.566          50.000    27802642.000   109103499.301          50.000  
> 2020  6  5 20 20 55.0000000  0 14       0.000000000000
G 2  20833317.820   109479844.395          50.000                                                  
G 5  23727624.160   124689394.922          50.000                                                  
G 6  21874741.800   114952491.117          50.000    21874744.500    85841145.453          50.000  
G12  20327305.960   106820721.297          50.000                                                  
G19  23508270.280   123536777.781          50.000                                                  
G24  22471909.660   118090613.328          50.000    22471912.740    88184542.723          50.000  
G25  21884320.420   115002815.371          50.000    21884322.940    85878723.676          50.000  
G29  23841466.720   125287716.863          50.000                                                  
E11  22961236.780   120662134.234          50.000    22961236.880    90104833.902          50.000  
E12  22081998.080   116041705.965          50.000    22081998.920    86654515.836          50.000  
E24  21693350.660   113999149.859          50.000    21693366.420    85129202.520          50.000  
E25  25043004.340   131601849.074          50.000    25043009.100    98274096.473          50.000  
E31  26317308.640   138298343.617          50.000    26317314.720   103274720.109          50.000  
E33  27803148.980   146106517.762          50.000    27803152.980   109105504.480          50.000  
> 2020  6  5 20 20 56.0000000  0 14       0.000000000000
G 2  20833444.060   109480507.828          50.000                                                  
G 5  23727011.680   124686176.328          50.000                                                  
G 6  21875211.140   114954957.473          50.000    21875213.820    85842987.215          50.000  
G12  20327089.760   106819585.055          50.000                                                  
G19  23508798.880   123539555.594          50.000                                                  
G24  22472420.480   118093297.684          50.000    22472423.560    88186547.270          50.000  
G25  21883817.700   115000173.613          50.000    21883820.220    85876750.934          50.000  
G29  23841000.200   125285265.281          50.000                                                  
E11  22960992.620   120660851.223          50.000    22960992.740    90103875.805          50.000  
E12  22082255.580   116043059.102          50.000    22082256.420    86655526.297          50.000  
E24  21693464.840   113999749.918          50.000    21693480.620    85129650.613          50.000  
E25  25042620.240   131599830.547          50.000    25042624.980    98272589.129          50.000  
E31  26317804.600   138300949.875          50.000    26317810.680   103276666.340          50.000  
E33  27803659.940   146109202.938          50.000    27803663.960   109107509.641          50.000  
> 2020  6  5 20 20 57.0000000  0 14       0.000000000000
G 2  20833570.400   109481171.746          50.000                                                  
G 5  23726399.220   124682957.813          50.000                                                  
G 6  21875680.540   114957424.203          50.000    21875683.240    85844829.250          50.000  
G12  20326873.620   106818449.246          50.000                                                  
G19  23509327.480   123542333.434          50.000                                                  
G24  22472931.360   118095982.367          50.000    22472934.440    88188552.063          50.000  
G25  21883315.040   114997532.129          50.000    21883317.580    85874778.395          50.000  
G29  23840533.700   125282813.844          50.000                                                  
E11  22960748.540   120659568.563          50.000    22960748.660    90102917.977          50.000  
E12  22082513.120   116044412.496          50.000    22082513.960    86656536.949          50.000  
E24  21693579.120   114000350.363          50.000    21693594.880    85130099.000          50.000  
E25  25042236.180   131597812.266          50.000    25042240.920    98271081.973          50.000  
E31  26318300.600   138303556.340          50.000    26318306.680   103278612.723          50.000  
E33  27804170.920   146111888.094          50.000    27804174.920   109109514.789          50.000  
> 2020  6  5 20 20 58.0000000  0 14       0.000000000000
G 2  20833696.840   109481836.156          50.000                                                  
G 5  23725786.760   124679739.371          50.000                                                  
G 6  21876150.020   114959891.313          50.000    21876152.700    85846671.574          50.000  
G12  20326657.560   106817313.871          50.000                                                  
G19  23509856.100   123545111.313          50.000                                                  
G24  22473442.300   118098667.375          50.000    22473445.380    88190557.098          50.000  
G25  21882812.440   114994890.879          50.000    21882814.960    85872806.035          50.000  
G29  23840067.240   125280362.539          50.000                                                  
E11  22960504.520   120658286.219          50.000    22960504.640    90101960.383          50.000  
E12  22082770.720   116045766.152          50.000    22082771.540    86657547.797          50.000  
E24  21693693.460   114000951.211          50.000    21693709.220    85130547.684          50.000  
E25  25041852.160   131595794.215          50.000    25041856.900    98269574.984          50.000  
E31  26318796.640   138306163.012          50.000    26318802.720   103280559.262          50.000  
E33  27804681.880   146114573.246          50.000    27804685.900   109111519.934          50.000  
> 2020  6  5 20 20 59.0000000  0 14       0.000000000000
G 2  20833823.360   109482501.059          50.000                                                  
G 5  23725174.340   124676521.039          50.000                                                  
G 6  21876619.580   114962358.844          50.000    21876622.260    85848514.211          50.000  
G12  20326441.600   106816178.938          50.000                                                  
G19  23510384.720   123547889.234          50.000                                                  
G24  22473953.300   118101352.715          50.000    22473956.400    88192562.383          50.000  
G25  21882309.860   114992249.895          50.000    21882312.400    85870833.871          50.000  
G29  23839600.780   125277911.348          50.000                                                  
E11  22960260.580   120657004.215          50.000    22960260.680    90101003.043          50.000  
E12  22083028.360   116047120.078          50.000    22083029.200    86658558.844          50.000  
E24  21693807.860   114001552.465          50.000    21693823.640    85130996.668          50.000  
E25  25041468.180   131593776.383          50.000    25041472.920    98268068.164          50.000  
E31  26319292.720   138308769.898          50.000    26319298.800   103282505.961          50.000  
E33  27805192.860   146117258.379          50.000    27805196.860   109113525.066          50.000  
> 2020  6  5 20 21  0.0000000  0 14       0.000000000000
G 2  20833949.980   109483166.426          50.000                                                  
G 5  23724561.920   124673302.773          50.000                                                  
G 6  21877089.200   114964826.742          50.000    21877091.880    85850357.121          50.000  
G12  20326225.700   106815044.434          50.000                                                  
G19  23510913.360   123550667.199          50.000                                                  
G24  22474464.360   118104038.371          50.000    22474467.460    88194567.906          50.000  
G25  21881807.360   114989609.172          50.000    21881809.880    85868861.902          50.000  
G29  23839134.360   125275460.297          50.000                                                  
E11  22960016.680   120655722.512          50.000    22960016.780    90100045.926          50.000  
E12  22083286.040   116048474.234          50.000    22083286.880    86659570.063          50.000  
E24  21693922.360   114002154.098          50.000    21693938.120    85131445.941          50.000  
E25  25041084.240   131591758.773          50.000    25041088.980    98266561.508          50.000  
E31  26319788.840   138311376.992          50.000    26319794.920   103284452.816          50.000  
E33  27805703.820   146119943.500          50.000    27805707.840   109115530.188          50.000  
> 2020  6  5 20 21  1.0000000  0 14       0.000000000000
G 2  20834076.680   109483832.297          50.000                                                  
G 5  23723949.520   124670084.598          50.000                                                  
G 6  21877558.900   114967295.031          50.000    21877561.580    85852200.320          50.000  
G12  20326009.900   106813910.383          50.000                                                  
G19  23511441.980   123553445.195          50.000                                                  
G24  22474975.500   118106724.363          50.000    22474978.580    88196573.680          50.000  
G25  21881304.880   114986968.699          50.000    21881307.420    85866890.121          50.000  
G29  23838667.980   125273009.371          50.000                                                  
E11  22959772.840   120654441.168          50.000    22959772.940    90099089.078          50.000  
E12  22083543.780   116049828.664          50.000    22083544.620    86660581.488          50.000  
E24  21694036.920   114002756.133          50.000    21694052.680    85131895.512          50.000  
E25  25040700.340   131589741.410          50.000    25040705.100    98265055.039          50.000  
E31  26320284.980   138313984.289          50.000    26320291.060   103286399.820          50.000  
E33  27806214.780   146122628.613          50.000    27806218.800   109117535.301          50.000  
> 2020  6  5 20 21  2.0000000  0 14       0.000000000000
G 2  20834203.480   109484498.648          50.000                                                  
G 5  23723337.140   124666866.512          50.000                                                  
G 6  21878028.680   114969763.719          50.000    21878031.360    85854043.824          50.000  
G12  20325794.180   106812776.773          50.000                                                  
G19  23511970.640   123556223.234          50.000                                                  
G24  22475486.680   118109410.664          50.000    22475489.760    88198579.684          50.000  
G25  21880802.480   114984328.500          50.000    21880805.000    85864918.547          50.000  
G29  23838201.600   125270558.574          50.000                                                  
E11  22959529.080   120653160.117          50.000    22959529.180    90098132.453          50.000  
E12  22083801.580   116051183.344          50.000    22083802.420    86661593.098          50.000  
E24  21694151.560   114003358.570          50.000    21694167.340    85132345.387          50.000  
E25  25040316.500   131587724.266          50.000    25040321.240    98263548.727          50.000  
E31  26320781.180   138316591.789          50.000    26320787.260   103288346.980          50.000  
E33  27806725.740   146125313.691          50.000    27806729.740   109119540.391          50.000  
> 2020  6  5 20 21  3.0000000  0 14       0.000000000000
G 2  20834330.380   109485165.492          50.000                                                  
G 5  23722724.780   124663648.512          50.000                                                  
G 6  21878498.520   114972232.801          50.000    21878501.220    85855887.617          50.000  
G12  20325578.540   106811643.609          50.000                                                  
G19  23512499.280   123559001.320          50.000                                                  
G24  22475997.920   118112097.281          50.000    22476001.020    88200585.922          50.000  
G25  21880300.100   114981688.551          50.000    21880302.640    85862947.156          50.000  
G29  23837735.240   125268107.898          50.000                                                  
E11  22959285.360   120651879.438          50.000    22959285.460    90097176.098          50.000  
E12  22084059.420   116052538.293          50.000    22084060.260    86662604.910          50.000  
E24  21694266.280   114003961.406          50.000    21694282.060    85132795.555          50.000  
E25  25039932.700   131585707.375          50.000    25039937.440    98262042.609          50.000  
E31  26321277.420   138319199.516          50.000    26321283.500   103290294.309          50.000  
E33  27807236.700   146127998.770          50.000    27807240.700   109121545.480          50.000  
> 2020  6  5 20 21  4.0000000  0 14       0.000000000000
G 2  20834457.380   109485832.816          50.000                                                  
G 5  23722112.420   124660430.598          50.000                                                  
G 6  21878968.440   114974702.273          50.000    21878971.140    85857731.703          50.000  
G12  20325363.000   106810510.871          50.000                                                  
G19  23513027.940   123561779.441          50.000                                                  
G24  22476509.240   118114784.230          50.000    22476512.320    88202592.406          50.000  
G25  21879797.800   114979048.859          50.000    21879800.320    85860975.957          50.000  
G29  23837268.920   125265657.352          50.000                                                  
E11  22959041.720   120650599.059          50.000    22959041.820    90096219.973          50.000  
E12  22084317.300   116053893.480          50.000    22084318.140    86663616.902          50.000  
E24  21694381.080   114004564.637          50.000    21694396.840    85133246.020          50.000  
E25  25039548.940   131583690.691          50.000    25039553.680    98260536.645          50.000  
E31  26321773.700   138321807.445          50.000    26321779.780   103292241.785          50.000  
E33  27807747.640   146130683.824          50.000    27807751.660   109123550.551          50.000  
> 2020  6  5 20 21  5.0000000  0 14       0.000000000000
G 2  20834584.460   109486500.625          50.000                                                  
G 5  23721500.080   124657212.758          50.000                                                  
G 6  21879438.440   114977172.133          50.000    21879441.140    85859576.078          50.000  
G12  20325147.520   106809378.570          50.000                                                  
G19  23513556.620   123564557.602          50.000                                                  
G24  22477020.600   118117471.496          50.000    22477023.700    88204599.129          50.000  
G25  21879295.520   114976409.438          50.000    21879298.040    85859004.965          50.000  
G29  23836802.620   125263206.926          50.000                                                  
E11  22958798.140   120649319.008          50.000    22958798.240    90095264.094          50.000  
E12  22084575.240   116055248.938          50.000    22084576.080    86664629.098          50.000  
E24  21694495.940   114005168.266          50.000    21694511.720    85133696.781          50.000  
E25  25039165.220   131581674.258          50.000    25039169.960    98259030.867          50.000  
E31  26322270.000   138324415.590          50.000    26322276.100   103294189.426          50.000  
E33  27808258.600   146133368.871          50.000    27808262.600   109125555.617          50.000  
> 2020  6  5 20 21  6.0000000  0 14       0.000000000000
G 2  20834711.620   109487168.914          50.000                                                  
G 5  23720887.780   124653995.016          50.000                                                  
G 6  21879908.520   114979642.387          50.000    21879911.220    85861420.750          50.000  
G12  20324932.140   106808246.691          50.000                                                  
G19  23514085.280   123567335.797          50.000                                                  
G24  22477532.040   118120159.094          50.000    22477535.140    88206606.102          50.000  
G25  21878793.300   114973770.266          50.000    21878795.840    85857034.152          50.000  
G29  23836336.340   125260756.629          50.000                                                  
E11  22958554.620   120648039.297          50.000    22958554.720    90094308.465          50.000  
E12  22084833.220   116056604.648          50.000    22084834.060    86665641.477          50.000  
E24  21694610.880   114005772.285          50.000    21694626.660    85134147.832          50.000  
E25  25038781.560   131579658.031          50.000    25038786.300    98257525.242          50.000  
E31  26322766.360   138327023.938          50.000    26322772.440   103296137.215          50.000  
E33  27808769.540   146136053.898          50.000    27808773.560   109127560.672          50.000  
> 2020  6  5 20 21  7.0000000  0 14       0.000000000000
G 2  20834838.880   109487837.688          50.000                                                  
G 5  23720275.480   124650777.363          50.000                                                  
G 6  21880378.660   114982113.027          50.000    21880381.360    85863265.707          50.000  
G12  20324716.820   106807115.254          50.000                                                  
G19  23514613.960   123570114.031          50.000                                                  
G24  22478043.540   118122847.023          50.000    22478046.620    88208613.320          50.000  
G25  21878291.140   114971131.348          50.000    21878293.660    85855063.535          50.000  
G29  23835870.100   125258306.461          50.000                                                  
E11  22958311.160   120646759.926          50.000    22958311.260    90093353.086          50.000  
E12  22085091.260   116057960.609          50.000    22085092.100    86666654.043          50.000  
E24  21694725.900   114006376.715          50.000    21694741.680    85134599.191          50.000  
E25  25038397.920   131577642.051          50.000    25038402.660    98256019.801          50.000  
E31  26323262.760   138329632.484          50.000    26323268.840   103298085.152          50.000  
E33  27809280.480   146138738.914          50.000    27809284.500   109129565.711          50.000  
> 2020  6  5 20 21  8.0000000  0 14       0.000000000000
G 2  20834966.240   109488506.949          50.000                                                  
G 5  23719663.180   124647559.789          50.000                                                  
G 6  21880848.900   114984584.059          50.000    21880851.580    85865110.957          50.000  
G12  20324501.600   106805984.266          50.000                                                  
G19  23515142.660   123572892.313          50.000                                                  
G24  22478555.100   118125535.266          50.000    22478558.180    88210620.773          50.000  
G25  21877789.020   114968492.703          50.000    21877791.540    85853093.117          50.000  
G29  23835403.860   125255856.430          50.000                                                  
E11  22958067.760   120645480.879          50.000    22958067.860    90092397.949          50.000  
E12  22085349.340   116059316.848          50.000    22085350.180    86667666.813          50.000  
E24  21694841.000   114006981.547          50.000    21694856.780    85135050.844          50.000  
E25  25038014.340   131575626.313          50.000    25038019.080    98254514.539          50.000  
E31  26323759.180   138332241.254          50.000    26323765.280   103300033.254          50.000  
E33  27809791.420   146141423.926          50.000    27809795.440   109131570.746          50.000  
> 2020  6  5 20 21  9.0000000  0 14       0.000000000000
G 2  20835093.700   109489176.707          50.000                                                  
G 5  23719050.920   124644342.301          50.000                                                  
G 6  21881319.180   114987055.484          50.000    21881321.880    85866956.500          50.000  
G12  20324286.460   106804853.707          50.000                                                  
G19  23515671.360   123575670.633          50.000                                                  
G24  22479066.700   118128223.809          50.000    22479069.800    88212628.453          50.000  
G25  21877286.960   114965854.309          50.000    21877289.480    85851122.891          50.000  
G29  23834937.660   125253406.516          50.000                                                  
E11  22957824.440   120644202.156          50.000    22957824.540    90091443.055          50.000  
E12  22085607.480   116060673.332          50.000    22085608.320    86668679.770          50.000  
E24  21694956.180   114007586.781          50.000    21694971.940    85135502.805          50.000  
E25  25037630.800   131573610.801          50.000    25037635.540    98253009.445          50.000  
E31  26324255.660   138334850.238          50.000    26324261.740   103301981.516          50.000  
E33  27810302.360   146144108.918          50.000    27810306.380   109133575.770          50.000  
> 2020  6  5 20 21 10.0000000  0 14       0.000000000000
G 2  20835221.240   109489846.934          50.000                                                  
G 5  23718438.660   124641124.895          50.000                                                  
G 6  21881789.560   114989527.309          50.000    21881792.260    85868802.348          50.000  
G12  20324071.420   106803723.570          50.000                                                  
G19  23516200.060   123578448.984          50.000                                                  
G24  22479578.380   118130912.672          50.000    22479581.480    88214636.367          50.000  
G25  21876784.940   114963216.180          50.000    21876787.460    85849152.859          50.000  
G29  23834471.480   125250956.727          50.000                                                  
E11  22957581.160   120642923.766          50.000    22957581.260    90090488.414          50.000  
E12  22085865.660   116062030.078          50.000    22085866.500    86669692.918          50.000  
E24  21695071.420   114008192.398          50.000    21695087.200    85135955.043          50.000  
E25  25037247.300   131571595.508          50.000    25037252.060    98251504.516          50.000  
E31  26324752.180   138337459.426          50.000    26324758.260   103303929.930          50.000  
E33  27810813.300   146146793.891          50.000    27810817.320   109135580.773          50.000  
> 2020  6  5 20 21 11.0000000  0 14       0.000000000000
G 2  20835348.860   109490517.648          50.000                                                  
G 5  23717826.440   124637907.586          50.000                                                  
G 6  21882260.000   114991999.508          50.000    21882262.700    85870648.469          50.000  
G12  20323856.440   106802593.871          50.000                                                  
G19  23516728.760   123581227.379          50.000                                                  
G24  22480090.120   118133601.848          50.000    22480093.200    88216644.520          50.000  
G25  21876282.960   114960578.316          50.000    21876285.480    85847183.027          50.000  
G29  23834005.320   125248507.055          50.000                                                  
E11  22957337.960   120641645.715          50.000    22957338.060    90089534.020          50.000  
E12  22086123.880   116063387.070          50.000    22086124.720    86670706.254          50.000  
E24  21695186.740   114008798.418          50.000    21695202.520    85136407.590          50.000  
E25  25036863.840   131569580.445          50.000    25036868.600    98249999.758          50.000  
E31  26325248.720   138340068.828          50.000    26325254.820   103305878.504          50.000  
E33  27811324.220   146149478.852          50.000    27811328.240   109137585.770          50.000  
> 2020  6  5 20 21 12.0000000  0 14       0.000000000000
G 2  20835476.600   109491188.859          50.000                                                  
G 5  23717214.200   124634690.352          50.000                                                  
G 6  21882730.520   114994472.109          50.000    21882733.220    85872494.891          50.000  
G12  20323641.540   106801464.621          50.000                                                  
G19  23517257.480   123584005.816          50.000                                                  
G24  22480601.920   118136291.367          50.000    22480605.000    88218652.922          50.000  
G25  21875781.040   114957940.691          50.000    21875783.560    85845213.371          50.000  
G29  23833539.200   125246057.520          50.000                                                  
E11  22957094.820   120640367.988          50.000    22957094.920    90088579.871          50.000  
E12  22086382.160   116064744.336          50.000    22086383.000    86671719.789          50.000  
E24  21695302.140   114009404.844          50.000    21695317.920    85136860.438          50.000  
E25  25036480.440   131567565.613          50.000    25036485.180    98248495.172          50.000  
E31  26325745.320   138342678.438          50.000    26325751.420   103307827.230          50.000  
E33  27811835.160   146152163.805          50.000    27811839.180   109139590.762          50.000  
> 2020  6  5 20 21 13.0000000  0 14       0.000000000000
G 2  20835604.420   109491860.539          50.000                                                  
G 5  23716602.000   124631473.266          50.000                                                  
G 6  21883201.120   114996945.078          50.000    21883203.820    85874341.574          50.000  
G12  20323426.740   106800335.820          50.000                                                  
G19  23517786.220   123586784.293          50.000                                                  
G24  22481113.780   118138981.195          50.000    22481116.880    88220661.547          50.000  
G25  21875279.160   114955303.344          50.000    21875281.680    85843243.930          50.000  
G29  23833073.100   125243608.078          50.000                                                  
E11  22956851.740   120639090.590          50.000    22956851.840    90087625.965          50.000  
E12  22086640.480   116066101.852          50.000    22086641.340    86672733.512          50.000  
E24  21695417.620   114010011.672          50.000    21695433.380    85137313.590          50.000  
E25  25036097.080   131565551.043          50.000    25036101.820    98246990.785          50.000  
E31  26326241.960   138345288.258          50.000    26326248.060   103309776.113          50.000  
E33  27812346.080   146154848.758          50.000    27812350.100   109141595.766          50.000  
> 2020  6  5 20 21 14.0000000  0 14       0.000000000000
G 2  20835732.320   109492532.719          50.000                                                  
G 5  23715989.800   124628256.211          50.000                                                  
G 6  21883671.780   114999418.453          50.000    21883674.480    85876188.578          50.000  
G12  20323212.020   106799207.434          50.000                                                  
G19  23518314.960   123589562.809          50.000                                                  
G24  22481625.700   118141671.336          50.000    22481628.800    88222670.418          50.000  
G25  21874777.340   114952666.250          50.000    21874779.860    85841274.672          50.000  
G29  23832607.000   125241158.793          50.000                                                  
E11  22956608.720   120637813.520          50.000    22956608.820    90086672.301          50.000  
E12  22086898.860   116067459.613          50.000    22086899.700    86673747.422          50.000  
E24  21695533.160   114010618.875          50.000    21695548.940    85137767.016          50.000  
E25  25035713.760   131563536.672          50.000    25035718.500    98245486.543          50.000  
E31  26326738.620   138347898.270          50.000    26326744.720   103311725.145          50.000  
E33  27812857.000   146157533.664          50.000    27812861.020   109143600.723          50.000  
> 2020  6  5 20 21 15.0000000  0 14       0.000000000000
G 2  20835860.340   109493205.383          50.000                                                  
G 5  23715377.640   124625039.238          50.000                                                  
G 6  21884142.540   115001892.223          50.000    21884145.220    85878035.875          50.000  
G12  20322997.380   106798079.496          50.000                                                  
G19  23518843.700   123592341.355          50.000                                                  
G24  22482137.680   118144361.789          50.000    22482140.780    88224679.520          50.000  
G25  21874275.560   114950029.410          50.000    21874278.080    85839305.605          50.000  
G29  23832140.940   125238709.633          50.000                                                  
E11  22956365.760   120636536.762          50.000    22956365.860    90085718.879          50.000  
E12  22087157.280   116068817.637          50.000    22087158.140    86674761.523          50.000  
E24  21695648.780   114011226.488          50.000    21695664.560    85138220.750          50.000  
E25  25035330.480   131561522.551          50.000    25035335.220    98243982.488          50.000  
E31  26327235.340   138350508.508          50.000    26327241.440   103313674.340          50.000  
E33  27813367.920   146160218.563          50.000    27813371.940   109145605.676          50.000  
> 2020  6  5 20 21 16.0000000  0 14       0.000000000000
G 2  20835988.420   109493878.535          50.000                                                  
G 5  23714765.480   124621822.355          50.000                                                  
G 6  21884613.340   115004366.375          50.000    21884616.040    85879883.453          50.000  
G12  20322782.820   106796951.984          50.000                                                  
G19  23519372.440   123595119.953          50.000                                                  
G24  22482649.700   118147052.559          50.000    22482652.800    88226688.863          50.000  
G25  21873773.840   114947392.836          50.000    21873776.360    85837336.734          50.000  
G29  23831674.920   125236260.605          50.000                                                  
E11  22956122.860   120635260.363          50.000    22956122.980    90084765.719          50.000  
E12  22087415.760   116070175.926          50.000    22087416.600    86675775.828          50.000  
E24  21695764.480   114011834.500          50.000    21695780.260    85138674.777          50.000  
E25  25034947.240   131559508.641          50.000    25034952.000    98242478.594          50.000  
E31  26327732.100   138353118.949          50.000    26327738.180   103315623.691          50.000  
E33  27813878.840   146162903.453          50.000    27813882.860   109147610.621          50.000  
> 2020  6  5 20 21 17.0000000  0 14       0.000000000000
G 2  20836116.620   109494552.172          50.000                                                  
G 5  23714153.340   124618605.551          50.000                                                  
G 6  21885084.240   115006840.934          50.000    21885086.940    85881731.336          50.000  
G12  20322568.340   106795824.902          50.000                                                  
G19  23519901.200   123597898.586          50.000                                                  
G24  22483161.800   118149743.648          50.000    22483164.900    88228698.441          50.000  
G25  21873272.160   114944756.516          50.000    21873274.680    85835368.055          50.000  
G29  23831208.900   125233811.695          50.000                                                  
E11  22955880.040   120633984.285          50.000    22955880.140    90083812.801          50.000  
E12  22087674.280   116071534.461          50.000    22087675.120    86676790.313          50.000  
E24  21695880.260   114012442.914          50.000    21695896.040    85139129.109          50.000  
E25  25034564.060   131557494.965          50.000    25034568.800    98240974.867          50.000  
E31  26328228.880   138355729.594          50.000    26328234.980   103317573.195          50.000  
E33  27814389.760   146165588.324          50.000    27814393.780   109149615.551          50.000  
> 2020  6  5 20 21 18.0000000  0 14       0.000000000000
G 2  20836244.900   109495226.305          50.000                                                  
G 5  23713541.220   124615388.844          50.000                                                  
G 6  21885555.200   115009315.867          50.000    21885557.900    85883579.500          50.000  
G12  20322353.960   106794698.273          50.000                                                  
G19  23520429.960   123600677.258          50.000                                                  
G24  22483673.960   118152435.074          50.000    22483677.060    88230708.270          50.000  
G25  21872770.540   114942120.449          50.000    21872773.060    85833399.566          50.000  
G29  23830742.900   125231362.918          50.000                                                  
E11  22955637.260   120632708.531          50.000    22955637.380    90082860.121          50.000  
E12  22087932.860   116072893.262          50.000    22087933.700    86677805.000          50.000  
E24  21695996.120   114013051.715          50.000    21696011.900    85139583.730          50.000  
E25  25034180.920   131555481.539          50.000    25034185.660    98239471.336          50.000  
E31  26328725.720   138358340.461          50.000    26328731.820   103319522.863          50.000  
E33  27814900.660   146168273.172          50.000    27814904.700   109151620.465          50.000  
> 2020  6  5 20 21 19.0000000  0 14       0.000000000000
G 2  20836373.280   109495900.906          50.000                                                  
G 5  23712929.120   124612172.215          50.000                                                  
G 6  21886026.240   115011791.195          50.000    21886028.940    85885427.961          50.000  
G12  20322139.640   106793572.063          50.000                                                  
G19  23520958.740   123603455.977          50.000                                                  
G24  22484186.180   118155126.793          50.000    22484189.280    88232718.320          50.000  
G25  21872268.960   114939484.641          50.000    21872271.480    85831431.270          50.000  
G29  23830276.940   125228914.270          50.000                                                  
E11  22955394.560   120631433.102          50.000    22955394.680    90081907.688          50.000  
E12  22088191.460   116074252.313          50.000    22088192.320    86678819.867          50.000  
E24  21696112.040   114013660.914          50.000    21696127.820    85140038.645          50.000  
E25  25033797.820   131553468.340          50.000    25033802.560    98237967.969          50.000  
E31  26329222.580   138360951.527          50.000    26329228.680   103321472.680          50.000  
E33  27815411.580   146170958.016          50.000    27815415.600   109153625.375          50.000  
> 2020  6  5 20 21 20.0000000  0 14       0.000000000000
G 2  20836501.740   109496576.004          50.000                                                  
G 5  23712317.040   124608955.676          50.000                                                  
G 6  21886497.360   115014266.914          50.000    21886500.060    85887276.711          50.000  
G12  20321925.420   106792446.301          50.000                                                  
G19  23521487.520   123606234.734          50.000                                                  
G24  22484698.460   118157818.844          50.000    22484701.560    88234728.617          50.000  
G25  21871767.440   114936849.105          50.000    21871769.960    85829463.172          50.000  
G29  23829811.000   125226465.746          50.000                                                  
E11  22955151.920   120630158.020          50.000    22955152.040    90080955.512          50.000  
E12  22088450.140   116075611.617          50.000    22088450.980    86679834.934          50.000  
E24  21696228.040   114014270.512          50.000    21696243.820    85140493.859          50.000  
E25  25033414.760   131551455.355          50.000    25033419.500    98236464.762          50.000  
E31  26329719.500   138363562.801          50.000    26329725.600   103323422.648          50.000  
E33  27815922.480   146173642.848          50.000    27815926.520   109155630.277          50.000  
> 2020  6  5 20 21 21.0000000  0 14       0.000000000000
G 2  20836630.300   109497251.586          50.000                                                  
G 5  23711704.960   124605739.223          50.000                                                  
G 6  21886968.540   115016743.023          50.000    21886971.240    85889125.754          50.000  
G12  20321711.280   106791320.969          50.000                                                  
G19  23522016.300   123609013.535          50.000                                                  
G24  22485210.820   118160511.219          50.000    22485213.920    88236739.156          50.000  
G25  21871265.960   114934213.824          50.000    21871268.480    85827495.270          50.000  
G29  23829345.100   125224017.344          50.000                                                  
E11  22954909.340   120628883.254          50.000    22954909.460    90080003.574          50.000  
E12  22088708.860   116076971.188          50.000    22088709.700    86680850.191          50.000  
E24  21696344.120   114014880.531          50.000    21696359.920    85140949.391          50.000  
E25  25033031.740   131549442.609          50.000    25033036.500    98234961.734          50.000  
E31  26330216.440   138366174.289          50.000    26330222.540   103325372.785          50.000  
E33  27816433.380   146176327.656          50.000    27816437.420   109157635.160          50.000  
> 2020  6  5 20 21 22.0000000  0 14       0.000000000000
G 2  20836758.940   109497927.645          50.000                                                  
G 5  23711092.900   124602522.848          50.000                                                  
G 6  21887439.820   115019219.527          50.000    21887442.500    85890975.090          50.000  
G12  20321497.220   106790196.082          50.000                                                  
G19  23522545.100   123611792.363          50.000                                                  
G24  22485723.220   118163203.906          50.000    22485726.320    88238749.930          50.000  
G25  21870764.520   114931578.805          50.000    21870767.040    85825527.559          50.000  
G29  23828879.200   125221569.070          50.000                                                  
E11  22954666.820   120627608.824          50.000    22954666.940    90079051.887          50.000  
E12  22088967.620   116078331.016          50.000    22088968.480    86681865.645          50.000  
E24  21696460.280   114015490.910          50.000    21696476.060    85141405.188          50.000  
E25  25032648.780   131547430.102          50.000    25032653.540    98233458.883          50.000  
E31  26330713.440   138368785.988          50.000    26330719.540   103327323.074          50.000  
E33  27816944.300   146179012.457          50.000    27816948.320   109159640.039          50.000  
> 2020  6  5 20 21 23.0000000  0 14       0.000000000000
G 2  20836887.700   109498604.199          50.000                                                  
G 5  23710480.860   124599306.570          50.000                                                  
G 6  21887911.140   115021696.406          50.000    21887913.840    85892824.707          50.000  
G12  20321283.240   106789071.625          50.000                                                  
G19  23523073.900   123614571.242          50.000                                                  
G24  22486235.680   118165896.902          50.000    22486238.780    88240760.930          50.000  
G25  21870263.160   114928944.043          50.000    21870265.660    85823560.047          50.000  
G29  23828413.340   125219120.930          50.000                                                  
E11  22954424.380   120626334.723          50.000    22954424.480    90078100.445          50.000  
E12  22089226.440   116079691.102          50.000    22089227.300    86682881.285          50.000  
E24  21696576.520   114016101.715          50.000    21696592.300    85141861.305          50.000  
E25  25032265.840   131545417.824          50.000    25032270.600    98231956.207          50.000  
E31  26331210.460   138371397.895          50.000    26331216.580   103329273.516          50.000  
E33  27817455.180   146181697.234          50.000    27817459.220   109161644.902          50.000  
> 2020  6  5 20 21 24.0000000  0 14       0.000000000000
G 2  20837016.520   109499281.234          50.000                                                  
G 5  23709868.840   124596090.383          50.000                                                  
G 6  21888382.560   115024173.691          50.000    21888385.260    85894674.625          50.000  
G12  20321069.340   106787947.602          50.000                                                  
G19  23523602.720   123617350.160          50.000                                                  
G24  22486748.200   118168590.215          50.000    22486751.300    88242772.168          50.000  
G25  21869761.820   114926309.543          50.000    21869764.340    85821592.727          50.000  
G29  23827947.480   125216672.906          50.000                                                  
E11  22954181.980   120625060.934          50.000    22954182.100    90077149.234          50.000  
E12  22089485.300   116081051.434          50.000    22089486.160    86683897.113          50.000  
E24  21696692.820   114016712.902          50.000    21696708.600    85142317.707          50.000  
E25  25031882.960   131543405.781          50.000    25031887.720    98230453.703          50.000  
E31  26331707.540   138374010.008          50.000    26331713.640   103331224.113          50.000  
E33  27817966.080   146184382.004          50.000    27817970.120   109163649.758          50.000  
> 2020  6  5 20 21 25.0000000  0 14       0.000000000000
G 2  20837145.460   109499958.754          50.000                                                  
G 5  23709256.840   124592874.277          50.000                                                  
G 6  21888854.040   115026651.355          50.000    21888856.740    85896524.832          50.000  
G12  20320855.540   106786824.020          50.000                                                  
G19  23524131.540   123620129.113          50.000                                                  
G24  22487260.780   118171283.832          50.000    22487263.880    88244783.633          50.000  
G25  21869260.540   114923675.313          50.000    21869263.060    85819625.605          50.000  
G29  23827481.660   125214225.016          50.000                                                  
E11  22953939.640   120623787.492          50.000    22953939.760    90076198.285          50.000  
E12  22089744.220   116082412.020          50.000    22089745.060    86684913.133          50.000  
E24  21696809.200   114017324.488          50.000    21696824.980    85142774.406          50.000  
E25  25031500.140   131541393.969          50.000    25031504.900    98228951.371          50.000  
E31  26332204.640   138376622.328          50.000    26332210.760   103333174.867          50.000  
E33  27818476.980   146187066.750          50.000    27818481.020   109165654.594          50.000  
> 2020  6  5 20 21 26.0000000  0 14       0.000000000000
G 2  20837274.480   109500636.762          50.000                                                  
G 5  23708644.840   124589658.258          50.000                                                  
G 6  21889325.600   115029129.410          50.000    21889328.300    85898375.324          50.000  
G12  20320641.800   106785700.871          50.000                                                  
G19  23524660.360   123622908.102          50.000                                                  
G24  22487773.420   118173977.781          50.000    22487776.520    88246795.348          50.000  
G25  21868759.320   114921041.340          50.000    21868761.840    85817658.680          50.000  
G29  23827015.880   125211777.254          50.000                                                  
E11  22953697.380   120622514.395          50.000    22953697.500    90075247.590          50.000  
E12  22090003.180   116083772.871          50.000    22090004.040    86685929.348          50.000  
E24  21696925.660   114017936.477          50.000    21696941.440    85143231.406          50.000  
E25  25031117.340   131539382.395          50.000    25031122.100    98227449.219          50.000  
E31  26332701.800   138379234.863          50.000    26332707.900   103335125.781          50.000  
E33  27818987.860   146189751.488          50.000    27818991.900   109167659.426          50.000  
> 2020  6  5 20 21 27.0000000  0 14       0.000000000000
G 2  20837403.580   109501315.250          50.000                                                  
G 5  23708032.880   124586442.328          50.000                                                  
G 6  21889797.240   115031607.852          50.000    21889799.920    85900226.109          50.000  
G12  20320428.160   106784578.156          50.000                                                  
G19  23525189.200   123625687.133          50.000                                                  
G24  22488286.120   118176672.055          50.000    22488289.220    88248807.305          50.000  
G25  21868258.140   114918407.625          50.000    21868260.660    85815691.945          50.000  
G29  23826550.100   125209329.617          50.000                                                  
E11  22953455.180   120621241.594          50.000    22953455.300    90074297.117          50.000  
E12  22090262.180   116085133.973          50.000    22090263.040    86686945.754          50.000  
E24  21697042.180   114018548.867          50.000    21697057.980    85143688.707          50.000  
E25  25030734.600   131537371.035          50.000    25030739.360    98225947.227          50.000  
E31  26333198.980   138381847.605          50.000    26333205.100   103337076.852          50.000  
E33  27819498.740   146192436.211          50.000    27819502.780   109169664.246          50.000  
> 2020  6  5 20 21 28.0000000  0 14       0.000000000000
G 2  20837532.800   109501994.223          50.000                                                  
G 5  23707420.920   124583226.488          50.000                                                  
G 6  21890268.940   115034086.695          50.000    21890271.640    85902077.195          50.000  
G12  20320214.600   106783455.887          50.000                                                  
G19  23525718.040   123628466.199          50.000                                                  
G24  22488798.880   118179366.625          50.000    22488801.980    88250819.484          50.000  
G25  21867757.000   114915774.199          50.000    21867759.520    85813725.426          50.000  
G29  23826084.360   125206882.109          50.000                                                  
E11  22953213.040   120619969.145          50.000    22953213.160    90073346.910          50.000  
E12  22090521.240   116086495.340          50.000    22090522.100    86687962.352          50.000  
E24  21697158.800   114019161.652          50.000    21697174.580    85144146.305          50.000  
E25  25030351.900   131535359.922          50.000    25030356.660    98224445.418          50.000  
E31  26333696.200   138384460.547          50.000    26333702.320   103339028.070          50.000  
E33  27820009.640   146195120.918          50.000    27820013.680   109171669.055          50.000  
> 2020  6  5 20 21 29.0000000  0 14       0.000000000000
G 2  20837662.080   109502673.680          50.000                                                  
G 5  23706808.980   124580010.734          50.000                                                  
G 6  21890740.720   115036565.914          50.000    21890743.420    85903928.559          50.000  
G12  20320001.120   106782334.047          50.000                                                  
G19  23526246.880   123631245.305          50.000                                                  
G24  22489311.700   118182061.535          50.000    22489314.800    88252831.918          50.000  
G25  21867255.920   114913140.988          50.000    21867258.440    85811759.066          50.000  
G29  23825618.640   125204434.723          50.000                                                  
E11  22952970.960   120618697.004          50.000    22952971.080    90072396.930          50.000  
E12  22090780.340   116087856.953          50.000    22090781.200    86688979.141          50.000  
E24  21697275.480   114019774.824          50.000    21697291.280    85144604.188          50.000  
E25  25029969.240   131533349.035          50.000    25029974.000    98222943.777          50.000  
E31  26334193.480   138387073.703          50.000    26334199.600   103340979.445          50.000  
E33  27820520.520   146197805.602          50.000    27820524.560   109173673.848          50.000  
> 2020  6  5 20 21 30.0000000  0 14       0.000000000000
G 2  20837791.480   109503353.621          50.000                                                  
G 5  23706197.060   124576795.070          50.000                                                  
G 6  21891212.580   115039045.531          50.000    21891215.280    85905780.219          50.000  
G12  20319787.720   106781212.645          50.000                                                  
G19  23526775.740   123634024.449          50.000                                                  
G24  22489824.580   118184756.758          50.000    22489827.700    88254844.582          50.000  
G25  21866754.900   114910508.051          50.000    21866757.400    85809792.914          50.000  
G29  23825152.940   125201987.461          50.000                                                  
E11  22952728.940   120617425.227          50.000    22952729.080    90071447.223          50.000  
E12  22091039.500   116089218.824          50.000    22091040.360    86689996.117          50.000  
E24  21697392.240   114020388.414          50.000    21697408.040    85145062.383          50.000  
E25  25029586.620   131531338.383          50.000    25029591.380    98221442.313          50.000  
E31  26334690.780   138389687.066          50.000    26334696.900   103342930.977          50.000  
E33  27821031.380   146200490.270          50.000    27821035.440   109175678.629          50.000  
> 2020  6  5 20 21 31.0000000  0 14       0.000000000000
G 2  20837920.960   109504034.047          50.000                                                  
G 5  23705585.160   124573579.484          50.000                                                  
G 6  21891684.500   115041525.523          50.000    21891687.200    85907632.160          50.000  
G12  20319574.400   106780091.680          50.000                                                  
G19  23527304.600   123636803.629          50.000                                                  
G24  22490337.540   118187452.301          50.000    22490340.640    88256857.484          50.000  
G25  21866253.920   114907875.379          50.000    21866256.420    85807826.961          50.000  
G29  23824687.260   125199540.332          50.000                                                  
E11  22952487.000   120616153.746          50.000    22952487.120    90070497.738          50.000  
E12  22091298.700   116090580.941          50.000    22091299.560    86691013.277          50.000  
E24  21697509.080   114021002.387          50.000    21697524.880    85145520.867          50.000  
E25  25029204.040   131529327.949          50.000    25029208.800    98219941.012          50.000  
E31  26335188.140   138392300.633          50.000    26335194.240   103344882.660          50.000  
E33  27821542.260   146203174.922          50.000    27821546.300   109177683.395          50.000  
> 2020  6  5 20 21 32.0000000  0 14       0.000000000000
G 2  20838050.540   109504714.965          50.000                                                  
G 5  23704973.260   124570363.988          50.000                                                  
G 6  21892156.500   115044005.914          50.000    21892159.200    85909484.402          50.000  
G12  20319361.180   106778971.152          50.000                                                  
G19  23527833.460   123639582.852          50.000                                                  
G24  22490850.540   118190148.160          50.000    22490853.640    88258870.625          50.000  
G25  21865752.980   114905242.961          50.000    21865755.500    85805861.191          50.000  
G29  23824221.600   125197093.328          50.000                                                  
E11  22952245.100   120614882.617          50.000    22952245.240    90069548.516          50.000  
E12  22091557.960   116091943.320          50.000    22091558.820    86692030.637          50.000  
E24  21697626.000   114021616.758          50.000    21697641.780    85145979.645          50.000  
E25  25028821.520   131527317.750          50.000    25028826.280    98218439.883          50.000  
E31  26335685.520   138394914.414          50.000    26335691.640   103346834.508          50.000  
E33  27822053.140   146205859.563          50.000    27822057.180   109179688.152          50.000  
> 2020  6  5 20 21 33.0000000  0 14       0.000000000000
G 2  20838180.200   109505396.359          50.000                                                  
G 5  23704361.400   124567148.586          50.000                                                  
G 6  21892628.580   115046486.680          50.000    21892631.280    85911336.922          50.000  
G12  20319148.040   106777851.059          50.000                                                  
G19  23528362.340   123642362.117          50.000                                                  
G24  22491363.600   118192844.324          50.000    22491366.700    88260883.996          50.000  
G25  21865252.120   114902610.906          50.000    21865254.640    85803895.699          50.000  
G29  23823755.980   125194646.449          50.000                                                  
E11  22952003.280   120613611.813          50.000    22952003.400    90068599.535          50.000  
E12  22091817.260   116093305.961          50.000    22091818.120    86693048.188          50.000  
E24  21697742.980   114022231.527          50.000    21697758.780    85146438.719          50.000  
E25  25028439.040   131525307.797          50.000    25028443.800    98216938.945          50.000  
E31  26336182.940   138397528.395          50.000    26336189.060   103348786.500          50.000  
E33  27822564.000   146208544.188          50.000    27822568.040   109181692.902          50.000  
> 2020  6  5 20 21 34.0000000  0 14       0.000000000000
G 2  20838309.960   109506078.246          50.000                                                  
G 5  23703749.540   124563933.281          50.000                                                  
G 6  21893100.740   115048967.852          50.000    21893103.440    85913189.742          50.000  
G12  20318934.980   106776731.410          50.000                                                  
G19  23528891.220   123645141.406          50.000                                                  
G24  22491876.740   118195540.840          50.000    22491879.840    88262897.625          50.000  
G25  21864751.280   114899979.043          50.000    21864753.800    85801930.348          50.000  
G29  23823290.380   125192199.699          50.000                                                  
E11  22951761.520   120612341.328          50.000    22951761.640    90067650.793          50.000  
E12  22092076.600   116094668.852          50.000    22092077.480    86694065.926          50.000  
E24  21697860.040   114022846.719          50.000    21697875.840    85146898.113          50.000  
E25  25028056.600   131523298.086          50.000    25028061.360    98215438.180          50.000  
E31  26336680.400   138400142.598          50.000    26336686.540   103350738.656          50.000  
E33  27823074.860   146211228.801          50.000    27823078.920   109183697.637          50.000  
> 2020  6  5 20 21 35.0000000  0 14       0.000000000000
G 2  20838439.800   109506760.594          50.000                                                  
G 5  23703137.700   124560718.055          50.000                                                  
G 6  21893572.960   115051449.402          50.000    21893575.660    85915042.848          50.000  
G12  20318721.980   106775612.191          50.000                                                  
G19  23529420.120   123647920.746          50.000                                                  
G24  22492389.920   118198237.676          50.000    22492393.020    88264911.496          50.000  
G25  21864250.500   114897347.395          50.000    21864253.020    85799965.156          50.000  
G29  23822824.800   125189753.066          50.000                                                  
E11  22951519.800   120611071.160          50.000    22951519.940    90066702.285          50.000  
E12  22092336.000   116096032.004          50.000    22092336.880    86695083.863          50.000  
E24  21697977.180   114023462.266          50.000    21697992.980    85147357.770          50.000  
E25  25027674.200   131521288.590          50.000    25027678.980    98213937.578          50.000  
E31  26337177.920   138402757.000          50.000    26337184.040   103352690.969          50.000  
E33  27823585.720   146213913.383          50.000    27823589.780   109185702.355          50.000  
> 2020  6  5 20 21 36.0000000  0 14       0.000000000000
G 2  20838569.740   109507443.449          50.000                                                  
G 5  23702525.880   124557502.918          50.000                                                  
G 6  21894045.260   115053931.348          50.000    21894047.960    85916896.250          50.000  
G12  20318509.100   106774493.414          50.000                                                  
G19  23529949.020   123650700.109          50.000                                                  
G24  22492903.180   118200934.832          50.000    22492906.280    88266925.605          50.000  
G25  21863749.760   114894716.031          50.000    21863752.280    85798000.176          50.000  
G29  23822359.240   125187306.566          50.000                                                  
E11  22951278.180   120609801.363          50.000    22951278.300    90065754.059          50.000  
E12  22092595.460   116097395.406          50.000    22092596.320    86696101.984          50.000  
E24  21698094.400   114024078.234          50.000    21698110.200    85147817.746          50.000  
E25  25027291.860   131519279.324          50.000    25027296.620    98212437.152          50.000  
E31  26337675.460   138405371.613          50.000    26337681.580   103354643.434          50.000  
E33  27824096.580   146216597.961          50.000    27824100.640   109187707.066          50.000  
> 2020  6  5 20 21 37.0000000  0 14       0.000000000000
G 2  20838699.780   109508126.773          50.000                                                  
G 5  23701914.080   124554287.867          50.000                                                  
G 6  21894517.620   115056413.680          50.000    21894520.320    85918749.938          50.000  
G12  20318296.280   106773375.074          50.000                                                  
G19  23530477.920   123653479.523          50.000                                                  
G24  22493416.480   118203632.285          50.000    22493419.580    88268939.938          50.000  
G25  21863249.080   114892084.930          50.000    21863251.600    85796035.398          50.000  
G29  23821893.720   125184860.188          50.000                                                  
E11  22951036.600   120608531.879          50.000    22951036.720    90064806.063          50.000  
E12  22092854.940   116098759.066          50.000    22092855.820    86697120.293          50.000  
E24  21698211.680   114024694.605          50.000    21698227.480    85148278.016          50.000  
E25  25026909.540   131517270.301          50.000    25026914.320    98210936.902          50.000  
E31  26338173.040   138407986.445          50.000    26338179.180   103356596.059          50.000  
E33  27824607.440   146219282.523          50.000    27824611.500   109189711.766          50.000  
> 2020  6  5 20 21 38.0000000  0 14       0.000000000000
G 2  20838829.900   109508810.586          50.000                                                  
G 5  23701302.280   124551072.895          50.000                                                  
G 6  21894990.080   115058896.395          50.000    21894992.780    85920603.914          50.000  
G12  20318083.540   106772257.168          50.000                                                  
G19  23531006.820   123656258.973          50.000                                                  
G24  22493929.860   118206330.047          50.000    22493932.960    88270954.496          50.000  
G25  21862748.460   114889454.098          50.000    21862750.960    85794070.813          50.000  
G29  23821428.200   125182413.938          50.000                                                  
E11  22950795.080   120607262.715          50.000    22950795.220    90063858.309          50.000  
E12  22093114.500   116100122.988          50.000    22093115.360    86698138.805          50.000  
E24  21698329.060   114025311.383          50.000    21698344.860    85148738.594          50.000  
E25  25026527.280   131515261.500          50.000    25026532.060    98209436.820          50.000  
E31  26338670.680   138410601.469          50.000    26338676.800   103358548.836          50.000  
E33  27825118.300   146221967.070          50.000    27825122.340   109191716.457          50.000  
> 2020  6  5 20 21 39.0000000  0 14       0.000000000000
G 2  20838960.120   109509494.879          50.000                                                  
G 5  23700690.520   124547858.020          50.000                                                  
G 6  21895462.600   115061379.504          50.000    21895465.300    85922458.184          50.000  
G12  20317870.900   106771139.703          50.000                                                  
G19  23531535.740   123659038.461          50.000                                                  
G24  22494443.280   118209028.125          50.000    22494446.380    88272969.297          50.000  
G25  21862247.860   114886823.488          50.000    21862250.380    85792106.398          50.000  
G29  23820962.720   125179967.820          50.000                                                  
E11  22950553.640   120605993.871          50.000    22950553.760    90062910.789          50.000  
E12  22093374.080   116101487.145          50.000    22093374.960    86699157.488          50.000  
E24  21698446.500   114025928.527          50.000    21698462.300    85149199.441          50.000  
E25  25026145.060   131513252.930          50.000    25026149.840    98207936.914          50.000  
E31  26339168.340   138413216.707          50.000    26339174.460   103360501.766          50.000  
E33  27825629.140   146224651.602          50.000    27825633.200   109193721.133          50.000  
> 2020  6  5 20 21 40.0000000  0 14       0.000000000000
G 2  20839090.420   109510179.660          50.000                                                  
G 5  23700078.760   124544643.238          50.000                                                  
G 6  21895935.180   115063862.996          50.000    21895937.880    85924312.738          50.000  
G12  20317658.340   106770022.676          50.000                                                  
G19  23532064.680   123661817.984          50.000                                                  
G24  22494956.760   118211726.516          50.000    22494959.880    88274984.324          50.000  
G25  21861747.340   114884193.168          50.000    21861749.840    85790142.199          50.000  
G29  23820497.280   125177521.832          50.000                                                  
E11  22950312.240   120604725.367          50.000    22950312.380    90061963.527          50.000  
E12  22093633.740   116102851.582          50.000    22093634.600    86700176.383          50.000  
E24  21698564.020   114026546.094          50.000    21698579.820    85149660.609          50.000  
E25  25025762.900   131511244.621          50.000    25025767.680    98206437.195          50.000  
E31  26339666.040   138415832.156          50.000    26339672.160   103362454.855          50.000  
E33  27826139.980   146227336.109          50.000    27826144.040   109195725.793          50.000  
> 2020  6  5 20 21 41.0000000  0 14       0.000000000000
G 2  20839220.820   109510864.918          50.000                                                  
G 5  23699467.020   124541428.535          50.000                                                  
G 6  21896407.860   115066346.883          50.000    21896410.560    85926167.590          50.000  
G12  20317445.860   106768906.082          50.000                                                  
G19  23532593.600   123664597.543          50.000                                                  
G24  22495470.320   118214425.227          50.000    22495473.420    88276999.594          50.000  
G25  21861246.840   114881563.102          50.000    21861249.360    85788178.191          50.000  
G29  23820031.840   125175075.961          50.000                                                  
E11  22950070.920   120603457.191          50.000    22950071.060    90061016.512          50.000  
E12  22093893.420   116104216.270          50.000    22093894.300    86701195.461          50.000  
E24  21698681.600   114027164.055          50.000    21698697.420    85150122.066          50.000  
E25  25025380.760   131509236.520          50.000    25025385.540    98204937.637          50.000  
E31  26340163.780   138418447.809          50.000    26340169.920   103364408.098          50.000  
E33  27826650.840   146230020.602          50.000    27826654.880   109197730.441          50.000  
> 2020  6  5 20 21 42.0000000  0 14       0.000000000000
G 2  20839351.320   109511550.668          50.000                                                  
G 5  23698855.300   124538213.934          50.000                                                  
G 6  21896880.600   115068831.148          50.000    21896883.300    85928022.719          50.000  
G12  20317233.460   106767789.934          50.000                                                  
G19  23533122.540   123667377.152          50.000                                                  
G24  22495983.920   118217124.254          50.000    22495987.040    88279015.102          50.000  
G25  21860746.420   114878933.297          50.000    21860748.920    85786214.375          50.000  
G29  23819566.420   125172630.227          50.000                                                  
E11  22949829.660   120602189.359          50.000    22949829.800    90060069.746          50.000  
E12  22094153.160   116105581.199          50.000    22094154.040    86702214.723          50.000  
E24  21698799.280   114027782.406          50.000    21698815.080    85150583.820          50.000  
E25  25024998.680   131507228.648          50.000    25025003.460    98203438.250          50.000  
E31  26340661.560   138421063.672          50.000    26340667.700   103366361.496          50.000  
E33  27827161.680   146232705.086          50.000    27827165.740   109199735.082          50.000  
> 2020  6  5 20 21 43.0000000  0 14       0.000000000000
G 2  20839481.900   109512236.895          50.000                                                  
G 5  23698243.600   124534999.422          50.000                                                  
G 6  21897353.400   115071315.809          50.000    21897356.100    85929878.148          50.000  
G12  20317021.140   106766674.219          50.000                                                  
G19  23533651.500   123670156.785          50.000                                                  
G24  22496497.600   118219823.598          50.000    22496500.700    88281030.844          50.000  
G25  21860246.020   114876303.758          50.000    21860248.540    85784250.758          50.000  
G29  23819101.040   125170184.609          50.000                                                  
E11  22949588.460   120600921.844          50.000    22949588.600    90059123.223          50.000  
E12  22094412.940   116106946.383          50.000    22094413.820    86703234.176          50.000  
E24  21698917.020   114028401.164          50.000    21698932.820    85151045.875          50.000  
E25  25024616.640   131505221.012          50.000    25024621.420    98201939.035          50.000  
E31  26341159.380   138423679.727          50.000    26341165.520   103368315.039          50.000  
E33  27827672.500   146235389.543          50.000    27827676.560   109201739.707          50.000  
> 2020  6  5 20 21 44.0000000  0 14       0.000000000000
G 2  20839612.580   109512923.613          50.000                                                  
G 5  23697631.920   124531785.004          50.000                                                  
G 6  21897826.300   115073800.852          50.000    21897829.000    85931733.863          50.000  
G12  20316808.920   106765558.949          50.000                                                  
G19  23534180.460   123672936.461          50.000                                                  
G24  22497011.320   118222523.250          50.000    22497014.420    88283046.820          50.000  
G25  21859745.700   114873674.492          50.000    21859748.200    85782287.348          50.000  
G29  23818635.680   125167739.117          50.000                                                  
E11  22949347.320   120599654.648          50.000    22949347.460    90058176.938          50.000  
E12  22094672.780   116108311.836          50.000    22094673.660    86704253.828          50.000  
E24  21699034.840   114029020.320          50.000    21699050.640    85151508.227          50.000  
E25  25024234.640   131503213.613          50.000    25024239.420    98200440.000          50.000  
E31  26341657.240   138426296.012          50.000    26341663.380   103370268.754          50.000  
E33  27828183.340   146238073.992          50.000    27828187.400   109203744.324          50.000  
> 2020  6  5 20 21 45.0000000  0 14       0.000000000000
G 2  20839743.360   109513610.805          50.000                                                  
G 5  23697020.240   124528570.672          50.000                                                  
G 6  21898299.260   115076286.277          50.000    21898301.960    85933589.863          50.000  
G12  20316596.780   106764444.105          50.000                                                  
G19  23534709.420   123675716.184          50.000                                                  
G24  22497525.100   118225223.219          50.000    22497528.220    88285063.027          50.000  
G25  21859245.400   114871045.480          50.000    21859247.920    85780324.125          50.000  
G29  23818170.340   125165293.758          50.000                                                  
E11  22949106.240   120598387.777          50.000    22949106.380    90057230.895          50.000  
E12  22094932.660   116109677.531          50.000    22094933.540    86705273.660          50.000  
E24  21699152.740   114029639.863          50.000    21699168.540    85151970.871          50.000  
E25  25023852.700   131501206.461          50.000    25023857.480    98198941.152          50.000  
E31  26342155.140   138428912.496          50.000    26342161.280   103372222.613          50.000  
E33  27828694.180   146240758.426          50.000    27828698.240   109205748.926          50.000  
> 2020  6  5 20 21 46.0000000  0 14       0.000000000000
G 2  20839874.220   109514298.488          50.000                                                  
G 5  23696408.600   124525356.430          50.000                                                  
G 6  21898772.300   115078772.102          50.000    21898775.000    85935446.160          50.000  
G12  20316384.720   106763329.711          50.000                                                  
G19  23535238.380   123678495.926          50.000                                                  
G24  22498038.960   118227923.527          50.000    22498042.060    88287079.492          50.000  
G25  21858745.180   114868416.730          50.000    21858747.680    85778361.102          50.000  
G29  23817705.020   125162848.535          50.000                                                  
E11  22948865.240   120597121.270          50.000    22948865.360    90056285.121          50.000  
E12  22095192.600   116111043.484          50.000    22095193.480    86706293.688          50.000  
E24  21699270.720   114030259.809          50.000    21699286.520    85152433.813          50.000  
E25  25023470.800   131499199.527          50.000    25023475.560    98197442.465          50.000  
E31  26342653.100   138431529.199          50.000    26342659.240   103374176.641          50.000  
E33  27829205.000   146243442.840          50.000    27829209.060   109207753.516          50.000  
> 2020  6  5 20 21 47.0000000  0 14       0.000000000000
G 2  20840005.160   109514986.656          50.000                                                  
G 5  23695796.960   124522142.277          50.000                                                  
G 6  21899245.400   115081258.313          50.000    21899248.100    85937302.746          50.000  
G12  20316172.740   106762215.750          50.000                                                  
G19  23535767.360   123681275.715          50.000                                                  
G24  22498552.860   118230624.125          50.000    22498555.980    88289096.172          50.000  
G25  21858244.980   114865788.242          50.000    21858247.500    85776398.270          50.000  
G29  23817239.740   125160403.430          50.000                                                  
E11  22948624.280   120595855.090          50.000    22948624.420    90055339.598          50.000  
E12  22095452.580   116112409.699          50.000    22095453.460    86707313.914          50.000  
E24  21699388.760   114030880.160          50.000    21699404.560    85152897.059          50.000  
E25  25023088.920   131497192.824          50.000    25023093.700    98195943.953          50.000  
E31  26343151.080   138434146.094          50.000    26343157.220   103376130.816          50.000  
E33  27829715.820   146246127.246          50.000    27829719.900   109209758.105          50.000  
> 2020  6  5 20 21 48.0000000  0 14       0.000000000000
G 2  20840136.220   109515675.309          50.000                                                  
G 5  23695185.340   124518928.207          50.000                                                  
G 6  21899718.580   115083744.902          50.000    21899721.280    85939159.613          50.000  
G12  20315960.840   106761102.227          50.000                                                  
G19  23536296.340   123684055.547          50.000                                                  
G24  22499066.840   118233325.051          50.000    22499069.940    88291113.094          50.000  
G25  21857744.860   114863160.016          50.000    21857747.360    85774435.633          50.000  
G29  23816774.480   125157958.445          50.000                                                  
E11  22948383.400   120594589.207          50.000    22948383.540    90054394.297          50.000  
E12  22095712.600   116113776.164          50.000    22095713.480    86708334.324          50.000  
E24  21699506.880   114031500.895          50.000    21699522.700    85153360.598          50.000  
E25  25022707.100   131495186.352          50.000    25022711.880    98194445.613          50.000  
E31  26343649.100   138436763.203          50.000    26343655.240   103378085.148          50.000  
E33  27830226.660   146248811.629          50.000    27830230.720   109211762.672          50.000  
> 2020  6  5 20 21 49.0000000  0 14       0.000000000000
G 2  20840267.360   109516364.441          50.000                                                  
G 5  23694573.740   124515714.242          50.000                                                  
G 6  21900191.840   115086231.883          50.000    21900194.540    85941016.773          50.000  
G12  20315749.020   106759989.141          50.000                                                  
G19  23536825.340   123686835.422          50.000                                                  
G24  22499580.860   118236026.273          50.000    22499583.980    88293130.238          50.000  
G25  21857244.760   114860532.051          50.000    21857247.280    85772473.191          50.000  
G29  23816309.240   125155513.598          50.000                                                  
E11  22948142.560   120593323.660          50.000    22948142.700    90053449.246          50.000  
E12  22095972.680   116115142.875          50.000    22095973.560    86709354.922          50.000  
E24  21699625.080   114032122.031          50.000    21699640.880    85153824.434          50.000  
E25  25022325.340   131493180.113          50.000    25022330.120    98192947.449          50.000  
E31  26344147.160   138439380.516          50.000    26344153.300   103380039.633          50.000  
E33  27830737.460   146251495.984          50.000    27830741.540   109213767.223          50.000  
> 2020  6  5 20 21 50.0000000  0 14       0.000000000000
G 2  20840398.580   109517054.066          50.000                                                  
G 5  23693962.160   124512500.367          50.000                                                  
G 6  21900665.180   115088719.250          50.000    21900667.880    85942874.223          50.000  
G12  20315537.300   106758876.504          50.000                                                  
G19  23537354.340   123689615.320          50.000                                                  
G24  22500094.960   118238727.836          50.000    22500098.060    88295147.641          50.000  
G25  21856744.720   114857904.340          50.000    21856747.240    85770510.941          50.000  
G29  23815844.020   125153068.863          50.000                                                  
E11  22947901.820   120592058.469          50.000    22947901.940    90052504.457          50.000  
E12  22096232.820   116116509.859          50.000    22096233.700    86710375.723          50.000  
E24  21699743.360   114032743.578          50.000    21699759.160    85154288.574          50.000  
E25  25021943.600   131491174.125          50.000    25021948.380    98191449.473          50.000  
E31  26344645.240   138441998.039          50.000    26344651.380   103381994.273          50.000  
E33  27831248.280   146254180.336          50.000    27831252.340   109215771.770          50.000  
> 2020  6  5 20 21 51.0000000  0 14       0.000000000000
G 2  20840529.900   109517744.168          50.000                                                  
G 5  23693350.600   124509286.574          50.000                                                  
G 6  21901138.580   115091206.996          50.000    21901141.280    85944731.953          50.000  
G12  20315325.640   106757764.305          50.000                                                  
G19  23537883.340   123692395.266          50.000                                                  
G24  22500609.100   118241429.691          50.000    22500612.200    88297165.258          50.000  
G25  21856244.740   114855276.902          50.000    21856247.260    85768548.895          50.000  
G29  23815378.820   125150624.266          50.000                                                  
E11  22947661.100   120590793.551          50.000    22947661.240    90051559.879          50.000  
E12  22096492.980   116117877.078          50.000    22096493.860    86711396.695          50.000  
E24  21699861.700   114033365.512          50.000    21699877.520    85154753.004          50.000  
E25  25021561.920   131489168.340          50.000    25021566.700    98189951.645          50.000  
E31  26345143.380   138444615.758          50.000    26345149.520   103383949.066          50.000  
E33  27831759.100   146256864.668          50.000    27831763.160   109217776.305          50.000  
> 2020  6  5 20 21 52.0000000  0 14       0.000000000000
G 2  20840661.320   109518434.758          50.000                                                  
G 5  23692739.040   124506072.871          50.000                                                  
G 6  21901612.060   115093695.141          50.000    21901614.760    85946589.984          50.000  
G12  20315114.080   106756652.543          50.000                                                  
G19  23538412.360   123695175.246          50.000                                                  
G24  22501123.300   118244131.859          50.000    22501126.420    88299183.109          50.000  
G25  21855744.800   114852649.727          50.000    21855747.320    85766587.043          50.000  
G29  23814913.660   125148179.797          50.000                                                  
E11  22947420.480   120589529.020          50.000    22947420.600    90050615.586          50.000  
E12  22096753.220   116119244.574          50.000    22096754.100    86712417.879          50.000  
E24  21699980.140   114033987.848          50.000    21699995.940    85155217.738          50.000  
E25  25021180.280   131487162.824          50.000    25021185.060    98188454.020          50.000  
E31  26345641.560   138447233.707          50.000    26345647.700   103385904.023          50.000  
E33  27832269.900   146259548.984          50.000    27832273.980   109219780.824          50.000  
