     3.03           OBSERVATION DATA    M: Mixed            RINEX VERSION / TYPE
sbp2rinex v2.2 (RTKL                    20210504 171526 UTC PGM / RUN BY / DATE 
log: 2020-07-08-US-MTV-1.sbp                                COMMENT             
format: Swift Navigation SBP, option: CONVBASE,EPHALL,OBSALLCOMMENT             
                                                            MARKER NAME         
                                                            MARKER NUMBER       
                                                            MARKER TYPE         
                                                            OBSERVER / AGENCY   
                                                            REC # / TYPE / VERS 
                                                            ANT # / TYPE        
 -2724447.6243 -4348213.1617  3775595.0171                  APPROX POSITION XYZ 
        0.0000        0.0000        0.0000                  ANTENNA: DELTA H/E/N
G    6 C1C L1C S1C C5I L5I S5I                              SYS / # / OBS TYPES 
E    6 C1B L1B S1B C5I L5I S5I                              SYS / # / OBS TYPES 
  2020     7     8    22    28   25.0000000     GPS         TIME OF FIRST OBS   
  2020     7     8    23     4   54.0000000     GPS         TIME OF LAST OBS    
G                                                           SYS / PHASE SHIFT   
E                                                           SYS / PHASE SHIFT   
  0                                                         GLONASS SLOT / FRQ #
 C1C    0.000 C1P    0.000 C2C    0.000 C2P    0.000        GLONASS COD/PHS/BIS 
                                                            END OF HEADER       
> 2020  7  8 22 28 25.0000000  0 14       0.000000000000
G10  23733783.940   124721813.246          50.000    23733785.060    93136414.371          50.000  
G13  23362493.560   122770779.758          50.000                                                  
G15  21928150.560   115233024.430          50.000                                                  
G16  23762473.200   124872641.359          50.000                                                  
G20  21038958.080   110560470.020          50.000                                                  
G21  23149701.160   121652515.387          50.000                                                  
G26  22453319.700   117992906.609          50.000    22453320.860    88111578.660          50.000  
G29  21045975.740   110597343.715          50.000                                                  
E 2  26991544.100   141841486.305          50.000    26991549.200   105920573.398          50.000  
E 5  24940329.600   131062281.207          50.000    24940334.380    97871170.242          50.000  
E 9  23445891.600   123208972.180          50.000    23445895.560    92006689.758          50.000  
E27  27589732.380   144984980.375          50.000    27589737.540   108267988.102          50.000  
E30  24865104.720   130666964.820          50.000    24865109.500    97575963.137          50.000  
E36  24366508.080   128046825.984          50.000    24366512.980    95619369.215          50.000  
> 2020  7  8 22 28 26.0000000  0 14       0.000000000000
G10  23733172.120   124718598.160          50.000    23733173.260    93134013.500          50.000  
G13  23362446.320   122770531.488          50.000                                                  
G15  21927900.160   115231708.559          50.000                                                  
G16  23762110.740   124870736.676          50.000                                                  
G20  21038574.700   110558455.344          50.000                                                  
G21  23149373.880   121650795.516          50.000                                                  
G26  22453378.620   117993216.266          50.000    22453379.780    88111809.895          50.000  
G29  21046313.060   110599116.324          50.000                                                  
E 2  26992084.420   141844325.656          50.000    26992089.500   105922693.691          50.000  
E 5  24939932.000   131060191.785          50.000    24939936.780    97869609.961          50.000  
E 9  23445976.020   123209415.730          50.000    23445979.960    92007020.980          50.000  
E27  27589566.000   144984106.035          50.000    27589571.160   108267335.188          50.000  
E30  24865383.840   130668431.617          50.000    24865388.640    97577058.473          50.000  
E36  24366693.600   128047800.840          50.000    24366698.480    95620097.191          50.000  
> 2020  7  8 22 28 27.0000000  0 14       0.000000000000
G10  23732560.360   124715383.301          50.000    23732561.480    93131612.797          50.000  
G13  23362399.180   122770283.840          50.000                                                  
G15  21927649.880   115230393.293          50.000                                                  
G16  23761748.400   124868832.563          50.000                                                  
G20  21038191.400   110556441.090          50.000                                                  
G21  23149046.620   121649075.727          50.000                                                  
G26  22453437.660   117993526.539          50.000    22453438.820    88112041.594          50.000  
G29  21046650.460   110600889.410          50.000                                                  
E 2  26992624.740   141847165.023          50.000    26992629.820   105924813.996          50.000  
E 5  24939534.460   131058102.680          50.000    24939539.240    97868049.914          50.000  
E 9  23446060.500   123209859.754          50.000    23446064.460    92007352.555          50.000  
E27  27589399.700   144983232.148          50.000    27589404.860   108266682.609          50.000  
E30  24865663.040   130669898.805          50.000    24865667.820    97578154.098          50.000  
E36  24366879.120   128048775.832          50.000    24366884.020    95620825.270          50.000  
> 2020  7  8 22 28 28.0000000  0 14       0.000000000000
G10  23731948.640   124712168.676          50.000    23731949.760    93129212.266          50.000  
G13  23362352.180   122770036.805          50.000                                                  
G15  21927399.700   115229078.633          50.000                                                  
G16  23761386.160   124866928.984          50.000                                                  
G20  21037808.180   110554427.266          50.000                                                  
G21  23148719.360   121647356.023          50.000                                                  
G26  22453496.820   117993837.402          50.000    22453497.980    88112273.730          50.000  
G29  21046987.960   110602662.961          50.000                                                  
E 2  26993165.060   141850004.398          50.000    26993170.140   105926934.309          50.000  
E 5  24939136.980   131056013.891          50.000    24939141.740    97866490.105          50.000  
E 9  23446145.100   123210304.246          50.000    23446149.040    92007684.484          50.000  
E27  27589233.500   144982358.707          50.000    27589238.660   108266030.363          50.000  
E30  24865942.300   130671366.348          50.000    24865947.100    97579249.992          50.000  
E36  24367064.680   128049750.922          50.000    24367069.580    95621553.422          50.000  
> 2020  7  8 22 28 29.0000000  0 14       0.000000000000
G10  23731336.940   124708954.266          50.000    23731338.080    93126811.895          50.000  
G13  23362305.280   122769790.387          50.000                                                  
G15  21927149.640   115227764.570          50.000                                                  
G16  23761024.040   124865025.977          50.000                                                  
G20  21037425.040   110552413.859          50.000                                                  
G21  23148392.140   121645636.410          50.000                                                  
G26  22453556.100   117994148.871          50.000    22453557.260    88112506.320          50.000  
G29  21047325.540   110604436.984          50.000                                                  
E 2  26993705.380   141852843.801          50.000    26993710.460   105929054.637          50.000  
E 5  24938739.540   131053925.422          50.000    24938744.320    97864930.535          50.000  
E 9  23446229.760   123210749.203          50.000    23446233.720    92008016.758          50.000  
E27  27589067.380   144981485.715          50.000    27589072.520   108265378.453          50.000  
E30  24866221.640   130672834.266          50.000    24866226.420    97580346.160          50.000  
E36  24367250.260   128050726.117          50.000    24367255.160    95622281.652          50.000  
> 2020  7  8 22 28 30.0000000  0 14       0.000000000000
G10  23730725.320   124705740.094          50.000    23730726.440    93124411.703          50.000  
G13  23362258.520   122769544.590          50.000                                                  
G15  21926899.700   115226451.113          50.000                                                  
G16  23760662.000   124863123.500          50.000                                                  
G20  21037041.980   110550400.875          50.000                                                  
G21  23148064.920   121643916.891          50.000                                                  
G26  22453615.480   117994460.922          50.000    22453616.640    88112739.344          50.000  
G29  21047663.220   110606211.477          50.000                                                  
E 2  26994245.700   141855683.215          50.000    26994250.780   105931174.977          50.000  
E 5  24938342.180   131051837.281          50.000    24938346.960    97863371.207          50.000  
E 9  23446314.540   123211194.641          50.000    23446318.480    92008349.387          50.000  
E27  27588901.340   144980613.164          50.000    27588906.480   108264726.871          50.000  
E30  24866501.060   130674302.563          50.000    24866505.840    97581442.617          50.000  
E36  24367435.860   128051701.438          50.000    24367440.740    95623009.977          50.000  
> 2020  7  8 22 28 31.0000000  0 14       0.000000000000
G10  23730113.720   124702526.152          50.000    23730114.860    93122011.684          50.000  
G13  23362211.860   122769299.414          50.000                                                  
G15  21926649.860   115225138.254          50.000                                                  
G16  23760300.080   124861221.598          50.000                                                  
G20  21036659.000   110548388.324          50.000                                                  
G21  23147737.720   121642197.453          50.000                                                  
G26  22453674.980   117994773.598          50.000    22453676.140    88112972.836          50.000  
G29  21048000.980   110607986.434          50.000                                                  
E 2  26994786.020   141858522.637          50.000    26994791.100   105933295.324          50.000  
E 5  24937944.880   131049749.441          50.000    24937949.660    97861812.109          50.000  
E 9  23446399.380   123211640.539          50.000    23446403.340    92008682.363          50.000  
E27  27588735.380   144979741.070          50.000    27588740.540   108264075.633          50.000  
E30  24866780.540   130675771.238          50.000    24866785.320    97582539.355          50.000  
E36  24367621.460   128052676.855          50.000    24367626.360    95623738.371          50.000  
> 2020  7  8 22 28 32.0000000  0 14       0.000000000000
G10  23729502.160   124699312.438          50.000    23729503.300    93119611.832          50.000  
G13  23362165.320   122769054.840          50.000                                                  
G15  21926400.160   115223826.000          50.000                                                  
G16  23759938.260   124859320.246          50.000                                                  
G20  21036276.120   110546376.188          50.000                                                  
G21  23147410.540   121640478.102          50.000                                                  
G26  22453734.580   117995086.859          50.000    22453735.740    88113206.766          50.000  
G29  21048338.840   110609761.863          50.000                                                  
E 2  26995326.360   141861362.082          50.000    26995331.440   105935415.688          50.000  
E 5  24937547.640   131047661.926          50.000    24937552.420    97860253.250          50.000  
E 9  23446484.320   123212086.902          50.000    23446488.280    92009015.684          50.000  
E27  27588569.500   144978869.410          50.000    27588574.660   108263424.719          50.000  
E30  24867060.080   130677240.285          50.000    24867064.860    97583636.367          50.000  
E36  24367807.100   128053652.371          50.000    24367812.000    95624466.840          50.000  
> 2020  7  8 22 28 33.0000000  0 14       0.000000000000
G10  23728890.660   124696098.934          50.000    23728891.780    93117212.141          50.000  
G13  23362118.900   122768810.883          50.000                                                  
G15  21926150.560   115222514.344          50.000                                                  
G16  23759576.560   124857419.438          50.000                                                  
G20  21035893.300   110544364.500          50.000                                                  
G21  23147083.380   121638758.836          50.000                                                  
G26  22453794.320   117995400.742          50.000    22453795.480    88113441.156          50.000  
G29  21048676.780   110611537.766          50.000                                                  
E 2  26995866.680   141864201.531          50.000    26995871.760   105937536.055          50.000  
E 5  24937150.460   131045574.734          50.000    24937155.240    97858694.633          50.000  
E 9  23446569.360   123212533.742          50.000    23446573.300    92009349.363          50.000  
E27  27588403.720   144977998.219          50.000    27588408.880   108262774.156          50.000  
E30  24867339.700   130678709.703          50.000    24867344.500    97584733.660          50.000  
E36  24367992.760   128054628.020          50.000    24367997.660    95625195.406          50.000  
> 2020  7  8 22 28 34.0000000  0 14       0.000000000000
G10  23728279.200   124692885.676          50.000    23728280.320    93114812.629          50.000  
G13  23362072.580   122768567.547          50.000                                                  
G15  21925901.060   115221203.281          50.000                                                  
G16  23759214.940   124855519.180          50.000                                                  
G20  21035510.560   110542353.215          50.000                                                  
G21  23146756.220   121637039.660          50.000                                                  
G26  22453854.160   117995715.219          50.000    22453855.320    88113675.992          50.000  
G29  21049014.820   110613314.137          50.000                                                  
E 2  26996407.020   141867041.012          50.000    26996412.100   105939656.445          50.000  
E 5  24936753.340   131043487.848          50.000    24936758.120    97857136.246          50.000  
E 9  23446654.480   123212981.039          50.000    23446658.420    92009683.387          50.000  
E27  27588238.020   144977127.469          50.000    27588243.180   108262123.918          50.000  
E30  24867619.400   130680179.492          50.000    24867624.180    97585831.227          50.000  
E36  24368178.440   128055603.766          50.000    24368183.340    95625924.051          50.000  
> 2020  7  8 22 28 35.0000000  0 14       0.000000000000
G10  23727667.780   124689672.637          50.000    23727668.900    93112413.281          50.000  
G13  23362026.400   122768324.832          50.000                                                  
G15  21925651.700   115219892.820          50.000                                                  
G16  23758853.440   124853619.488          50.000                                                  
G20  21035127.920   110540342.371          50.000                                                  
G21  23146429.100   121635320.574          50.000                                                  
G26  22453914.120   117996030.305          50.000    22453915.280    88113911.281          50.000  
G29  21049352.940   110615090.984          50.000                                                  
E 2  26996947.360   141869880.492          50.000    26996952.440   105941776.836          50.000  
E 5  24936356.280   131041401.289          50.000    24936361.060    97855578.098          50.000  
E 9  23446739.680   123213428.816          50.000    23446743.640    92010017.766          50.000  
E27  27588072.400   144976257.148          50.000    27588077.560   108261474.004          50.000  
E30  24867899.160   130681649.664          50.000    24867903.940    97586929.082          50.000  
E36  24368364.140   128056579.633          50.000    24368369.040    95626652.781          50.000  
> 2020  7  8 22 28 36.0000000  0 14       0.000000000000
G10  23727056.400   124686459.836          50.000    23727057.520    93110014.117          50.000  
G13  23361980.340   122768082.727          50.000                                                  
G15  21925402.440   115218582.973          50.000                                                  
G16  23758492.060   124851720.348          50.000                                                  
G20  21034745.340   110538331.945          50.000                                                  
G21  23146101.980   121633601.574          50.000                                                  
G26  22453974.200   117996345.980          50.000    22453975.360    88114147.016          50.000  
G29  21049691.140   110616868.297          50.000                                                  
E 2  26997487.700   141872720.008          50.000    26997492.780   105943897.250          50.000  
E 5  24935959.280   131039315.051          50.000    24935964.060    97854020.195          50.000  
E 9  23446824.980   123213877.059          50.000    23446828.920    92010352.492          50.000  
E27  27587906.880   144975387.301          50.000    27587912.040   108260824.445          50.000  
E30  24868179.000   130683120.211          50.000    24868183.780    97588027.219          50.000  
E36  24368549.860   128057555.578          50.000    24368554.760    95627381.570          50.000  
> 2020  7  8 22 28 37.0000000  0 14       0.000000000000
G10  23726445.060   124683247.258          50.000    23726446.200    93107615.113          50.000  
G13  23361934.380   122767841.242          50.000                                                  
G15  21925153.300   115217273.723          50.000                                                  
G16  23758130.760   124849821.750          50.000                                                  
G20  21034362.860   110536321.961          50.000                                                  
G21  23145774.880   121631882.660          50.000                                                  
G26  22454034.380   117996662.270          50.000    22454035.540    88114383.207          50.000  
G29  21050029.440   110618646.070          50.000                                                  
E 2  26998028.040   141875559.520          50.000    26998033.120   105946017.660          50.000  
E 5  24935562.340   131037229.125          50.000    24935567.120    97852462.523          50.000  
E 9  23446910.360   123214325.770          50.000    23446914.320    92010687.566          50.000  
E27  27587741.440   144974517.887          50.000    27587746.600   108260175.203          50.000  
E30  24868458.900   130684591.113          50.000    24868463.680    97589125.617          50.000  
E36  24368735.600   128058531.672          50.000    24368740.500    95628110.473          50.000  
> 2020  7  8 22 28 38.0000000  0 14       0.000000000000
G10  23725833.760   124680034.906          50.000    23725834.900    93105216.281          50.000  
G13  23361888.540   122767600.371          50.000                                                  
G15  21924904.260   115215965.070          50.000                                                  
G16  23757769.580   124847923.715          50.000                                                  
G20  21033980.440   110534312.387          50.000                                                  
G21  23145447.800   121630163.832          50.000                                                  
G26  22454094.680   117996979.148          50.000    22454095.840    88114619.836          50.000  
G29  21050367.840   110620424.320          50.000                                                  
E 2  26998568.380   141878399.055          50.000    26998573.480   105948138.094          50.000  
E 5  24935165.460   131035143.512          50.000    24935170.240    97850905.086          50.000  
E 9  23446995.840   123214774.949          50.000    23446999.800    92011022.992          50.000  
E27  27587576.080   144973648.926          50.000    27587581.240   108259526.305          50.000  
E30  24868738.880   130686062.410          50.000    24868743.660    97590224.313          50.000  
E36  24368921.360   128059507.859          50.000    24368926.260    95628839.445          50.000  
> 2020  7  8 22 28 39.0000000  0 14       0.000000000000
G10  23725222.520   124676822.785          50.000    23725223.660    93102817.621          50.000  
G13  23361842.820   122767360.121          50.000                                                  
G15  21924655.360   115214657.023          50.000                                                  
G16  23757408.500   124846026.230          50.000                                                  
G20  21033598.120   110532303.242          50.000                                                  
G21  23145120.740   121628445.098          50.000                                                  
G26  22454155.100   117997296.645          50.000    22454156.260    88114856.926          50.000  
G29  21050706.320   110622203.039          50.000                                                  
E 2  26999108.740   141881238.602          50.000    26999113.820   105950258.531          50.000  
E 5  24934768.660   131033058.234          50.000    24934773.420    97849347.898          50.000  
E 9  23447081.400   123215224.598          50.000    23447085.360    92011358.770          50.000  
E27  27587410.800   144972780.406          50.000    27587415.960   108258877.734          50.000  
E30  24869018.940   130687534.082          50.000    24869023.720    97591323.285          50.000  
E36  24369107.160   128060484.168          50.000    24369112.040    95629568.504          50.000  
> 2020  7  8 22 28 40.0000000  0 14       0.000000000000
G10  23724611.320   124673610.891          50.000    23724612.440    93100419.129          50.000  
G13  23361797.220   122767120.488          50.000                                                  
G15  21924406.560   115213349.582          50.000                                                  
G16  23757047.520   124844129.316          50.000                                                  
G20  21033215.880   110530294.551          50.000                                                  
G21  23144793.680   121626726.457          50.000                                                  
G26  22454215.640   117997614.742          50.000    22454216.780    88115094.465          50.000  
G29  21051044.880   110623982.230          50.000                                                  
E 2  26999649.080   141884078.172          50.000    26999654.180   105952378.988          50.000  
E 5  24934371.900   131030973.270          50.000    24934376.680    97847790.945          50.000  
E 9  23447167.060   123215674.723          50.000    23447171.020    92011694.902          50.000  
E27  27587245.620   144971912.352          50.000    27587250.780   108258229.516          50.000  
E30  24869299.060   130689006.121          50.000    24869303.840    97592422.535          50.000  
E36  24369292.960   128061460.582          50.000    24369297.860    95630297.645          50.000  
> 2020  7  8 22 28 41.0000000  0 14       0.000000000000
G10  23724000.160   124670399.230          50.000    23724001.280    93098020.813          50.000  
G13  23361751.740   122766881.461          50.000                                                  
G15  21924157.880   115212042.742          50.000                                                  
G16  23756686.660   124842232.941          50.000                                                  
G20  21032833.720   110528286.254          50.000                                                  
G21  23144466.660   121625007.910          50.000                                                  
G26  22454276.280   117997933.441          50.000    22454277.440    88115332.453          50.000  
G29  21051383.540   110625761.875          50.000                                                  
E 2  27000189.440   141886917.746          50.000    27000194.540   105954499.445          50.000  
E 5  24933975.200   131028888.633          50.000    24933979.980    97846234.238          50.000  
E 9  23447252.800   123216125.305          50.000    23447256.760    92012031.375          50.000  
E27  27587080.520   144971044.730          50.000    27587085.680   108257581.613          50.000  
E30  24869579.240   130690478.535          50.000    24869584.040    97593522.066          50.000  
E36  24369478.780   128062437.094          50.000    24369483.680    95631026.855          50.000  
> 2020  7  8 22 28 42.0000000  0 14       0.000000000000
G10  23723389.040   124667187.785          50.000    23723390.160    93095622.660          50.000  
G13  23361706.380   122766643.055          50.000                                                  
G15  21923909.300   115210736.508          50.000                                                  
G16  23756325.900   124840337.121          50.000                                                  
G20  21032451.620   110526278.395          50.000                                                  
G21  23144139.640   121623289.434          50.000                                                  
G26  22454337.040   117998252.730          50.000    22454338.200    88115570.883          50.000  
G29  21051722.280   110627541.996          50.000                                                  
E 2  27000729.800   141889757.340          50.000    27000734.900   105956619.922          50.000  
E 5  24933578.560   131026804.289          50.000    24933583.340    97844677.746          50.000  
E 9  23447338.640   123216576.363          50.000    23447342.600    92012368.203          50.000  
E27  27586915.500   144970177.563          50.000    27586920.660   108256934.055          50.000  
E30  24869859.500   130691951.320          50.000    24869864.300    97594621.871          50.000  
E36  24369664.620   128063413.707          50.000    24369669.520    95631756.145          50.000  
> 2020  7  8 22 28 43.0000000  0 14       0.000000000000
G10  23722777.960   124663976.574          50.000    23722779.100    93093224.680          50.000  
G13  23361661.120   122766405.273          50.000                                                  
G15  21923660.860   115209430.867          50.000                                                  
G16  23755965.240   124838441.855          50.000                                                  
G20  21032069.620   110524270.949          50.000                                                  
G21  23143812.640   121621571.063          50.000                                                  
G26  22454397.920   117998572.637          50.000    22454399.080    88115809.773          50.000  
G29  21052061.120   110629322.586          50.000                                                  
E 2  27001270.160   141892596.957          50.000    27001275.260   105958740.414          50.000  
E 5  24933182.000   131024720.289          50.000    24933186.760    97843121.516          50.000  
E 9  23447424.560   123217027.883          50.000    23447428.520    92012705.379          50.000  
E27  27586750.580   144969310.840          50.000    27586755.720   108256286.824          50.000  
E30  24870139.840   130693424.480          50.000    24870144.620    97595721.957          50.000  
E36  24369850.500   128064390.465          50.000    24369855.400    95632485.543          50.000  
> 2020  7  8 22 28 44.0000000  0 14       0.000000000000
G10  23722166.940   124660765.598          50.000    23722168.060    93090826.871          50.000  
G13  23361616.000   122766168.109          50.000                                                  
G15  21923412.520   115208125.840          50.000                                                  
G16  23755604.680   124836547.141          50.000                                                  
G20  21031687.700   110522263.938          50.000                                                  
G21  23143485.660   121619852.770          50.000                                                  
G26  22454458.900   117998893.129          50.000    22454460.060    88116049.105          50.000  
G29  21052400.040   110631103.648          50.000                                                  
E 2  27001810.520   141895436.574          50.000    27001815.620   105960860.906          50.000  
E 5  24932785.480   131022636.605          50.000    24932790.260    97841565.516          50.000  
E 9  23447510.580   123217479.887          50.000    23447514.520    92013042.914          50.000  
E27  27586585.720   144968444.574          50.000    27586590.880   108255639.938          50.000  
E30  24870420.240   130694898.020          50.000    24870425.040    97596822.324          50.000  
E36  24370036.380   128065367.332          50.000    24370041.280    95633215.020          50.000  
> 2020  7  8 22 28 45.0000000  0 14       0.000000000000
G10  23721555.940   124657554.848          50.000    23721557.080    93088429.234          50.000  
G13  23361570.980   122765931.559          50.000                                                  
G15  21923164.280   115206821.406          50.000                                                  
G16  23755244.240   124834652.980          50.000                                                  
G20  21031305.860   110520257.371          50.000                                                  
G21  23143158.700   121618134.590          50.000                                                  
G26  22454520.000   117999214.246          50.000    22454521.160    88116288.898          50.000  
G29  21052739.060   110632885.184          50.000                                                  
E 2  27002350.900   141898276.211          50.000    27002355.980   105962981.410          50.000  
E 5  24932389.020   131020553.230          50.000    24932393.800    97840009.750          50.000  
E 9  23447596.680   123217932.348          50.000    23447600.620    92013380.789          50.000  
E27  27586420.960   144967578.746          50.000    27586426.120   108254993.379          50.000  
E30  24870700.720   130696371.926          50.000    24870705.520    97597922.973          50.000  
E36  24370222.300   128066344.273          50.000    24370227.200    95633944.555          50.000  
> 2020  7  8 22 28 46.0000000  0 14       0.000000000000
G10  23720945.000   124654344.320          50.000    23720946.140    93086031.766          50.000  
G13  23361526.080   122765695.629          50.000                                                  
G15  21922916.180   115205517.578          50.000                                                  
G16  23754883.900   124832759.379          50.000                                                  
G20  21030924.100   110518251.207          50.000                                                  
G21  23142831.760   121616416.473          50.000                                                  
G26  22454581.220   117999535.949          50.000    22454582.380    88116529.129          50.000  
G29  21053078.160   110634667.180          50.000                                                  
E 2  27002891.260   141901115.859          50.000    27002896.360   105965101.926          50.000  
E 5  24931992.640   131018470.184          50.000    24931997.420    97838454.227          50.000  
E 9  23447682.860   123218385.277          50.000    23447686.820    92013719.016          50.000  
E27  27586256.280   144966713.371          50.000    27586261.440   108254347.156          50.000  
E30  24870981.280   130697846.211          50.000    24870986.060    97599023.895          50.000  
E36  24370408.220   128067321.352          50.000    24370413.120    95634674.191          50.000  
> 2020  7  8 22 28 47.0000000  0 14       0.000000000000
G10  23720334.100   124651134.035          50.000    23720335.240    93083634.477          50.000  
G13  23361481.300   122765460.313          50.000                                                  
G15  21922668.180   115204214.359          50.000                                                  
G16  23754523.660   124830866.340          50.000                                                  
G20  21030542.420   110516245.469          50.000                                                  
G21  23142504.820   121614698.449          50.000                                                  
G26  22454642.560   117999858.254          50.000    22454643.720    88116769.813          50.000  
G29  21053417.360   110636449.645          50.000                                                  
E 2  27003431.640   141903955.527          50.000    27003436.720   105967222.457          50.000  
E 5  24931596.300   131016387.449          50.000    24931601.080    97836898.938          50.000  
E 9  23447769.140   123218838.680          50.000    23447773.100    92014057.594          50.000  
E27  27586091.700   144965848.453          50.000    27586096.860   108253701.277          50.000  
E30  24871261.900   130699320.871          50.000    24871266.680    97600125.102          50.000  
E36  24370594.180   128068298.547          50.000    24370599.080    95635403.914          50.000  
> 2020  7  8 22 28 48.0000000  0 14       0.000000000000
G10  23719723.260   124647923.965          50.000    23719724.380    93081237.348          50.000  
G13  23361436.640   122765225.602          50.000                                                  
G15  21922420.300   115202911.746          50.000                                                  
G16  23754163.540   124828973.848          50.000                                                  
G20  21030160.820   110514240.168          50.000                                                  
G21  23142177.920   121612980.516          50.000                                                  
G26  22454704.000   118000181.156          50.000    22454705.160    88117010.938          50.000  
G29  21053756.640   110638232.582          50.000                                                  
E 2  27003972.000   141906795.211          50.000    27003977.100   105969342.996          50.000  
E 5  24931200.040   131014305.043          50.000    24931204.820    97835343.895          50.000  
E 9  23447855.520   123219292.555          50.000    23447859.460    92014396.527          50.000  
E27  27585927.200   144964983.969          50.000    27585932.360   108253055.723          50.000  
E30  24871542.580   130700795.910          50.000    24871547.380    97601226.590          50.000  
E36  24370780.160   128069275.848          50.000    24370785.060    95636133.715          50.000  
> 2020  7  8 22 28 49.0000000  0 14       0.000000000000
G10  23719112.440   124644714.125          50.000    23719113.560    93078840.391          50.000  
G13  23361392.100   122764991.512          50.000                                                  
G15  21922172.540   115201609.723          50.000                                                  
G16  23753803.520   124827081.902          50.000                                                  
G20  21029779.320   110512235.289          50.000                                                  
G21  23141851.020   121611262.668          50.000                                                  
G26  22454765.560   118000504.672          50.000    22454766.720    88117252.523          50.000  
G29  21054096.000   110640015.977          50.000                                                  
E 2  27004512.380   141909634.902          50.000    27004517.480   105971463.543          50.000  
E 5  24930803.820   131012222.949          50.000    24930808.600    97833789.086          50.000  
E 9  23447941.980   123219746.891          50.000    23447945.920    92014735.805          50.000  
E27  27585762.780   144964119.945          50.000    27585767.940   108252410.508          50.000  
E30  24871823.340   130702271.313          50.000    24871828.140    97602328.352          50.000  
E36  24370966.140   128070253.238          50.000    24370971.040    95636863.586          50.000  
> 2020  7  8 22 28 50.0000000  0 14       0.000000000000
G10  23718501.660   124641504.520          50.000    23718502.800    93076443.609          50.000  
G13  23361347.660   122764758.035          50.000                                                  
G15  21921924.880   115200308.305          50.000                                                  
G16  23753443.600   124825190.516          50.000                                                  
G20  21029397.880   110510230.855          50.000                                                  
G21  23141524.140   121609544.914          50.000                                                  
G26  22454827.240   118000828.777          50.000    22454828.400    88117494.551          50.000  
G29  21054435.460   110641799.852          50.000                                                  
E 2  27005052.760   141912474.609          50.000    27005057.860   105973584.102          50.000  
E 5  24930407.680   131010141.168          50.000    24930412.460    97832234.512          50.000  
E 9  23448028.520   123220201.691          50.000    23448032.460    92015075.426          50.000  
E27  27585598.440   144963256.359          50.000    27585603.600   108251765.625          50.000  
E30  24872104.180   130703747.086          50.000    24872108.960    97603430.391          50.000  
E36  24371152.160   128071230.746          50.000    24371157.060    95637593.543          50.000  
> 2020  7  8 22 28 51.0000000  0 14       0.000000000000
G10  23717890.940   124638295.141          50.000    23717892.060    93074046.996          50.000  
G13  23361303.360   122764525.188          50.000                                                  
G15  21921677.340   115199007.508          50.000                                                  
G16  23753083.780   124823299.680          50.000                                                  
G20  21029016.520   110508226.840          50.000                                                  
G21  23141197.280   121607827.238          50.000                                                  
G26  22454889.040   118001153.496          50.000    22454890.200    88117737.035          50.000  
G29  21054775.020   110643584.191          50.000                                                  
E 2  27005593.140   141915314.336          50.000    27005598.240   105975704.676          50.000  
E 5  24930011.600   131008059.723          50.000    24930016.360    97830680.188          50.000  
E 9  23448115.160   123220656.973          50.000    23448119.100    92015415.410          50.000  
E27  27585434.200   144962393.238          50.000    27585439.360   108251121.086          50.000  
E30  24872385.080   130705223.242          50.000    24872389.860    97604532.715          50.000  
E36  24371338.200   128072208.391          50.000    24371343.100    95638323.602          50.000  
> 2020  7  8 22 28 52.0000000  0 14       0.000000000000
G10  23717280.260   124635085.988          50.000    23717281.380    93071650.551          50.000  
G13  23361259.160   122764292.945          50.000                                                  
G15  21921429.920   115197707.297          50.000                                                  
G16  23752724.060   124821409.398          50.000                                                  
G20  21028635.260   110506223.246          50.000                                                  
G21  23140870.440   121606109.660          50.000                                                  
G26  22454950.940   118001478.809          50.000    22454952.100    88117979.965          50.000  
G29  21055114.660   110645369.000          50.000                                                  
E 2  27006133.520   141918154.070          50.000    27006138.620   105977825.254          50.000  
E 5  24929615.560   131005978.582          50.000    24929620.340    97829126.086          50.000  
E 9  23448201.880   123221112.723          50.000    23448205.840    92015755.742          50.000  
E27  27585270.040   144961530.551          50.000    27585275.180   108250476.871          50.000  
E30  24872666.040   130706699.762          50.000    24872670.840    97605635.309          50.000  
E36  24371524.260   128073186.125          50.000    24371529.160    95639053.727          50.000  
> 2020  7  8 22 28 53.0000000  0 14       0.000000000000
G10  23716669.620   124631877.070          50.000    23716670.740    93069254.285          50.000  
G13  23361215.080   122764061.313          50.000                                                  
G15  21921182.620   115196407.688          50.000                                                  
G16  23752364.460   124819519.668          50.000                                                  
G20  21028254.060   110504220.082          50.000                                                  
G21  23140543.600   121604392.168          50.000                                                  
G26  22455012.960   118001804.719          50.000    22455014.120    88118223.336          50.000  
G29  21055454.380   110647154.281          50.000                                                  
E 2  27006673.920   141920993.820          50.000    27006679.020   105979945.848          50.000  
E 5  24929219.600   131003897.770          50.000    24929224.380    97827572.234          50.000  
E 9  23448288.700   123221568.930          50.000    23448292.640    92016096.414          50.000  
E27  27585105.960   144960668.316          50.000    27585111.100   108249832.992          50.000  
E30  24872947.100   130708176.660          50.000    24872951.880    97606738.188          50.000  
E36  24371710.340   128074163.969          50.000    24371715.240    95639783.934          50.000  
> 2020  7  8 22 28 54.0000000  0 14       0.000000000000
G10  23716059.020   124628668.375          50.000    23716060.160    93066858.180          50.000  
G13  23361171.120   122763830.305          50.000                                                  
G15  21920935.420   115195108.688          50.000                                                  
G16  23752004.960   124817630.508          50.000                                                  
G20  21027872.960   110502217.348          50.000                                                  
G21  23140216.800   121602674.770          50.000                                                  
G26  22455075.100   118002131.234          50.000    22455076.260    88118467.164          50.000  
G29  21055794.200   110648940.031          50.000                                                  
E 2  27007214.300   141923833.570          50.000    27007219.400   105982066.438          50.000  
E 5  24928823.700   131001817.277          50.000    24928828.460    97826018.621          50.000  
E 9  23448375.600   123222025.617          50.000    23448379.560    92016437.449          50.000  
E27  27584941.960   144959806.535          50.000    27584947.120   108249189.457          50.000  
E30  24873228.220   130709653.930          50.000    24873233.000    97607841.340          50.000  
E36  24371896.440   128075141.938          50.000    24371901.340    95640514.234          50.000  
> 2020  7  8 22 28 55.0000000  0 14       0.000000000000
G10  23715448.480   124625459.910          50.000    23715449.600    93064462.254          50.000  
G13  23361127.280   122763599.910          50.000                                                  
G15  21920688.360   115193810.289          50.000                                                  
G16  23751645.580   124815741.895          50.000                                                  
G20  21027491.940   110500215.035          50.000                                                  
G21  23139890.000   121600957.453          50.000                                                  
G26  22455137.340   118002458.363          50.000    22455138.500    88118711.449          50.000  
G29  21056134.100   110650726.242          50.000                                                  
E 2  27007754.700   141926673.352          50.000    27007759.800   105984187.051          50.000  
E 5  24928427.840   130999737.105          50.000    24928432.620    97824465.242          50.000  
E 9  23448462.600   123222482.770          50.000    23448466.540    92016778.828          50.000  
E27  27584778.060   144958945.191          50.000    27584783.200   108248546.246          50.000  
E30  24873509.400   130711131.570          50.000    24873514.180    97608944.770          50.000  
E36  24372082.560   128076120.004          50.000    24372087.460    95641244.609          50.000  
> 2020  7  8 22 28 56.0000000  0 14       0.000000000000
G10  23714837.960   124622251.680          50.000    23714839.100    93062066.496          50.000  
G13  23361083.560   122763370.133          50.000                                                  
G15  21920441.380   115192512.492          50.000                                                  
G16  23751286.300   124813853.832          50.000                                                  
G20  21027110.980   110498213.152          50.000                                                  
G21  23139563.220   121599240.223          50.000                                                  
G26  22455199.720   118002786.090          50.000    22455200.880    88118956.176          50.000  
G29  21056474.100   110652512.918          50.000                                                  
E 2  27008295.100   141929513.145          50.000    27008300.200   105986307.676          50.000  
E 5  24928032.060   130997657.238          50.000    24928036.840    97822912.098          50.000  
E 9  23448549.680   123222940.383          50.000    23448553.620    92017120.551          50.000  
E27  27584614.240   144958084.301          50.000    27584619.380   108247903.371          50.000  
E30  24873790.660   130712609.586          50.000    24873795.440    97610048.484          50.000  
E36  24372268.700   128077098.172          50.000    24372273.600    95641975.059          50.000  
> 2020  7  8 22 28 57.0000000  0 14       0.000000000000
G10  23714227.500   124619043.664          50.000    23714228.620    93059670.898          50.000  
G13  23361039.940   122763140.969          50.000                                                  
G15  21920194.540   115191215.305          50.000                                                  
G16  23750927.120   124811966.340          50.000                                                  
G20  21026730.120   110496211.707          50.000                                                  
G21  23139236.460   121597523.086          50.000                                                  
G26  22455262.180   118003114.402          50.000    22455263.340    88119201.344          50.000  
G29  21056814.180   110654300.063          50.000                                                  
E 2  27008835.500   141932352.941          50.000    27008840.580   105988428.301          50.000  
E 5  24927636.340   130995577.703          50.000    24927641.120    97821359.195          50.000  
E 9  23448636.840   123223398.465          50.000    23448640.800    92017462.625          50.000  
E27  27584450.500   144957223.863          50.000    27584455.660   108247260.840          50.000  
E30  24874071.980   130714087.980          50.000    24874076.780    97611152.477          50.000  
E36  24372454.860   128078076.469          50.000    24372459.760    95642705.605          50.000  
> 2020  7  8 22 28 58.0000000  0 14       0.000000000000
G10  23713617.080   124615835.891          50.000    23713618.200    93057275.488          50.000  
G13  23360996.460   122762912.422          50.000                                                  
G15  21919947.820   115189918.719          50.000                                                  
G16  23750568.040   124810079.395          50.000                                                  
G20  21026349.340   110494210.676          50.000                                                  
G21  23138909.720   121595806.039          50.000                                                  
G26  22455324.780   118003443.332          50.000    22455325.940    88119446.973          50.000  
G29  21057154.360   110656087.676          50.000                                                  
E 2  27009375.900   141935192.766          50.000    27009380.980   105990548.945          50.000  
E 5  24927240.680   130993498.492          50.000    24927245.460    97819806.539          50.000  
E 9  23448724.100   123223857.027          50.000    23448728.060    92017805.059          50.000  
E27  27584286.840   144956363.867          50.000    27584292.000   108246618.633          50.000  
E30  24874353.380   130715566.734          50.000    24874358.180    97612256.742          50.000  
E36  24372641.040   128079054.871          50.000    24372645.940    95643436.230          50.000  
> 2020  7  8 22 28 59.0000000  0 14       0.000000000000
G10  23713006.700   124612628.352          50.000    23713007.840    93054880.250          50.000  
G13  23360953.080   122762684.492          50.000                                                  
G15  21919701.200   115188622.738          50.000                                                  
G16  23750209.080   124808193.004          50.000                                                  
G20  21025968.640   110492210.059          50.000                                                  
G21  23138583.000   121594089.078          50.000                                                  
G26  22455387.480   118003772.852          50.000    22455388.640    88119693.047          50.000  
G29  21057494.620   110657875.762          50.000                                                  
E 2  27009916.300   141938032.594          50.000    27009921.400   105992669.598          50.000  
E 5  24926845.080   130991419.590          50.000    24926849.860    97818254.113          50.000  
E 9  23448811.460   123224316.047          50.000    23448815.400    92018147.832          50.000  
E27  27584123.280   144955504.328          50.000    27584128.440   108245976.770          50.000  
E30  24874634.860   130717045.875          50.000    24874639.640    97613361.297          50.000  
E36  24372827.240   128080033.367          50.000    24372832.140    95644166.922          50.000  
> 2020  7  8 22 29  0.0000000  0 14       0.000000000000
G10  23712396.380   124609421.031          50.000    23712397.500    93052485.172          50.000  
G13  23360909.820   122762457.184          50.000                                                  
G15  21919454.700   115187327.367          50.000                                                  
G16  23749850.200   124806307.172          50.000                                                  
G20  21025588.020   110490209.883          50.000                                                  
G21  23138256.280   121592372.199          50.000                                                  
G26  22455450.300   118004102.984          50.000    22455451.460    88119939.570          50.000  
G29  21057834.960   110659664.316          50.000                                                  
E 2  27010456.700   141940872.430          50.000    27010461.800   105994790.250          50.000  
E 5  24926449.540   130989341.016          50.000    24926454.320    97816701.930          50.000  
E 9  23448898.900   123224775.543          50.000    23448902.840    92018490.961          50.000  
E27  27583959.800   144954645.230          50.000    27583964.960   108245335.234          50.000  
E30  24874916.400   130718525.383          50.000    24874921.180    97614466.121          50.000  
E36  24373013.480   128081011.988          50.000    24373018.380    95644897.711          50.000  
> 2020  7  8 22 29  1.0000000  0 14       0.000000000000
G10  23711786.080   124606213.941          50.000    23711787.200    93050090.270          50.000  
G13  23360866.700   122762230.492          50.000                                                  
G15  21919208.300   115186032.586          50.000                                                  
G16  23749491.460   124804421.895          50.000                                                  
G20  21025207.480   110488210.148          50.000                                                  
G21  23137929.580   121590655.430          50.000                                                  
G26  22455513.240   118004433.715          50.000    22455514.400    88120186.543          50.000  
G29  21058175.400   110661453.336          50.000                                                  
E 2  27010997.100   141943712.293          50.000    27011002.200   105996910.926          50.000  
E 5  24926054.060   130987262.762          50.000    24926058.840    97815149.988          50.000  
E 9  23448986.420   123225235.508          50.000    23448990.380    92018834.441          50.000  
E27  27583796.400   144953786.586          50.000    27583801.560   108244694.039          50.000  
E30  24875198.000   130720005.262          50.000    24875202.800    97615571.227          50.000  
E36  24373199.720   128081990.734          50.000    24373204.620    95645628.594          50.000  
> 2020  7  8 22 29  2.0000000  0 14       0.000000000000
G10  23711175.840   124603007.090          50.000    23711176.960    93047695.543          50.000  
G13  23360823.660   122762004.414          50.000                                                  
G15  21918962.040   115184738.418          50.000                                                  
G16  23749132.800   124802537.172          50.000                                                  
G20  21024827.020   110486210.832          50.000                                                  
G21  23137602.920   121588938.742          50.000                                                  
G26  22455576.300   118004765.035          50.000    22455577.460    88120433.961          50.000  
G29  21058515.940   110663242.828          50.000                                                  
E 2  27011537.520   141946552.156          50.000    27011542.620   105999031.602          50.000  
E 5  24925658.640   130985184.832          50.000    24925663.420    97813598.289          50.000  
E 9  23449074.040   123225695.938          50.000    23449078.000    92019178.270          50.000  
E27  27583633.100   144952928.395          50.000    27583638.260   108244053.180          50.000  
E30  24875479.700   130721485.520          50.000    24875484.480    97616676.609          50.000  
E36  24373385.980   128082969.566          50.000    24373390.880    95646359.539          50.000  
> 2020  7  8 22 29  3.0000000  0 14       0.000000000000
G10  23710565.640   124599800.457          50.000    23710566.760    93045300.980          50.000  
G13  23360780.760   122761778.945          50.000                                                  
G15  21918715.880   115183444.844          50.000                                                  
G16  23748774.260   124800653.004          50.000                                                  
G20  21024446.640   110484211.934          50.000                                                  
G21  23137276.260   121587222.129          50.000                                                  
G26  22455639.460   118005096.977          50.000    22455640.620    88120681.836          50.000  
G29  21058856.560   110665032.785          50.000                                                  
E 2  27012077.940   141949392.047          50.000    27012083.020   106001152.301          50.000  
E 5  24925263.280   130983107.211          50.000    24925268.060    97812046.820          50.000  
E 9  23449161.740   123226156.836          50.000    23449165.700    92019522.445          50.000  
E27  27583469.860   144952070.641          50.000    27583475.020   108243412.652          50.000  
E30  24875761.440   130722966.152          50.000    24875766.240    97617782.277          50.000  
E36  24373572.280   128083948.504          50.000    24373577.180    95647090.563          50.000  
> 2020  7  8 22 29  4.0000000  0 14       0.000000000000
G10  23709955.480   124596594.063          50.000    23709956.600    93042906.598          50.000  
G13  23360737.980   122761554.102          50.000                                                  
G15  21918469.820   115182151.871          50.000                                                  
G16  23748415.820   124798769.383          50.000                                                  
G20  21024066.340   110482213.430          50.000                                                  
G21  23136949.600   121585505.602          50.000                                                  
G26  22455702.740   118005429.504          50.000    22455703.900    88120930.152          50.000  
G29  21059197.260   110666823.203          50.000                                                  
E 2  27012618.340   141952231.941          50.000    27012623.440   106003273.000          50.000  
E 5  24924867.980   130981029.910          50.000    24924872.760    97810495.586          50.000  
E 9  23449249.540   123226618.203          50.000    23449253.500    92019866.973          50.000  
E27  27583306.720   144951213.332          50.000    27583311.880   108242772.453          50.000  
E30  24876043.280   130724447.148          50.000    24876048.060    97618888.215          50.000  
E36  24373758.580   128084927.578          50.000    24373763.480    95647821.691          50.000  
> 2020  7  8 22 29  5.0000000  0 14       0.000000000000
G10  23709345.360   124593387.895          50.000    23709346.480    93040512.383          50.000  
G13  23360695.300   122761329.875          50.000                                                  
G15  21918223.900   115180859.512          50.000                                                  
G16  23748057.480   124796886.328          50.000                                                  
G20  21023686.120   110480215.391          50.000                                                  
G21  23136622.980   121583789.172          50.000                                                  
G26  22455766.140   118005762.645          50.000    22455767.300    88121178.926          50.000  
G29  21059538.060   110668614.098          50.000                                                  
E 2  27013158.760   141955071.852          50.000    27013163.860   106005393.707          50.000  
E 5  24924472.760   130978952.945          50.000    24924477.520    97808944.605          50.000  
E 9  23449337.420   123227080.043          50.000    23449341.380    92020211.855          50.000  
E27  27583143.680   144950356.488          50.000    27583148.840   108242132.602          50.000  
E30  24876325.180   130725928.527          50.000    24876329.960    97619994.438          50.000  
E36  24373944.920   128085906.762          50.000    24373949.820    95648552.898          50.000  
> 2020  7  8 22 29  6.0000000  0 14       0.000000000000
G10  23708735.300   124590181.953          50.000    23708736.420    93038118.336          50.000  
G13  23360652.760   122761106.254          50.000                                                  
G15  21917978.080   115179567.758          50.000                                                  
G16  23747699.260   124795003.824          50.000                                                  
G20  21023306.000   110478217.789          50.000                                                  
G21  23136296.380   121582072.828          50.000                                                  
G26  22455829.640   118006096.383          50.000    22455830.800    88121428.145          50.000  
G29  21059878.940   110670405.469          50.000                                                  
E 2  27013699.180   141957911.777          50.000    27013704.280   106007514.430          50.000  
E 5  24924077.580   130976876.285          50.000    24924082.340    97807393.855          50.000  
E 9  23449425.400   123227542.355          50.000    23449429.360    92020557.086          50.000  
E27  27582980.700   144949500.082          50.000    27582985.860   108241493.078          50.000  
E30  24876607.140   130727410.270          50.000    24876611.940    97621100.934          50.000  
E36  24374131.280   128086886.043          50.000    24374136.160    95649284.180          50.000  
> 2020  7  8 22 29  7.0000000  0 14       0.000000000000
G10  23708125.260   124586976.242          50.000    23708126.380    93035724.465          50.000  
G13  23360610.320   122760883.262          50.000                                                  
G15  21917732.380   115178276.590          50.000                                                  
G16  23747341.120   124793121.887          50.000                                                  
G20  21022925.940   110476220.598          50.000                                                  
G21  23135969.780   121580356.570          50.000                                                  
G26  22455893.260   118006430.719          50.000    22455894.420    88121677.813          50.000  
G29  21060219.920   110672197.289          50.000                                                  
E 2  27014239.600   141960751.699          50.000    27014244.700   106009635.148          50.000  
E 5  24923682.460   130974799.957          50.000    24923687.240    97805843.352          50.000  
E 9  23449513.460   123228005.129          50.000    23449517.420    92020902.664          50.000  
E27  27582817.820   144948644.125          50.000    27582822.980   108240853.891          50.000  
E30  24876889.180   130728892.387          50.000    24876893.960    97622207.707          50.000  
E36  24374317.640   128087865.434          50.000    24374322.540    95650015.543          50.000  
> 2020  7  8 22 29  8.0000000  0 14       0.000000000000
G10  23707515.280   124583770.766          50.000    23707516.400    93033330.766          50.000  
G13  23360568.000   122760660.883          50.000                                                  
G15  21917486.800   115176986.043          50.000                                                  
G16  23746983.120   124791240.496          50.000                                                  
G20  21022545.960   110474223.828          50.000                                                  
G21  23135643.200   121578640.406          50.000                                                  
G26  22455957.000   118006765.656          50.000    22455958.160    88121927.926          50.000  
G29  21060560.980   110673989.594          50.000                                                  
E 2  27014780.040   141963591.660          50.000    27014785.140   106011755.898          50.000  
E 5  24923287.420   130972723.949          50.000    24923292.180    97804293.086          50.000  
E 9  23449601.620   123228468.371          50.000    23449605.580    92021248.590          50.000  
E27  27582655.020   144947788.629          50.000    27582660.180   108240215.047          50.000  
E30  24877171.280   130730374.879          50.000    24877176.080    97623314.762          50.000  
E36  24374504.040   128088844.938          50.000    24374508.940    95650746.992          50.000  
> 2020  7  8 22 29  9.0000000  0 14       0.000000000000
G10  23706905.340   124580565.508          50.000    23706906.460    93030937.230          50.000  
G13  23360525.800   122760439.109          50.000                                                  
G15  21917241.340   115175696.090          50.000                                                  
G16  23746625.200   124789359.664          50.000                                                  
G20  21022166.080   110472227.496          50.000                                                  
G21  23135316.640   121576924.332          50.000                                                  
G26  22456020.860   118007101.188          50.000    22456022.020    88122178.484          50.000  
G29  21060902.140   110675782.352          50.000                                                  
E 2  27015320.460   141966431.617          50.000    27015325.560   106013876.645          50.000  
E 5  24922892.420   130970648.250          50.000    24922897.200    97802743.051          50.000  
E 9  23449689.860   123228932.074          50.000    23449693.820    92021594.863          50.000  
E27  27582492.320   144946933.578          50.000    27582497.480   108239576.531          50.000  
E30  24877453.460   130731857.730          50.000    24877458.260    97624422.086          50.000  
E36  24374690.440   128089824.543          50.000    24374695.340    95651478.512          50.000  
> 2020  7  8 22 29 10.0000000  0 14       0.000000000000
G10  23706295.440   124577360.496          50.000    23706296.560    93028543.879          50.000  
G13  23360483.720   122760217.957          50.000                                                  
G15  21916995.980   115174406.746          50.000                                                  
G16  23746267.400   124787479.395          50.000                                                  
G20  21021786.260   110470231.586          50.000                                                  
G21  23134990.100   121575208.336          50.000                                                  
G26  22456084.820   118007437.332          50.000    22456085.980    88122429.504          50.000  
G29  21061243.380   110677575.586          50.000                                                  
E 2  27015860.880   141969271.578          50.000    27015865.980   106015997.391          50.000  
E 5  24922497.480   130968572.875          50.000    24922502.260    97801193.258          50.000  
E 9  23449778.200   123229396.250          50.000    23449782.140    92021941.488          50.000  
E27  27582329.700   144946078.961          50.000    27582334.840   108238938.348          50.000  
E30  24877735.720   130733340.965          50.000    24877740.500    97625529.695          50.000  
E36  24374876.880   128090804.266          50.000    24374881.780    95652210.121          50.000  
> 2020  7  8 22 29 11.0000000  0 14       0.000000000000
G10  23705685.600   124574155.699          50.000    23705686.720    93026150.688          50.000  
G13  23360441.760   122759997.434          50.000                                                  
G15  21916750.740   115173118.016          50.000                                                  
G16  23745909.700   124785599.680          50.000                                                  
G20  21021406.540   110468236.105          50.000                                                  
G21  23134663.580   121573492.441          50.000                                                  
G26  22456148.900   118007774.078          50.000    22456150.060    88122680.969          50.000  
G29  21061584.700   110679369.293          50.000                                                  
E 2  27016401.320   141972111.574          50.000    27016406.420   106018118.168          50.000  
E 5  24922102.620   130966497.832          50.000    24922107.400    97799643.715          50.000  
E 9  23449866.600   123229860.895          50.000    23449870.560    92022288.461          50.000  
E27  27582167.160   144945224.805          50.000    27582172.300   108238300.504          50.000  
E30  24878018.040   130734824.563          50.000    24878022.820    97626637.574          50.000  
E36  24375063.340   128091784.113          50.000    24375068.240    95652941.824          50.000  
> 2020  7  8 22 29 12.0000000  0 14       0.000000000000
G10  23705075.780   124570951.137          50.000    23705076.900    93023757.672          50.000  
G13  23360399.900   122759777.516          50.000                                                  
G15  21916505.620   115171829.891          50.000                                                  
G16  23745552.100   124783720.527          50.000                                                  
G20  21021026.900   110466241.043          50.000                                                  
G21  23134337.060   121571776.629          50.000                                                  
G26  22456213.100   118008111.426          50.000    22456214.260    88122932.883          50.000  
G29  21061926.120   110681163.465          50.000                                                  
E 2  27016941.760   141974951.582          50.000    27016946.860   106020238.949          50.000  
E 5  24921707.820   130964423.105          50.000    24921712.580    97798094.406          50.000  
E 9  23449955.120   123230326.023          50.000    23449959.080    92022635.797          50.000  
E27  27582004.700   144944371.098          50.000    27582009.860   108237662.996          50.000  
E30  24878300.420   130736308.551          50.000    24878305.220    97627745.746          50.000  
E36  24375249.820   128092764.082          50.000    24375254.720    95653673.621          50.000  
> 2020  7  8 22 29 13.0000000  0 14       0.000000000000
G10  23704466.020   124567746.813          50.000    23704467.140    93021364.832          50.000  
G13  23360358.180   122759558.219          50.000                                                  
G15  21916260.600   115170542.352          50.000                                                  
G16  23745194.620   124781841.918          50.000                                                  
G20  21020647.320   110464246.406          50.000                                                  
G21  23134010.580   121570060.902          50.000                                                  
G26  22456277.400   118008449.375          50.000    22456278.560    88123185.246          50.000  
G29  21062267.640   110682958.094          50.000                                                  
E 2  27017482.200   141977791.598          50.000    27017487.300   106022359.738          50.000  
E 5  24921313.060   130962348.688          50.000    24921317.840    97796545.328          50.000  
E 9  23450043.720   123230791.602          50.000    23450047.660    92022983.469          50.000  
E27  27581842.320   144943517.840          50.000    27581847.480   108237025.820          50.000  
E30  24878582.880   130737792.895          50.000    24878587.680    97628854.188          50.000  
E36  24375436.320   128093744.113          50.000    24375441.220    95654405.465          50.000  
> 2020  7  8 22 29 14.0000000  0 14       0.000000000000
G10  23703856.300   124564542.723          50.000    23703857.420    93018972.168          50.000  
G13  23360316.560   122759339.543          50.000                                                  
G15  21916015.720   115169255.430          50.000                                                  
G16  23744837.240   124779963.887          50.000                                                  
G20  21020267.840   110462252.219          50.000                                                  
G21  23133684.100   121568345.270          50.000                                                  
G26  22456341.820   118008787.918          50.000    22456343.000    88123438.055          50.000  
G29  21062609.240   110684753.203          50.000                                                  
E 2  27018022.640   141980631.605          50.000    27018027.740   106024480.523          50.000  
E 5  24920918.380   130960274.613          50.000    24920923.160    97794996.508          50.000  
E 9  23450132.400   123231257.656          50.000    23450136.360    92023331.496          50.000  
E27  27581680.040   144942665.027          50.000    27581685.200   108236388.980          50.000  
E30  24878865.420   130739277.617          50.000    24878870.220    97629962.906          50.000  
E36  24375622.840   128094724.289          50.000    24375627.740    95655137.414          50.000  
> 2020  7  8 22 29 15.0000000  0 14       0.000000000000
G10  23703246.620   124561338.844          50.000    23703247.740    93016579.664          50.000  
G13  23360275.060   122759121.492          50.000                                                  
G15  21915770.940   115167969.117          50.000                                                  
G16  23744479.960   124778086.398          50.000                                                  
G20  21019888.440   110460258.430          50.000                                                  
G21  23133357.640   121566629.723          50.000                                                  
G26  22456406.360   118009127.066          50.000    22456407.520    88123691.313          50.000  
G29  21062950.920   110686548.781          50.000                                                  
E 2  27018563.080   141983471.641          50.000    27018568.180   106026601.328          50.000  
E 5  24920523.760   130958200.840          50.000    24920528.520    97793447.910          50.000  
E 9  23450221.180   123231724.176          50.000    23450225.140    92023679.871          50.000  
E27  27581517.840   144941812.660          50.000    27581523.000   108235752.473          50.000  
E30  24879148.020   130740762.707          50.000    24879152.820    97631071.898          50.000  
E36  24375809.380   128095704.570          50.000    24375814.280    95655869.441          50.000  
> 2020  7  8 22 29 16.0000000  0 14       0.000000000000
G10  23702637.000   124558135.219          50.000    23702638.120    93014187.352          50.000  
G13  23360233.700   122758904.055          50.000                                                  
G15  21915526.280   115166683.398          50.000                                                  
G16  23744122.800   124776209.473          50.000                                                  
G20  21019509.120   110458265.086          50.000                                                  
G21  23133031.200   121564914.262          50.000                                                  
G26  22456471.020   118009466.805          50.000    22456472.180    88123945.012          50.000  
G29  21063292.700   110688344.832          50.000                                                  
E 2  27019103.520   141986311.703          50.000    27019108.620   106028722.152          50.000  
E 5  24920129.200   130956127.398          50.000    24920133.960    97791899.563          50.000  
E 9  23450310.040   123232191.160          50.000    23450314.000    92024028.594          50.000  
E27  27581355.720   144940960.754          50.000    27581360.880   108235116.313          50.000  
E30  24879430.700   130742248.176          50.000    24879435.500    97632181.180          50.000  
E36  24375995.940   128096684.957          50.000    24376000.840    95656601.547          50.000  
> 2020  7  8 22 29 17.0000000  0 14       0.000000000000
G10  23702027.400   124554931.805          50.000    23702028.520    93011795.191          50.000  
G13  23360192.440   122758687.230          50.000                                                  
G15  21915281.720   115165398.281          50.000                                                  
G16  23743765.740   124774333.105          50.000                                                  
G20  21019129.880   110456272.160          50.000                                                  
G21  23132704.780   121563198.891          50.000                                                  
G26  22456535.780   118009807.156          50.000    22456536.940    88124199.172          50.000  
G29  21063634.560   110690141.355          50.000                                                  
E 2  27019643.960   141989151.758          50.000    27019649.080   106030842.969          50.000  
E 5  24919734.680   130954054.266          50.000    24919739.460    97790351.445          50.000  
E 9  23450399.000   123232658.617          50.000    23450402.960    92024377.668          50.000  
E27  27581193.700   144940109.285          50.000    27581198.860   108234480.473          50.000  
E30  24879713.440   130743734.008          50.000    24879718.240    97633290.727          50.000  
E36  24376182.520   128097665.461          50.000    24376187.420    95657333.742          50.000  
> 2020  7  8 22 29 18.0000000  0 14       0.000000000000
G10  23701417.860   124551728.629          50.000    23701418.980    93009403.211          50.000  
G13  23360151.280   122758471.016          50.000                                                  
G15  21915037.300   115164113.785          50.000                                                  
G16  23743408.780   124772457.285          50.000                                                  
G20  21018750.720   110454279.664          50.000                                                  
G21  23132378.360   121561483.605          50.000                                                  
G26  22456600.660   118010148.105          50.000    22456601.820    88124453.777          50.000  
G29  21063976.520   110691938.348          50.000                                                  
E 2  27020184.420   141991991.828          50.000    27020189.520   106032963.797          50.000  
E 5  24919340.240   130951981.465          50.000    24919345.020    97788803.574          50.000  
E 9  23450488.040   123233126.539          50.000    23450492.000    92024727.090          50.000  
E27  27581031.760   144939258.270          50.000    27581036.920   108233844.973          50.000  
E30  24879996.260   130745220.219          50.000    24880001.060    97634400.559          50.000  
E36  24376369.140   128098646.086          50.000    24376374.040    95658066.023          50.000  
> 2020  7  8 22 29 19.0000000  0 14       0.000000000000
G10  23700808.360   124548525.680          50.000    23700809.480    93007011.402          50.000  
G13  23360110.260   122758255.426          50.000                                                  
G15  21914792.980   115162829.879          50.000                                                  
G16  23743051.940   124770582.023          50.000                                                  
G20  21018371.640   110452287.598          50.000                                                  
G21  23132051.980   121559768.406          50.000                                                  
G26  22456665.660   118010489.652          50.000    22456666.820    88124708.828          50.000  
G29  21064318.560   110693735.789          50.000                                                  
E 2  27020724.860   141994831.898          50.000    27020729.960   106035084.629          50.000  
E 5  24918945.860   130949908.984          50.000    24918950.640    97787255.941          50.000  
E 9  23450577.180   123233594.934          50.000    23450581.120    92025076.863          50.000  
E27  27580869.900   144938407.695          50.000    27580875.060   108233209.805          50.000  
E30  24880279.160   130746706.805          50.000    24880283.960    97635510.672          50.000  
E36  24376555.760   128099626.781          50.000    24376560.660    95658798.363          50.000  
> 2020  7  8 22 29 20.0000000  0 14       0.000000000000
G10  23700198.900   124545322.961          50.000    23700200.020    93004619.758          50.000  
G13  23360069.360   122758040.449          50.000                                                  
G15  21914548.780   115161546.586          50.000                                                  
G16  23742695.180   124768707.320          50.000                                                  
G20  21017992.640   110450295.969          50.000                                                  
G21  23131725.600   121558053.301          50.000                                                  
G26  22456730.760   118010831.801          50.000    22456731.940    88124964.328          50.000  
G29  21064660.700   110695533.723          50.000                                                  
E 2  27021265.320   141997672.008          50.000    27021270.420   106037205.488          50.000  
E 5  24918551.540   130947836.824          50.000    24918556.320    97785708.551          50.000  
E 9  23450666.400   123234063.789          50.000    23450670.340    92025426.984          50.000  
E27  27580708.120   144937557.582          50.000    27580713.280   108232574.980          50.000  
E30  24880562.120   130748193.754          50.000    24880566.900    97636621.055          50.000  
E36  24376742.400   128100607.617          50.000    24376747.300    95659530.805          50.000  
> 2020  7  8 22 29 21.0000000  0 14       0.000000000000
G10  23699589.500   124542120.414          50.000    23699590.620    93002228.215          50.000  
G13  23360028.560   122757826.121          50.000                                                  
G15  21914304.680   115160263.906          50.000                                                  
G16  23742338.540   124766833.188          50.000                                                  
G20  21017613.720   110448304.762          50.000                                                  
G21  23131399.240   121556338.309          50.000                                                  
G26  22456795.980   118011174.563          50.000    22456797.140    88125220.297          50.000  
G29  21065002.920   110697332.121          50.000                                                  
E 2  27021805.780   142000512.090          50.000    27021810.880   106039326.324          50.000  
E 5  24918157.280   130945764.992          50.000    24918162.060    97784161.414          50.000  
E 9  23450755.700   123234533.129          50.000    23450759.660    92025777.473          50.000  
E27  27580546.440   144936707.891          50.000    27580551.600   108231940.465          50.000  
E30  24880845.140   130749681.098          50.000    24880849.940    97637731.742          50.000  
E36  24376929.060   128101588.574          50.000    24376933.960    95660263.344          50.000  
> 2020  7  8 22 29 22.0000000  0 14       0.000000000000
G10  23698980.120   124538918.152          50.000    23698981.240    92999836.918          50.000  
G13  23359987.900   122757612.383          50.000                                                  
G15  21914060.700   115158981.824          50.000                                                  
G16  23741982.020   124764959.602          50.000                                                  
G20  21017234.880   110446313.961          50.000                                                  
G21  23131072.900   121554623.371          50.000                                                  
G26  22456861.320   118011517.922          50.000    22456862.480    88125476.699          50.000  
G29  21065345.220   110699130.980          50.000                                                  
E 2  27022346.240   142003352.215          50.000    27022351.340   106041447.195          50.000  
E 5  24917763.080   130943693.473          50.000    24917767.860    97782614.500          50.000  
E 9  23450845.100   123235002.926          50.000    23450849.060    92026128.293          50.000  
E27  27580384.840   144935858.680          50.000    27580390.000   108231306.313          50.000  
E30  24881128.240   130751168.793          50.000    24881133.040    97638842.684          50.000  
E36  24377115.760   128102569.641          50.000    24377120.660    95660995.957          50.000  
> 2020  7  8 22 29 23.0000000  0 14       0.000000000000
G10  23698370.800   124535716.133          50.000    23698371.920    92997445.801          50.000  
G13  23359947.340   122757399.258          50.000                                                  
G15  21913816.860   115157700.348          50.000                                                  
G16  23741625.600   124763086.574          50.000                                                  
G20  21016856.140   110444323.613          50.000                                                  
G21  23130746.580   121552908.520          50.000                                                  
G26  22456926.780   118011861.875          50.000    22456927.940    88125733.547          50.000  
G29  21065687.620   110700930.297          50.000                                                  
E 2  27022886.680   142006192.340          50.000    27022891.800   106043568.066          50.000  
E 5  24917368.940   130941622.273          50.000    24917373.720    97781067.828          50.000  
E 9  23450934.600   123235473.191          50.000    23450938.540    92026479.465          50.000  
E27  27580223.320   144935009.906          50.000    27580228.480   108230672.492          50.000  
E30  24881411.400   130752656.855          50.000    24881416.200    97639953.898          50.000  
E36  24377302.480   128103550.809          50.000    24377307.360    95661728.645          50.000  
> 2020  7  8 22 29 24.0000000  0 14       0.000000000000
G10  23697761.520   124532514.340          50.000    23697762.640    92995054.855          50.000  
G13  23359906.900   122757186.754          50.000                                                  
G15  21913573.120   115156419.477          50.000                                                  
G16  23741269.280   124761214.098          50.000                                                  
G20  21016477.460   110442333.684          50.000                                                  
G21  23130420.260   121551193.766          50.000                                                  
G26  22456992.340   118012206.426          50.000    22456993.500    88125990.840          50.000  
G29  21066030.120   110702730.094          50.000                                                  
E 2  27023427.160   142009032.488          50.000    27023432.260   106045688.953          50.000  
E 5  24916974.880   130939551.406          50.000    24916979.640    97779521.402          50.000  
E 9  23451024.160   123235943.930          50.000    23451028.120    92026830.988          50.000  
E27  27580061.900   144934161.582          50.000    27580067.040   108230039.000          50.000  
E30  24881694.640   130754145.301          50.000    24881699.440    97641065.398          50.000  
E36  24377489.200   128104532.074          50.000    24377494.100    95662461.410          50.000  
> 2020  7  8 22 29 25.0000000  0 14       0.000000000000
G10  23697152.280   124529312.773          50.000    23697153.400    92992664.074          50.000  
G13  23359866.580   122756974.867          50.000                                                  
G15  21913329.480   115155139.215          50.000                                                  
G16  23740913.060   124759342.180          50.000                                                  
G20  21016098.880   110440344.176          50.000                                                  
G21  23130093.980   121549479.082          50.000                                                  
G26  22457058.020   118012551.570          50.000    22457059.180    88126248.578          50.000  
G29  21066372.700   110704530.352          50.000                                                  
E 2  27023967.620   142011872.645          50.000    27023972.720   106047809.848          50.000  
E 5  24916580.860   130937480.844          50.000    24916585.620    97777975.199          50.000  
E 9  23451113.840   123236415.121          50.000    23451117.780    92027182.855          50.000  
E27  27579900.540   144933313.715          50.000    27579905.700   108229405.852          50.000  
E30  24881977.960   130755634.102          50.000    24881982.760    97642177.164          50.000  
E36  24377675.960   128105513.457          50.000    24377680.840    95663194.262          50.000  
> 2020  7  8 22 29 26.0000000  0 14       0.000000000000
G10  23696543.080   124526111.426          50.000    23696544.200    92990273.461          50.000  
G13  23359826.380   122756763.598          50.000                                                  
G15  21913085.980   115153859.563          50.000                                                  
G16  23740556.940   124757470.824          50.000                                                  
G20  21015720.360   110438355.078          50.000                                                  
G21  23129767.700   121547764.508          50.000                                                  
G26  22457123.820   118012897.320          50.000    22457124.980    88126506.766          50.000  
G29  21066715.360   110706331.082          50.000                                                  
E 2  27024508.080   142014712.805          50.000    27024513.200   106049930.746          50.000  
E 5  24916186.900   130935410.605          50.000    24916191.680    97776429.246          50.000  
E 9  23451203.600   123236886.793          50.000    23451207.540    92027535.074          50.000  
E27  27579739.280   144932466.285          50.000    27579744.440   108228773.031          50.000  
E30  24882261.340   130757123.281          50.000    24882266.140    97643289.215          50.000  
E36  24377862.720   128106494.953          50.000    24377867.620    95663927.195          50.000  
> 2020  7  8 22 29 27.0000000  0 14       0.000000000000
G10  23695933.940   124522910.332          50.000    23695935.060    92987883.031          50.000  
G13  23359786.280   122756552.938          50.000                                                  
G15  21912842.580   115152580.516          50.000                                                  
G16  23740200.940   124755600.027          50.000                                                  
G20  21015341.940   110436366.441          50.000                                                  
G21  23129441.440   121546050.016          50.000                                                  
G26  22457189.720   118013243.680          50.000    22457190.880    88126765.410          50.000  
G29  21067058.120   110708132.285          50.000                                                  
E 2  27025048.540   142017552.969          50.000    27025053.660   106052051.645          50.000  
E 5  24915793.020   130933340.691          50.000    24915797.780    97774883.531          50.000  
E 9  23451293.440   123237358.930          50.000    23451297.380    92027887.645          50.000  
E27  27579578.120   144931619.309          50.000    27579583.260   108228140.551          50.000  
E30  24882544.800   130758612.836          50.000    24882549.600    97644401.539          50.000  
E36  24378049.520   128107476.570          50.000    24378054.420    95664660.223          50.000  
> 2020  7  8 22 29 28.0000000  0 14       0.000000000000
G10  23695324.820   124519709.453          50.000    23695325.940    92985492.770          50.000  
G13  23359746.320   122756342.898          50.000                                                  
G15  21912599.300   115151302.070          50.000                                                  
G16  23739845.060   124753729.785          50.000                                                  
G20  21014963.580   110434378.219          50.000                                                  
G21  23129115.200   121544335.617          50.000                                                  
G26  22457255.760   118013590.637          50.000    22457256.920    88127024.504          50.000  
G29  21067400.960   110709933.945          50.000                                                  
E 2  27025589.020   142020393.156          50.000    27025594.140   106054172.563          50.000  
E 5  24915399.180   130931271.105          50.000    24915403.960    97773338.063          50.000  
E 9  23451383.380   123237831.539          50.000    23451387.320    92028240.566          50.000  
E27  27579417.020   144930772.785          50.000    27579422.180   108227508.406          50.000  
E30  24882828.320   130760102.770          50.000    24882833.120    97645514.152          50.000  
E36  24378236.340   128108458.301          50.000    24378241.240    95665393.332          50.000  
> 2020  7  8 22 29 29.0000000  0 14       0.000000000000
G10  23694715.760   124516508.820          50.000    23694716.880    92983102.684          50.000  
G13  23359706.460   122756133.473          50.000                                                  
G15  21912356.140   115150024.230          50.000                                                  
G16  23739489.260   124751860.102          50.000                                                  
G20  21014585.320   110432390.422          50.000                                                  
G21  23128788.980   121542621.309          50.000                                                  
G26  22457321.880   118013938.191          50.000    22457323.060    88127284.039          50.000  
G29  21067743.900   110711736.078          50.000                                                  
E 2  27026129.500   142023233.348          50.000    27026134.600   106056293.484          50.000  
E 5  24915005.420   130929201.832          50.000    24915010.180    97771792.824          50.000  
E 9  23451473.400   123238304.609          50.000    23451477.340    92028593.836          50.000  
E27  27579256.020   144929926.699          50.000    27579261.180   108226876.590          50.000  
E30  24883111.920   130761593.063          50.000    24883116.700    97646627.035          50.000  
E36  24378423.180   128109440.129          50.000    24378428.080    95666126.512          50.000  
> 2020  7  8 22 29 30.0000000  0 14       0.000000000000
G10  23694106.740   124513308.406          50.000    23694107.860    92980712.770          50.000  
G13  23359666.740   122755924.672          50.000                                                  
G15  21912113.080   115148747.004          50.000                                                  
G16  23739133.580   124749990.969          50.000                                                  
G20  21014207.140   110430403.059          50.000                                                  
G21  23128462.780   121540907.082          50.000                                                  
G26  22457388.140   118014286.340          50.000    22457389.300    88127544.020          50.000  
G29  21068086.920   110713538.680          50.000                                                  
E 2  27026669.960   142026073.551          50.000    27026675.080   106058414.414          50.000  
E 5  24914611.700   130927132.891          50.000    24914616.480    97770247.836          50.000  
E 9  23451563.500   123238778.152          50.000    23451567.460    92028947.453          50.000  
E27  27579095.100   144929081.074          50.000    27579100.260   108226245.117          50.000  
E30  24883395.580   130763083.727          50.000    24883400.380    97647740.191          50.000  
E36  24378610.020   128110422.066          50.000    24378614.920    95666859.777          50.000  
> 2020  7  8 22 29 31.0000000  0 14       0.000000000000
G10  23693497.760   124510108.227          50.000    23693498.880    92978323.023          50.000  
G13  23359627.120   122755716.492          50.000                                                  
G15  21911870.160   115147470.383          50.000                                                  
G16  23738778.000   124748122.398          50.000                                                  
G20  21013829.040   110428416.109          50.000                                                  
G21  23128136.580   121539192.945          50.000                                                  
G26  22457454.500   118014635.098          50.000    22457455.660    88127804.457          50.000  
G29  21068430.040   110715341.758          50.000                                                  
E 2  27027210.440   142028913.777          50.000    27027215.560   106060535.359          50.000  
E 5  24914218.060   130925064.262          50.000    24914222.820    97768703.082          50.000  
E 9  23451653.700   123239252.168          50.000    23451657.660    92029301.426          50.000  
E27  27578934.280   144928235.898          50.000    27578939.420   108225613.977          50.000  
E30  24883679.320   130764574.770          50.000    24883684.120    97648853.629          50.000  
E36  24378796.900   128111404.121          50.000    24378801.800    95667593.129          50.000  
> 2020  7  8 22 29 32.0000000  0 14       0.000000000000
G10  23692888.840   124506908.285          50.000    23692889.960    92975933.461          50.000  
G13  23359587.620   122755508.926          50.000                                                  
G15  21911627.340   115146194.375          50.000                                                  
G16  23738422.520   124746254.379          50.000                                                  
G20  21013451.020   110426429.574          50.000                                                  
G21  23127810.400   121537478.895          50.000                                                  
G26  22457520.980   118014984.453          50.000    22457522.160    88128065.336          50.000  
G29  21068773.240   110717145.293          50.000                                                  
E 2  27027750.920   142031754.000          50.000    27027756.040   106062656.305          50.000  
E 5  24913824.480   130922995.957          50.000    24913829.240    97767158.570          50.000  
E 9  23451744.000   123239726.648          50.000    23451747.960    92029655.746          50.000  
E27  27578773.520   144927391.172          50.000    27578778.680   108224983.176          50.000  
E30  24883963.120   130766066.176          50.000    24883967.920    97649967.344          50.000  
E36  24378983.800   128112386.293          50.000    24378988.700    95668326.570          50.000  
> 2020  7  8 22 29 33.0000000  0 14       0.000000000000
G10  23692279.960   124503708.563          50.000    23692281.080    92973544.059          50.000  
G13  23359548.240   122755301.980          50.000                                                  
G15  21911384.640   115144918.961          50.000                                                  
G16  23738067.160   124744386.926          50.000                                                  
G20  21013073.080   110424443.504          50.000                                                  
G21  23127484.260   121535764.930          50.000                                                  
G26  22457587.580   118015334.410          50.000    22457588.740    88128326.668          50.000  
G29  21069116.540   110718949.297          50.000                                                  
E 2  27028291.400   142034594.230          50.000    27028296.520   106064777.254          50.000  
E 5  24913430.960   130920927.977          50.000    24913435.720    97765614.297          50.000  
E 9  23451834.380   123240201.586          50.000    23451838.320    92030010.406          50.000  
E27  27578612.860   144926546.883          50.000    27578618.020   108224352.699          50.000  
E30  24884247.000   130767557.949          50.000    24884251.800    97651081.328          50.000  
E36  24379170.720   128113368.555          50.000    24379175.620    95669060.074          50.000  
> 2020  7  8 22 29 34.0000000  0 14       0.000000000000
G10  23691671.120   124500509.082          50.000    23691672.220    92971154.840          50.000  
G13  23359508.980   122755095.656          50.000                                                  
G15  21911142.040   115143644.156          50.000                                                  
G16  23737711.900   124742520.027          50.000                                                  
G20  21012695.220   110422457.855          50.000                                                  
G21  23127158.120   121534051.066          50.000                                                  
G26  22457654.300   118015684.973          50.000    22457655.460    88128588.453          50.000  
G29  21069459.920   110720753.766          50.000                                                  
E 2  27028831.880   142037434.480          50.000    27028837.000   106066898.215          50.000  
E 5  24913037.480   130918860.316          50.000    24913042.260    97764070.266          50.000  
E 9  23451924.840   123240677.008          50.000    23451928.800    92030365.430          50.000  
E27  27578452.280   144925703.055          50.000    27578457.440   108223722.566          50.000  
E30  24884530.940   130769050.094          50.000    24884535.740    97652195.590          50.000  
E36  24379357.680   128114350.953          50.000    24379362.580    95669793.684          50.000  
> 2020  7  8 22 29 35.0000000  0 14       0.000000000000
G10  23691062.320   124497309.828          50.000    23691063.420    92968765.785          50.000  
G13  23359469.840   122754889.953          50.000                                                  
G15  21910899.580   115142369.961          50.000                                                  
G16  23737356.740   124740653.676          50.000                                                  
G20  21012317.440   110420472.598          50.000                                                  
G21  23126831.980   121532337.270          50.000                                                  
G26  22457721.120   118016036.109          50.000    22457722.280    88128850.664          50.000  
G29  21069803.380   110722558.711          50.000                                                  
E 2  27029372.360   142040274.742          50.000    27029377.480   106069019.191          50.000  
E 5  24912644.080   130916792.984          50.000    24912648.860    97762526.480          50.000  
E 9  23452015.400   123241152.887          50.000    23452019.360    92030720.793          50.000  
E27  27578291.800   144924859.676          50.000    27578296.960   108223092.773          50.000  
E30  24884814.960   130770542.605          50.000    24884819.760    97653310.129          50.000  
E36  24379544.640   128115333.441          50.000    24379549.540    95670527.359          50.000  
> 2020  7  8 22 29 36.0000000  0 14       0.000000000000
G10  23690453.560   124494110.805          50.000    23690454.680    92966376.906          50.000  
G13  23359430.800   122754684.852          50.000                                                  
G15  21910657.220   115141096.367          50.000                                                  
G16  23737001.700   124738787.891          50.000                                                  
G20  21011939.740   110418487.820          50.000                                                  
G21  23126505.880   121530623.574          50.000                                                  
G26  22457788.040   118016387.871          50.000    22457789.220    88129113.344          50.000  
G29  21070146.940   110724364.109          50.000                                                  
E 2  27029912.860   142043115.000          50.000    27029917.960   106071140.160          50.000  
E 5  24912250.740   130914725.957          50.000    24912255.520    97760982.922          50.000  
E 9  23452106.060   123241629.238          50.000    23452110.000    92031076.508          50.000  
E27  27578131.400   144924016.738          50.000    27578136.540   108222463.309          50.000  
E30  24885099.040   130772035.504          50.000    24885103.840    97654424.953          50.000  
E36  24379731.620   128116316.066          50.000    24379736.520    95671261.141          50.000  
> 2020  7  8 22 29 37.0000000  0 14       0.000000000000
G10  23689844.840   124490912.012          50.000    23689845.960    92963988.199          50.000  
G13  23359391.900   122754480.383          50.000                                                  
G15  21910414.980   115139823.383          50.000                                                  
G16  23736646.760   124736922.668          50.000                                                  
G20  21011562.140   110416503.453          50.000                                                  
G21  23126179.800   121528909.969          50.000                                                  
G26  22457855.100   118016740.230          50.000    22457856.260    88129376.465          50.000  
G29  21070490.580   110726169.992          50.000                                                  
E 2  27030453.340   142045955.281          50.000    27030458.460   106073261.148          50.000  
E 5  24911857.460   130912659.262          50.000    24911862.240    97759439.609          50.000  
E 9  23452196.780   123242106.051          50.000    23452200.740    92031432.574          50.000  
E27  27577971.080   144923174.250          50.000    27577976.220   108221834.176          50.000  
E30  24885383.200   130773528.758          50.000    24885388.000    97655540.047          50.000  
E36  24379918.620   128117298.766          50.000    24379923.520    95671994.973          50.000  
> 2020  7  8 22 29 38.0000000  0 14       0.000000000000
G10  23689236.180   124487713.449          50.000    23689237.300    92961599.660          50.000  
G13  23359353.100   122754276.531          50.000                                                  
G15  21910172.860   115138551.004          50.000                                                  
G16  23736291.920   124735057.996          50.000                                                  
G20  21011184.600   110414519.504          50.000                                                  
G21  23125853.720   121527196.445          50.000                                                  
G26  22457922.260   118017093.188          50.000    22457923.440    88129640.039          50.000  
G29  21070834.320   110727976.336          50.000                                                  
E 2  27030993.840   142048795.574          50.000    27030998.940   106075382.145          50.000  
E 5  24911464.260   130910592.895          50.000    24911469.020    97757896.543          50.000  
E 9  23452287.600   123242583.336          50.000    23452291.560    92031788.988          50.000  
E27  27577810.840   144922332.227          50.000    27577816.000   108221205.391          50.000  
E30  24885667.440   130775022.395          50.000    24885672.240    97656655.422          50.000  
E36  24380105.660   128118281.602          50.000    24380110.560    95672728.910          50.000  
> 2020  7  8 22 29 39.0000000  0 14       0.000000000000
G10  23688627.560   124484515.133          50.000    23688628.680    92959211.313          50.000  
G13  23359314.420   122754073.297          50.000                                                  
G15  21909930.840   115137279.227          50.000                                                  
G16  23735937.200   124733193.887          50.000                                                  
G20  21010807.140   110412535.961          50.000                                                  
G21  23125527.660   121525483.008          50.000                                                  
G26  22457989.540   118017446.738          50.000    22457990.720    88129904.055          50.000  
G29  21071178.140   110729783.141          50.000                                                  
E 2  27031534.320   142051635.875          50.000    27031539.440   106077503.145          50.000  
E 5  24911071.100   130908526.848          50.000    24911075.860    97756353.715          50.000  
E 9  23452378.520   123243061.090          50.000    23452382.480    92032145.750          50.000  
E27  27577650.680   144921490.633          50.000    27577655.840   108220576.930          50.000  
E30  24885951.740   130776516.398          50.000    24885956.540    97657771.070          50.000  
E36  24380292.700   128119264.531          50.000    24380297.600    95673462.914          50.000  
> 2020  7  8 22 29 40.0000000  0 14       0.000000000000
G10  23688018.980   124481317.031          50.000    23688020.100    92956823.121          50.000  
G13  23359275.880   122753870.684          50.000                                                  
G15  21909688.940   115136008.070          50.000                                                  
G16  23735582.580   124731330.336          50.000                                                  
G20  21010429.780   110410552.879          50.000                                                  
G21  23125201.620   121523769.664          50.000                                                  
G26  22458056.940   118017800.895          50.000    22458058.100    88130168.523          50.000  
G29  21071522.060   110731590.414          50.000                                                  
E 2  27032074.820   142054476.184          50.000    27032079.940   106079624.152          50.000  
E 5  24910678.000   130906461.117          50.000    24910682.760    97754811.129          50.000  
E 9  23452469.520   123243539.320          50.000    23452473.480    92032502.871          50.000  
E27  27577490.620   144920649.500          50.000    27577495.780   108219948.813          50.000  
E30  24886236.100   130778010.766          50.000    24886240.900    97658886.996          50.000  
E36  24380479.760   128120247.586          50.000    24380484.660    95674197.012          50.000  
> 2020  7  8 22 29 41.0000000  0 14       0.000000000000
G10  23687410.440   124478119.164          50.000    23687411.560    92954435.105          50.000  
G13  23359237.440   122753668.688          50.000                                                  
G15  21909447.160   115134737.520          50.000                                                  
G16  23735228.060   124729467.344          50.000                                                  
G20  21010052.480   110408570.234          50.000                                                  
G21  23124875.600   121522056.414          50.000                                                  
G26  22458124.440   118018155.656          50.000    22458125.620    88130433.438          50.000  
G29  21071866.060   110733398.160          50.000                                                  
E 2  27032615.320   142057316.508          50.000    27032620.420   106081745.172          50.000  
E 5  24910284.960   130904395.727          50.000    24910289.740    97753268.789          50.000  
E 9  23452560.620   123244018.004          50.000    23452564.580    92032860.328          50.000  
E27  27577330.640   144919808.813          50.000    27577335.800   108219321.023          50.000  
E30  24886520.540   130779505.504          50.000    24886525.340    97660003.195          50.000  
E36  24380666.860   128121230.742          50.000    24380671.760    95674931.188          50.000  
> 2020  7  8 22 29 42.0000000  0 14       0.000000000000
G10  23686801.960   124474921.531          50.000    23686803.060    92952047.266          50.000  
G13  23359199.100   122753467.301          50.000                                                  
G15  21909205.500   115133467.586          50.000                                                  
G16  23734873.660   124727604.914          50.000                                                  
G20  21009675.280   110406587.977          50.000                                                  
G21  23124549.600   121520343.238          50.000                                                  
G26  22458192.080   118018511.016          50.000    22458193.240    88130698.805          50.000  
G29  21072210.160   110735206.379          50.000                                                  
E 2  27033155.820   142060156.844          50.000    27033160.920   106083866.203          50.000  
E 5  24909892.000   130902330.641          50.000    24909896.760    97751726.680          50.000  
E 9  23452651.800   123244497.168          50.000    23452655.760    92033218.145          50.000  
E27  27577170.760   144918968.578          50.000    27577175.920   108218693.578          50.000  
E30  24886805.060   130781000.621          50.000    24886809.860    97661119.676          50.000  
E36  24380853.980   128122214.043          50.000    24380858.880    95675665.469          50.000  
> 2020  7  8 22 29 43.0000000  0 14       0.000000000000
G10  23686193.500   124471724.137          50.000    23686194.620    92949659.598          50.000  
G13  23359160.900   122753266.535          50.000                                                  
G15  21908963.960   115132198.242          50.000                                                  
G16  23734519.360   124725743.055          50.000                                                  
G20  21009298.160   110404606.168          50.000                                                  
G21  23124223.620   121518630.160          50.000                                                  
G26  22458259.800   118018866.969          50.000    22458260.980    88130964.613          50.000  
G29  21072554.340   110737015.047          50.000                                                  
E 2  27033696.300   142062997.168          50.000    27033701.420   106085987.223          50.000  
E 5  24909499.080   130900265.871          50.000    24909503.840    97750184.809          50.000  
E 9  23452743.060   123244976.789          50.000    23452747.020    92033576.301          50.000  
E27  27577010.960   144918128.793          50.000    27577016.100   108218066.465          50.000  
E30  24887089.640   130782496.102          50.000    24887094.440    97662236.434          50.000  
E36  24381041.100   128123197.414          50.000    24381046.000    95676399.805          50.000  
> 2020  7  8 22 29 44.0000000  0 14       0.000000000000
G10  23685585.100   124468526.965          50.000    23685586.220    92947272.102          50.000  
G13  23359122.820   122753066.391          50.000                                                  
G15  21908722.540   115130929.527          50.000                                                  
G16  23734165.160   124723881.746          50.000                                                  
G20  21008921.100   110402624.785          50.000                                                  
G21  23123897.640   121516917.160          50.000                                                  
G26  22458327.660   118019223.527          50.000    22458328.820    88131230.875          50.000  
G29  21072898.600   110738824.199          50.000                                                  
E 2  27034236.820   142065837.531          50.000    27034241.940   106088108.273          50.000  
E 5  24909106.240   130898201.449          50.000    24909111.000    97748643.195          50.000  
E 9  23452834.420   123245456.883          50.000    23452838.380    92033934.816          50.000  
E27  27576851.240   144917289.461          50.000    27576856.380   108217439.691          50.000  
E30  24887374.300   130783991.961          50.000    24887379.100    97663353.469          50.000  
E36  24381228.260   128124180.926          50.000    24381233.160    95677134.246          50.000  
> 2020  7  8 22 29 45.0000000  0 14       0.000000000000
G10  23684976.740   124465330.027          50.000    23684977.860    92944884.781          50.000  
G13  23359084.860   122752866.863          50.000                                                  
G15  21908481.220   115129661.426          50.000                                                  
G16  23733811.060   124722020.996          50.000                                                  
G20  21008544.140   110400643.848          50.000                                                  
G21  23123571.680   121515204.254          50.000                                                  
G26  22458395.620   118019580.684          50.000    22458396.800    88131497.582          50.000  
G29  21073242.960   110740633.816          50.000                                                  
E 2  27034777.320   142068677.898          50.000    27034782.440   106090229.324          50.000  
E 5  24908713.440   130896137.328          50.000    24908718.220    97747101.809          50.000  
E 9  23452925.880   123245937.449          50.000    23452929.840    92034293.680          50.000  
E27  27576691.600   144916450.578          50.000    27576696.760   108216813.250          50.000  
E30  24887659.020   130785488.188          50.000    24887663.820    97664470.777          50.000  
E36  24381415.440   128125164.539          50.000    24381420.340    95677868.758          50.000  
> 2020  7  8 22 29 46.0000000  0 14       0.000000000000
G10  23684368.440   124462133.320          50.000    23684369.540    92942497.633          50.000  
G13  23359047.000   122752667.949          50.000                                                  
G15  21908240.020   115128393.914          50.000                                                  
G16  23733457.080   124720160.801          50.000                                                  
G20  21008167.260   110398663.328          50.000                                                  
G21  23123245.740   121513491.434          50.000                                                  
G26  22458463.700   118019938.438          50.000    22458464.860    88131764.734          50.000  
G29  21073587.420   110742443.898          50.000                                                  
E 2  27035317.820   142071518.262          50.000    27035322.940   106092350.371          50.000  
E 5  24908320.720   130894073.539          50.000    24908325.480    97745560.664          50.000  
E 9  23453017.420   123246418.480          50.000    23453021.360    92034652.891          50.000  
E27  27576532.040   144915612.145          50.000    27576537.200   108216187.148          50.000  
E30  24887943.800   130786984.773          50.000    24887948.600    97665588.359          50.000  
E36  24381602.620   128126148.266          50.000    24381607.520    95678603.359          50.000  
> 2020  7  8 22 29 47.0000000  0 14       0.000000000000
G10  23683760.160   124458936.855          50.000    23683761.280    92940110.660          50.000  
G13  23359009.260   122752469.652          50.000                                                  
G15  21907998.940   115127127.004          50.000                                                  
G16  23733103.200   124718301.164          50.000                                                  
G20  21007790.460   110396683.234          50.000                                                  
G21  23122919.820   121511778.699          50.000                                                  
G26  22458531.900   118020296.805          50.000    22458533.060    88132032.344          50.000  
G29  21073931.960   110744254.453          50.000                                                  
E 2  27035858.320   142074358.637          50.000    27035863.440   106094471.430          50.000  
E 5  24907928.060   130892010.070          50.000    24907932.820    97744019.766          50.000  
E 9  23453109.040   123246899.973          50.000    23453113.000    92035012.445          50.000  
E27  27576372.580   144914774.152          50.000    27576377.740   108215561.379          50.000  
E30  24888228.660   130788481.734          50.000    24888233.480    97666706.219          50.000  
E36  24381789.840   128127132.082          50.000    24381794.740    95679338.031          50.000  
> 2020  7  8 22 29 48.0000000  0 14       0.000000000000
G10  23683151.940   124455740.617          50.000    23683153.060    92937723.859          50.000  
G13  23358971.640   122752271.973          50.000                                                  
G15  21907757.960   115125860.711          50.000                                                  
G16  23732749.440   124716442.090          50.000                                                  
G20  21007413.740   110394703.559          50.000                                                  
G21  23122593.920   121510066.051          50.000                                                  
G26  22458600.200   118020655.750          50.000    22458601.360    88132300.391          50.000  
G29  21074276.580   110746065.477          50.000                                                  
E 2  27036398.840   142077199.031          50.000    27036403.960   106096592.504          50.000  
E 5  24907535.460   130889946.934          50.000    24907540.220    97742479.109          50.000  
E 9  23453200.760   123247381.945          50.000    23453204.700    92035372.359          50.000  
E27  27576213.200   144913936.613          50.000    27576218.360   108214935.941          50.000  
E30  24888513.600   130789979.063          50.000    24888518.400    97667824.352          50.000  
E36  24381977.080   128128116.035          50.000    24381981.980    95680072.797          50.000  
> 2020  7  8 22 29 49.0000000  0 14       0.000000000000
G10  23682543.760   124452544.602          50.000    23682544.880    92935337.227          50.000  
G13  23358934.140   122752074.910          50.000                                                  
G15  21907517.120   115124595.008          50.000                                                  
G16  23732395.760   124714583.570          50.000                                                  
G20  21007037.100   110392724.309          50.000                                                  
G21  23122268.020   121508353.484          50.000                                                  
G26  22458668.620   118021015.313          50.000    22458669.800    88132568.891          50.000  
G29  21074621.300   110747876.957          50.000                                                  
E 2  27036939.360   142080039.438          50.000    27036944.480   106098713.582          50.000  
E 5  24907142.900   130887884.109          50.000    24907147.680    97740938.688          50.000  
E 9  23453292.560   123247864.375          50.000    23453296.520    92035732.617          50.000  
E27  27576053.920   144913099.527          50.000    27576059.080   108214310.844          50.000  
E30  24888798.600   130791476.766          50.000    24888803.400    97668942.766          50.000  
E36  24382164.340   128129100.098          50.000    24382169.240    95680807.652          50.000  
> 2020  7  8 22 29 50.0000000  0 14       0.000000000000
G10  23681935.620   124449348.828          50.000    23681936.740    92932950.773          50.000  
G13  23358896.760   122751878.465          50.000                                                  
G15  21907276.380   115123329.934          50.000                                                  
G16  23732042.220   124712725.621          50.000                                                  
G20  21006660.560   110390745.496          50.000                                                  
G21  23121942.160   121506641.020          50.000                                                  
G26  22458737.160   118021375.465          50.000    22458738.320    88132837.836          50.000  
G29  21074966.100   110749688.934          50.000                                                  
E 2  27037479.860   142082879.840          50.000    27037484.980   106100834.664          50.000  
E 5  24906750.420   130885821.617          50.000    24906755.200    97739398.516          50.000  
E 9  23453384.460   123248347.277          50.000    23453388.400    92036093.223          50.000  
E27  27575894.700   144912262.887          50.000    27575899.860   108213686.082          50.000  
E30  24889083.680   130792974.855          50.000    24889088.480    97670061.469          50.000  
E36  24382351.620   128130084.266          50.000    24382356.520    95681542.582          50.000  
> 2020  7  8 22 29 51.0000000  0 14       0.000000000000
G10  23681327.520   124446153.285          50.000    23681328.640    92930564.496          50.000  
G13  23358859.500   122751682.637          50.000                                                  
G15  21907035.760   115122065.453          50.000                                                  
G16  23731688.760   124710868.215          50.000                                                  
G20  21006284.080   110388767.105          50.000                                                  
G21  23121616.300   121504928.633          50.000                                                  
G26  22458805.820   118021736.215          50.000    22458806.980    88133107.227          50.000  
G29  21075311.000   110751501.344          50.000                                                  
E 2  27038020.380   142085720.262          50.000    27038025.500   106102955.754          50.000  
E 5  24906358.000   130883759.434          50.000    24906362.780    97737858.574          50.000  
E 9  23453476.440   123248830.645          50.000    23453480.380    92036454.180          50.000  
E27  27575735.580   144911426.695          50.000    27575740.740   108213061.652          50.000  
E30  24889368.820   130794473.297          50.000    24889373.640    97671180.434          50.000  
E36  24382538.920   128131068.535          50.000    24382543.820    95682277.590          50.000  
> 2020  7  8 22 29 52.0000000  0 14       0.000000000000
G10  23680719.480   124442957.965          50.000    23680720.600    92928178.383          50.000  
G13  23358822.360   122751487.434          50.000                                                  
G15  21906795.240   115120801.582          50.000                                                  
G16  23731335.420   124709011.371          50.000                                                  
G20  21005907.680   110386789.141          50.000                                                  
G21  23121290.460   121503216.344          50.000                                                  
G26  22458874.580   118022097.570          50.000    22458875.740    88133377.070          50.000  
G29  21075655.980   110753314.238          50.000                                                  
E 2  27038560.900   142088560.684          50.000    27038566.020   106105076.848          50.000  
E 5  24905965.660   130881697.574          50.000    24905970.420    97736318.875          50.000  
E 9  23453568.500   123249314.477          50.000    23453572.460    92036815.484          50.000  
E27  27575576.540   144910590.957          50.000    27575581.700   108212437.563          50.000  
E30  24889654.040   130795972.113          50.000    24889658.840    97672299.676          50.000  
E36  24382726.240   128132052.910          50.000    24382731.140    95683012.672          50.000  
> 2020  7  8 22 29 53.0000000  0 14       0.000000000000
G10  23680111.480   124439762.887          50.000    23680112.580    92925792.445          50.000  
G13  23358785.320   122751292.844          50.000                                                  
G15  21906554.860   115119538.320          50.000                                                  
G16  23730982.180   124707155.086          50.000                                                  
G20  21005531.360   110384811.598          50.000                                                  
G21  23120964.640   121501504.125          50.000                                                  
G26  22458943.460   118022459.516          50.000    22458944.620    88133647.352          50.000  
G29  21076001.040   110755127.598          50.000                                                  
E 2  27039101.420   142091401.121          50.000    27039106.540   106107197.949          50.000  
E 5  24905573.360   130879636.047          50.000    24905578.120    97734779.426          50.000  
E 9  23453660.660   123249798.781          50.000    23453664.620    92037177.137          50.000  
E27  27575417.600   144909755.668          50.000    27575422.760   108211813.809          50.000  
E30  24889939.320   130797471.285          50.000    24889944.140    97673419.188          50.000  
E36  24382913.600   128133037.418          50.000    24382918.500    95683747.855          50.000  
> 2020  7  8 22 29 54.0000000  0 14       0.000000000000
G10  23679503.520   124436568.039          50.000    23679504.620    92923406.688          50.000  
G13  23358748.420   122751098.867          50.000                                                  
G15  21906314.580   115118275.664          50.000                                                  
G16  23730629.040   124705299.367          50.000                                                  
G20  21005155.140   110382834.500          50.000                                                  
G21  23120638.820   121499792.008          50.000                                                  
G26  22459012.440   118022822.074          50.000    22459013.620    88133918.098          50.000  
G29  21076346.200   110756941.430          50.000                                                  
E 2  27039641.940   142094241.563          50.000    27039647.060   106109319.059          50.000  
E 5  24905181.120   130877574.840          50.000    24905185.880    97733240.211          50.000  
E 9  23453752.920   123250283.555          50.000    23453756.860    92037539.145          50.000  
E27  27575258.740   144908920.824          50.000    27575263.880   108211190.383          50.000  
E30  24890224.680   130798970.840          50.000    24890229.480    97674538.984          50.000  
E36  24383100.960   128134022.020          50.000    24383105.860    95684483.109          50.000  
> 2020  7  8 22 29 55.0000000  0 14       0.000000000000
G10  23678895.600   124433373.430          50.000    23678896.720    92921021.102          50.000  
G13  23358711.620   122750905.520          50.000                                                  
G15  21906074.420   115117013.613          50.000                                                  
G16  23730276.020   124703444.211          50.000                                                  
G20  21004778.980   110380857.820          50.000                                                  
G21  23120313.040   121498079.977          50.000                                                  
G26  22459081.560   118023185.230          50.000    22459082.720    88134189.285          50.000  
G29  21076691.460   110758755.715          50.000                                                  
E 2  27040182.460   142097082.020          50.000    27040187.580   106111440.176          50.000  
E 5  24904788.940   130875513.957          50.000    24904793.720    97731701.238          50.000  
E 9  23453845.260   123250768.793          50.000    23453849.200    92037901.496          50.000  
E27  27575099.960   144908086.438          50.000    27575105.120   108210567.305          50.000  
E30  24890510.120   130800470.762          50.000    24890514.920    97675659.055          50.000  
E36  24383288.340   128135006.754          50.000    24383293.240    95685218.465          50.000  
> 2020  7  8 22 29 56.0000000  0 14       0.000000000000
G10  23678287.720   124430179.043          50.000    23678288.840    92918635.684          50.000  
G13  23358674.940   122750712.785          50.000                                                  
G15  21905834.380   115115752.180          50.000                                                  
G16  23729923.100   124701589.609          50.000                                                  
G20  21004402.920   110378881.578          50.000                                                  
G21  23119987.260   121496368.047          50.000                                                  
G26  22459150.780   118023548.984          50.000    22459151.940    88134460.914          50.000  
G29  21077036.800   110760570.484          50.000                                                  
E 2  27040722.980   142099922.477          50.000    27040728.100   106113561.293          50.000  
E 5  24904396.840   130873453.398          50.000    24904401.600    97730162.508          50.000  
E 9  23453937.680   123251254.492          50.000    23453941.640    92038264.191          50.000  
E27  27574941.260   144907252.504          50.000    27574946.420   108209944.563          50.000  
E30  24890795.600   130801971.066          50.000    24890800.420    97676779.410          50.000  
E36  24383475.760   128135991.586          50.000    24383480.660    95685953.891          50.000  
> 2020  7  8 22 29 57.0000000  0 14       0.000000000000
G10  23677679.900   124426984.895          50.000    23677681.000    92916250.445          50.000  
G13  23358638.380   122750520.672          50.000                                                  
G15  21905594.440   115114491.355          50.000                                                  
G16  23729570.280   124699735.578          50.000                                                  
G20  21004026.940   110376905.754          50.000                                                  
G21  23119661.520   121494656.188          50.000                                                  
G26  22459220.100   118023913.340          50.000    22459221.280    88134733.000          50.000  
G29  21077382.220   110762385.711          50.000                                                  
E 2  27041263.500   142102762.953          50.000    27041268.620   106115682.430          50.000  
E 5  24904004.780   130871393.164          50.000    24904009.560    97728624.023          50.000  
E 9  23454030.200   123251740.676          50.000    23454034.160    92038627.250          50.000  
E27  27574782.660   144906419.023          50.000    27574787.820   108209322.160          50.000  
E30  24891081.180   130803471.727          50.000    24891085.980    97677900.035          50.000  
E36  24383663.180   128136976.547          50.000    24383668.080    95686689.410          50.000  
> 2020  7  8 22 29 58.0000000  0 14       0.000000000000
G10  23677072.120   124423790.988          50.000    23677073.220    92913865.387          50.000  
G13  23358601.940   122750329.184          50.000                                                  
G15  21905354.640   115113231.137          50.000                                                  
G16  23729217.580   124697882.102          50.000                                                  
G20  21003651.040   110374930.363          50.000                                                  
G21  23119335.780   121492944.418          50.000                                                  
G26  22459289.560   118024278.305          50.000    22459290.720    88135005.539          50.000  
G29  21077727.740   110764201.414          50.000                                                  
E 2  27041804.020   142105603.445          50.000    27041809.160   106117803.578          50.000  
E 5  24903612.800   130869333.250          50.000    24903617.560    97727085.777          50.000  
E 9  23454122.800   123252227.309          50.000    23454126.760    92038990.648          50.000  
E27  27574624.120   144905585.969          50.000    27574629.280   108208700.074          50.000  
E30  24891366.820   130804972.762          50.000    24891371.620    97679020.938          50.000  
E36  24383850.640   128137961.590          50.000    24383855.540    95687424.996          50.000  
> 2020  7  8 22 29 59.0000000  0 14       0.000000000000
G10  23676464.380   124420597.289          50.000    23676465.480    92911480.484          50.000  
G13  23358565.620   122750138.305          50.000                                                  
G15  21905114.940   115111971.527          50.000                                                  
G16  23728864.980   124696029.176          50.000                                                  
G20  21003275.200   110372955.406          50.000                                                  
G21  23119010.040   121491232.738          50.000                                                  
G26  22459359.120   118024643.848          50.000    22459360.280    88135278.508          50.000  
G29  21078073.340   110766017.578          50.000                                                  
E 2  27042344.560   142108443.934          50.000    27042349.680   106119924.719          50.000  
E 5  24903220.860   130867273.660          50.000    24903225.640    97725547.773          50.000  
E 9  23454215.500   123252714.422          50.000    23454219.440    92039354.402          50.000  
E27  27574465.700   144904753.391          50.000    27574470.860   108208078.344          50.000  
E30  24891652.520   130806474.156          50.000    24891657.320    97680142.109          50.000  
E36  24384038.100   128138946.766          50.000    24384043.000    95688160.680          50.000  
> 2020  7  8 22 30  0.0000000  0 14       0.000000000000
G10  23675856.680   124417403.836          50.000    23675857.800    92909095.766          50.000  
G13  23358529.420   122749948.051          50.000                                                  
G15  21904875.360   115110712.523          50.000                                                  
G16  23728512.480   124694176.813          50.000                                                  
G20  21002899.460   110370980.863          50.000                                                  
G21  23118684.340   121489521.129          50.000                                                  
G26  22459428.800   118025009.996          50.000    22459429.960    88135551.934          50.000  
G29  21078419.040   110767834.211          50.000                                                  
E 2  27042885.080   142111284.434          50.000    27042890.220   106122045.871          50.000  
E 5  24902829.000   130865214.395          50.000    24902833.760    97724010.012          50.000  
E 9  23454308.280   123253202.004          50.000    23454312.240    92039718.504          50.000  
E27  27574307.340   144903921.250          50.000    27574312.500   108207456.938          50.000  
E30  24891938.300   130807975.926          50.000    24891943.100    97681263.559          50.000  
E36  24384225.600   128139932.055          50.000    24384230.500    95688896.445          50.000  
> 2020  7  8 22 30  1.0000000  0 14       0.000000000000
G10  23675249.040   124414210.629          50.000    23675250.140    92906711.230          50.000  
G13  23358493.340   122749758.406          50.000                                                  
G15  21904635.900   115109454.125          50.000                                                  
G16  23728160.100   124692325.004          50.000                                                  
G20  21002523.800   110369006.758          50.000                                                  
G21  23118358.640   121487809.621          50.000                                                  
G26  22459498.580   118025376.742          50.000    22459499.740    88135825.797          50.000  
G29  21078764.820   110769651.313          50.000                                                  
E 2  27043425.620   142114124.930          50.000    27043430.740   106124167.016          50.000  
E 5  24902437.200   130863155.449          50.000    24902441.960    97722472.488          50.000  
E 9  23454401.140   123253690.043          50.000    23454405.100    92040082.949          50.000  
E27  27574149.080   144903089.551          50.000    27574154.240   108206835.863          50.000  
E30  24892224.140   130809478.059          50.000    24892228.940    97682385.277          50.000  
E36  24384413.100   128140917.418          50.000    24384418.020    95689632.270          50.000  
> 2020  7  8 22 30  2.0000000  0 14       0.000000000000
G10  23674641.420   124411017.633          50.000    23674642.540    92904326.848          50.000  
G13  23358457.360   122749569.387          50.000                                                  
G15  21904396.540   115108196.336          50.000                                                  
G16  23727807.820   124690473.758          50.000                                                  
G20  21002148.220   110367033.066          50.000                                                  
G21  23118032.980   121486098.195          50.000                                                  
G26  22459568.480   118025744.102          50.000    22459569.660    88136100.125          50.000  
G29  21079110.700   110771468.887          50.000                                                  
E 2  27043966.160   142116965.453          50.000    27043971.280   106126288.184          50.000  
E 5  24902045.460   130861096.828          50.000    24902050.220    97720935.207          50.000  
E 9  23454494.120   123254178.551          50.000    23454498.060    92040447.742          50.000  
E27  27573990.900   144902258.313          50.000    27573996.060   108206215.137          50.000  
E30  24892510.060   130810980.563          50.000    24892514.860    97683507.277          50.000  
E36  24384600.640   128141902.914          50.000    24384605.540    95690368.191          50.000  
> 2020  7  8 22 30  3.0000000  0 14       0.000000000000
G10  23674033.860   124407824.883          50.000    23674034.980    92901942.652          50.000  
G13  23358421.500   122749380.977          50.000                                                  
G15  21904157.320   115106939.160          50.000                                                  
G16  23727455.640   124688623.074          50.000                                                  
G20  21001772.720   110365059.816          50.000                                                  
G21  23117707.320   121484386.859          50.000                                                  
G26  22459638.500   118026112.051          50.000    22459639.680    88136374.895          50.000  
G29  21079456.660   110773286.910          50.000                                                  
E 2  27044506.680   142119805.973          50.000    27044511.820   106128409.352          50.000  
E 5  24901653.780   130859038.543          50.000    24901658.540    97719398.172          50.000  
E 9  23454587.160   123254667.531          50.000    23454591.120    92040812.891          50.000  
E27  27573832.800   144901427.516          50.000    27573837.960   108205594.734          50.000  
E30  24892796.060   130812483.441          50.000    24892800.860    97684629.559          50.000  
E36  24384788.200   128142888.539          50.000    24384793.100    95691104.211          50.000  
> 2020  7  8 22 30  4.0000000  0 14       0.000000000000
G10  23673426.340   124404632.363          50.000    23673427.460    92899558.629          50.000  
G13  23358385.780   122749193.191          50.000                                                  
G15  21903918.200   115105682.594          50.000                                                  
G16  23727103.580   124686772.949          50.000                                                  
G20  21001397.320   110363086.992          50.000                                                  
G21  23117381.680   121482675.625          50.000                                                  
G26  22459708.640   118026480.590          50.000    22459709.800    88136650.102          50.000  
G29  21079802.700   110775105.406          50.000                                                  
E 2  27045047.220   142122646.496          50.000    27045052.340   106130530.520          50.000  
E 5  24901262.160   130856980.566          50.000    24901266.920    97717861.375          50.000  
E 9  23454680.300   123255156.980          50.000    23454684.260    92041178.387          50.000  
E27  27573674.800   144900597.176          50.000    27573679.940   108204974.676          50.000  
E30  24893082.120   130813986.695          50.000    24893086.920    97685752.113          50.000  
E36  24384975.780   128143874.262          50.000    24384980.680    95691840.301          50.000  
> 2020  7  8 22 30  5.0000000  0 14       0.000000000000
G10  23672818.880   124401440.070          50.000    23672819.980    92897174.777          50.000  
G13  23358350.160   122749006.031          50.000                                                  
G15  21903679.200   115104426.633          50.000                                                  
G16  23726751.620   124684923.387          50.000                                                  
G20  21001021.980   110361114.594          50.000                                                  
G21  23117056.060   121480964.473          50.000                                                  
G26  22459778.880   118026849.742          50.000    22459780.060    88136925.766          50.000  
G29  21080148.840   110776924.379          50.000                                                  
E 2  27045587.760   142125487.035          50.000    27045592.880   106132651.699          50.000  
E 5  24900870.600   130854922.930          50.000    24900875.360    97716324.828          50.000  
E 9  23454773.520   123255646.902          50.000    23454777.480    92041544.238          50.000  
E27  27573516.880   144899767.293          50.000    27573522.020   108204354.961          50.000  
E30  24893368.240   130815490.305          50.000    24893373.040    97686874.938          50.000  
E36  24385163.380   128144860.102          50.000    24385168.280    95692576.480          50.000  
> 2020  7  8 22 30  6.0000000  0 14       0.000000000000
G10  23672211.440   124398248.020          50.000    23672212.560    92894791.105          50.000  
G13  23358314.660   122748819.469          50.000                                                  
G15  21903440.300   115103171.281          50.000                                                  
G16  23726399.760   124683074.379          50.000                                                  
G20  21000646.720   110359142.625          50.000                                                  
G21  23116730.460   121479253.402          50.000                                                  
G26  22459849.240   118027219.492          50.000    22459850.420    88137201.879          50.000  
G29  21080495.060   110778743.816          50.000                                                  
E 2  27046128.300   142128327.582          50.000    27046133.420   106134772.887          50.000  
E 5  24900479.100   130852865.605          50.000    24900483.860    97714788.516          50.000  
E 9  23454866.840   123256137.285          50.000    23454870.800    92041910.434          50.000  
E27  27573359.040   144898937.848          50.000    27573364.200   108203735.570          50.000  
E30  24893654.440   130816994.289          50.000    24893659.240    97687998.043          50.000  
E36  24385351.000   128145846.047          50.000    24385355.900    95693312.738          50.000  
> 2020  7  8 22 30  7.0000000  0 14       0.000000000000
G10  23671604.060   124395056.191          50.000    23671605.160    92892407.598          50.000  
G13  23358279.280   122748633.543          50.000                                                  
G15  21903201.540   115101916.523          50.000                                                  
G16  23726048.020   124681225.945          50.000                                                  
G20  21000271.560   110357171.094          50.000                                                  
G21  23116404.860   121477542.426          50.000                                                  
G26  22459919.720   118027589.844          50.000    22459920.900    88137478.438          50.000  
G29  21080841.380   110780563.719          50.000                                                  
E 2  27046668.840   142131168.145          50.000    27046673.960   106136894.082          50.000  
E 5  24900087.680   130850808.605          50.000    24900092.440    97713252.445          50.000  
E 9  23454960.260   123256628.141          50.000    23454964.200    92042276.980          50.000  
E27  27573201.280   144898108.855          50.000    27573206.440   108203116.516          50.000  
E30  24893940.700   130818498.641          50.000    24893945.520    97689121.422          50.000  
E36  24385538.640   128146832.102          50.000    24385543.540    95694049.074          50.000  
> 2020  7  8 22 30  8.0000000  0 14       0.000000000000
G10  23670996.720   124391864.605          50.000    23670997.820    92890024.273          50.000  
G13  23358244.020   122748448.223          50.000                                                  
G15  21902962.880   115100662.391          50.000                                                  
G16  23725696.380   124679378.063          50.000                                                  
G20  20999896.460   110355199.992          50.000                                                  
G21  23116079.300   121475831.535          50.000                                                  
G26  22459990.320   118027960.785          50.000    22459991.480    88137755.438          50.000  
G29  21081187.780   110782384.090          50.000                                                  
E 2  27047209.380   142134008.707          50.000    27047214.500   106139015.281          50.000  
E 5  24899696.300   130848751.926          50.000    24899701.060    97711716.613          50.000  
E 9  23455053.740   123257119.449          50.000    23455057.700    92042643.867          50.000  
E27  27573043.620   144897280.309          50.000    27573048.780   108202497.797          50.000  
E30  24894227.040   130820003.355          50.000    24894231.860    97690245.074          50.000  
E36  24385726.300   128147818.273          50.000    24385731.200    95694785.504          50.000  
> 2020  7  8 22 30  9.0000000  0 14       0.000000000000
G10  23670389.420   124388673.254          50.000    23670390.540    92887641.121          50.000  
G13  23358208.860   122748263.535          50.000                                                  
G15  21902724.340   115099408.867          50.000                                                  
G16  23725344.840   124677530.742          50.000                                                  
G20  20999521.460   110353229.316          50.000                                                  
G21  23115753.740   121474120.738          50.000                                                  
G26  22460061.020   118028332.316          50.000    22460062.180    88138032.879          50.000  
G29  21081534.280   110784204.934          50.000                                                  
E 2  27047749.920   142136849.273          50.000    27047755.060   106141136.484          50.000  
E 5  24899304.980   130846695.574          50.000    24899309.760    97710181.023          50.000  
E 9  23455147.340   123257611.238          50.000    23455151.280    92043011.113          50.000  
E27  27572886.040   144896452.219          50.000    27572891.200   108201879.418          50.000  
E30  24894513.460   130821508.445          50.000    24894518.260    97691369.004          50.000  
E36  24385913.980   128148804.555          50.000    24385918.880    95695522.012          50.000  
> 2020  7  8 22 30 10.0000000  0 14       0.000000000000
G10  23669782.180   124385482.141          50.000    23669783.280    92885258.148          50.000  
G13  23358173.840   122748079.465          50.000                                                  
G15  21902485.920   115098155.949          50.000                                                  
G16  23724993.420   124675683.980          50.000                                                  
G20  20999146.540   110351259.074          50.000                                                  
G21  23115428.200   121472410.020          50.000                                                  
G26  22460131.820   118028704.457          50.000    22460133.000    88138310.777          50.000  
G29  21081880.860   110786026.242          50.000                                                  
E 2  27048290.460   142139689.852          50.000    27048295.600   106143257.691          50.000  
E 5  24898913.740   130844639.555          50.000    24898918.500    97708645.684          50.000  
E 9  23455241.000   123258103.492          50.000    23455244.960    92043378.703          50.000  
E27  27572728.540   144895624.582          50.000    27572733.700   108201261.379          50.000  
E30  24894799.940   130823013.906          50.000    24894804.740    97692493.207          50.000  
E36  24386101.680   128149790.945          50.000    24386106.580    95696258.602          50.000  
> 2020  7  8 22 30 11.0000000  0 14       0.000000000000
G10  23669174.960   124382291.254          50.000    23669176.080    92882875.348          50.000  
G13  23358138.940   122747896.016          50.000                                                  
G15  21902247.620   115096903.637          50.000                                                  
G16  23724642.100   124673837.781          50.000                                                  
G20  20998771.680   110349289.254          50.000                                                  
G21  23115102.680   121470699.391          50.000                                                  
G26  22460202.760   118029077.203          50.000    22460203.920    88138589.125          50.000  
G29  21082227.540   110787848.016          50.000                                                  
E 2  27048831.020   142142530.438          50.000    27048836.140   106145378.906          50.000  
E 5  24898522.560   130842583.852          50.000    24898527.320    97707110.586          50.000  
E 9  23455334.760   123258596.215          50.000    23455338.720    92043746.645          50.000  
E27  27572571.140   144894797.391          50.000    27572576.280   108200643.672          50.000  
E30  24895086.480   130824519.734          50.000    24895091.300    97693617.688          50.000  
E36  24386289.420   128150777.453          50.000    24386294.320    95696995.281          50.000  
> 2020  7  8 22 30 12.0000000  0 14       0.000000000000
G10  23668567.800   124379100.602          50.000    23668568.920    92880492.719          50.000  
G13  23358104.140   122747713.184          50.000                                                  
G15  21902009.420   115095651.945          50.000                                                  
G16  23724290.880   124671992.145          50.000                                                  
G20  20998396.920   110347319.852          50.000                                                  
G21  23114777.180   121468988.863          50.000                                                  
G26  22460273.800   118029450.543          50.000    22460274.980    88138867.918          50.000  
G29  21082574.300   110789670.258          50.000                                                  
E 2  27049371.560   142145371.051          50.000    27049376.700   106147500.145          50.000  
E 5  24898131.420   130840528.484          50.000    24898136.200    97705575.734          50.000  
E 9  23455428.620   123259089.410          50.000    23455432.580    92044114.941          50.000  
E27  27572413.800   144893970.648          50.000    27572418.960   108200026.297          50.000  
E30  24895373.100   130826025.926          50.000    24895377.920    97694742.438          50.000  
E36  24386477.160   128151764.090          50.000    24386482.060    95697732.055          50.000  
> 2020  7  8 22 30 13.0000000  0 14       0.000000000000
G10  23667960.700   124375910.191          50.000    23667961.800    92878110.270          50.000  
G13  23358069.460   122747530.957          50.000                                                  
G15  21901771.360   115094400.859          50.000                                                  
G16  23723939.780   124670147.063          50.000                                                  
G20  20998022.240   110345350.883          50.000                                                  
G21  23114451.680   121467278.402          50.000                                                  
G26  22460344.960   118029824.488          50.000    22460346.140    88139147.164          50.000  
G29  21082921.160   110791492.953          50.000                                                  
E 2  27049912.120   142148211.656          50.000    27049917.240   106149621.375          50.000  
E 5  24897740.360   130838473.441          50.000    24897745.120    97704041.125          50.000  
E 9  23455522.560   123259583.078          50.000    23455526.520    92044483.590          50.000  
E27  27572256.560   144893144.367          50.000    27572261.720   108199409.266          50.000  
E30  24895659.800   130827532.492          50.000    24895664.600    97695867.473          50.000  
E36  24386664.940   128152750.824          50.000    24386669.840    95698468.898          50.000  
> 2020  7  8 22 30 14.0000000  0 14       0.000000000000
G10  23667353.620   124372720.000          50.000    23667354.720    92875727.984          50.000  
G13  23358034.900   122747349.359          50.000                                                  
G15  21901533.400   115093150.379          50.000                                                  
G16  23723588.780   124668302.543          50.000                                                  
G20  20997647.640   110343382.344          50.000                                                  
G21  23114126.220   121465568.039          50.000                                                  
G26  22460416.240   118030199.027          50.000    22460417.400    88139426.852          50.000  
G29  21083268.080   110793316.133          50.000                                                  
E 2  27050452.660   142151052.273          50.000    27050457.800   106151742.613          50.000  
E 5  24897349.360   130836418.703          50.000    24897354.120    97702506.742          50.000  
E 9  23455616.580   123260077.207          50.000    23455620.540    92044852.582          50.000  
E27  27572099.420   144892318.523          50.000    27572104.580   108198792.566          50.000  
E30  24895946.560   130829039.434          50.000    24895951.360    97696992.789          50.000  
E36  24386852.720   128153737.660          50.000    24386857.620    95699205.824          50.000  
> 2020  7  8 22 30 15.0000000  0 14       0.000000000000
G10  23666746.580   124369530.055          50.000    23666747.700    92873345.883          50.000  
G13  23358000.480   122747168.395          50.000                                                  
G15  21901295.540   115091900.512          50.000                                                  
G16  23723237.880   124666458.586          50.000                                                  
G20  20997273.120   110341414.250          50.000                                                  
G21  23113800.760   121463857.758          50.000                                                  
G26  22460487.620   118030574.168          50.000    22460488.800    88139706.984          50.000  
G29  21083615.120   110795139.773          50.000                                                  
E 2  27050993.220   142153892.891          50.000    27050998.360   106153863.852          50.000  
E 5  24896958.420   130834364.309          50.000    24896963.180    97700972.617          50.000  
E 9  23455710.700   123260571.797          50.000    23455714.660    92045221.918          50.000  
E27  27571942.360   144891493.137          50.000    27571947.500   108198176.207          50.000  
E30  24896233.380   130830546.738          50.000    24896238.200    97698118.371          50.000  
E36  24387040.540   128154724.625          50.000    24387045.440    95699942.844          50.000  
> 2020  7  8 22 30 16.0000000  0 14       0.000000000000
G10  23666139.600   124366340.336          50.000    23666140.700    92870963.953          50.000  
G13  23357966.140   122746988.027          50.000                                                  
G15  21901057.820   115090651.242          50.000                                                  
G16  23722887.100   124664615.188          50.000                                                  
G20  20996898.680   110339446.551          50.000                                                  
G21  23113475.320   121462147.566          50.000                                                  
G26  22460559.120   118030949.902          50.000    22460560.300    88139987.566          50.000  
G29  21083962.240   110796963.879          50.000                                                  
E 2  27051533.780   142156733.520          50.000    27051538.900   106155985.098          50.000  
E 5  24896567.540   130832310.227          50.000    24896572.300    97699438.727          50.000  
E 9  23455804.920   123261066.855          50.000    23455808.860    92045591.605          50.000  
E27  27571785.360   144890668.195          50.000    27571790.520   108197560.180          50.000  
E30  24896520.280   130832054.402          50.000    24896525.100    97699244.223          50.000  
E36  24387228.360   128155711.691          50.000    24387233.280    95700679.938          50.000  
> 2020  7  8 22 30 17.0000000  0 14       0.000000000000
G10  23665532.620   124363151.070          50.000    23665533.660    92868582.559          50.000  
G13  23357931.940   122746808.227          50.000                                                  
G15  21900820.180   115089402.676          50.000                                                  
G16  23722536.400   124662772.320          50.000                                                  
G20  20996524.320   110337479.316          50.000                                                  
G21  23113149.860   121460437.582          50.000                                                  
G26  22460630.740   118031326.184          50.000    22460631.900    88140268.590          50.000  
G29  21084309.440   110798788.398          50.000                                                  
E 2  27052074.320   142159574.184          50.000    27052079.440   106158106.398          50.000  
E 5  24896176.720   130830256.461          50.000    24896181.480    97697905.074          50.000  
E 9  23455899.200   123261562.375          50.000    23455903.160    92045961.637          50.000  
E27  27571628.460   144889843.664          50.000    27571633.620   108196944.457          50.000  
E30  24896807.260   130833562.426          50.000    24896812.060    97700370.344          50.000  
E36  24387416.220   128156698.816          50.000    24387421.140    95701417.055          50.000  
> 2020  7  8 22 30 18.0000000  0 14       0.000000000000
G10  23664925.720   124359961.820          50.000    23664926.780    92866200.980          50.000  
G13  23357897.860   122746629.109          50.000                                                  
G15  21900582.700   115088154.648          50.000                                                  
G16  23722185.840   124660930.059          50.000                                                  
G20  20996150.040   110335512.488          50.000                                                  
G21  23112824.460   121458727.570          50.000                                                  
G26  22460702.480   118031703.121          50.000    22460703.640    88140550.070          50.000  
G29  21084656.740   110800613.449          50.000                                                  
E 2  27052614.880   142162414.824          50.000    27052620.000   106160227.656          50.000  
E 5  24895785.960   130828203.055          50.000    24895790.720    97696371.684          50.000  
E 9  23455993.580   123262058.379          50.000    23455997.540    92046332.031          50.000  
E27  27571471.660   144889019.629          50.000    27571476.800   108196329.105          50.000  
E30  24897094.300   130835070.832          50.000    24897099.100    97701496.750          50.000  
E36  24387604.100   128157686.117          50.000    24387609.000    95702154.324          50.000  
> 2020  7  8 22 30 19.0000000  0 14       0.000000000000
G10  23664318.880   124356772.816          50.000    23664319.920    92863819.582          50.000  
G13  23357863.900   122746450.613          50.000                                                  
G15  21900345.320   115086907.211          50.000                                                  
G16  23721835.360   124659088.355          50.000                                                  
G20  20995775.860   110333546.102          50.000                                                  
G21  23112499.080   121457017.652          50.000                                                  
G26  22460774.320   118032080.660          50.000    22460775.480    88140831.996          50.000  
G29  21085004.120   110802438.965          50.000                                                  
E 2  27053155.420   142165255.480          50.000    27053160.560   106162348.922          50.000  
E 5  24895395.280   130826149.945          50.000    24895400.040    97694838.520          50.000  
E 9  23456088.060   123262554.840          50.000    23456092.020    92046702.766          50.000  
E27  27571314.920   144888196.047          50.000    27571320.080   108195714.094          50.000  
E30  24897381.400   130836579.613          50.000    24897386.220    97702623.438          50.000  
E36  24387792.000   128158673.508          50.000    24387796.900    95702891.660          50.000  
> 2020  7  8 22 30 20.0000000  0 14       0.000000000000
G10  23663712.060   124353584.035          50.000    23663713.120    92861438.352          50.000  
G13  23357830.040   122746272.742          50.000                                                  
G15  21900108.040   115085660.387          50.000                                                  
G16  23721485.000   124657247.199          50.000                                                  
G20  20995401.740   110331580.133          50.000                                                  
G21  23112173.700   121455307.820          50.000                                                  
G26  22460846.260   118032458.793          50.000    22460847.420    88141114.371          50.000  
G29  21085351.600   110804264.949          50.000                                                  
E 2  27053695.980   142168096.129          50.000    27053701.120   106164470.188          50.000  
E 5  24895004.640   130824097.180          50.000    24895009.400    97693305.609          50.000  
E 9  23456182.620   123263051.777          50.000    23456186.580    92047073.855          50.000  
E27  27571158.280   144887372.910          50.000    27571163.440   108195099.418          50.000  
E30  24897668.580   130838088.754          50.000    24897673.400    97703750.395          50.000  
E36  24387979.900   128159661.035          50.000    24387984.820    95703629.098          50.000  
> 2020  7  8 22 30 21.0000000  0 14       0.000000000000
G10  23663105.300   124350395.496          50.000    23663106.340    92859057.301          50.000  
G13  23357796.320   122746095.488          50.000                                                  
G15  21899870.900   115084414.180          50.000                                                  
G16  23721134.760   124655406.633          50.000                                                  
G20  20995027.700   110329614.605          50.000                                                  
G21  23111848.340   121453598.070          50.000                                                  
G26  22460918.340   118032837.527          50.000    22460919.500    88141397.191          50.000  
G29  21085699.160   110806091.398          50.000                                                  
E 2  27054236.540   142170936.801          50.000    27054241.680   106166591.469          50.000  
E 5  24894614.060   130822044.723          50.000    24894618.820    97691772.934          50.000  
E 9  23456277.260   123263549.168          50.000    23456281.220    92047445.285          50.000  
E27  27571001.740   144886550.227          50.000    27571006.900   108194485.078          50.000  
E30  24897955.840   130839598.270          50.000    24897960.640    97704877.629          50.000  
E36  24388167.840   128160648.660          50.000    24388172.760    95704366.613          50.000  
> 2020  7  8 22 30 22.0000000  0 14       0.000000000000
G10  23662498.580   124347207.188          50.000    23662499.640    92856676.422          50.000  
G13  23357762.700   122745918.855          50.000                                                  
G15  21899633.860   115083168.574          50.000                                                  
G16  23720784.620   124653566.625          50.000                                                  
G20  20994653.760   110327649.496          50.000                                                  
G21  23111523.000   121451888.414          50.000                                                  
G26  22460990.520   118033216.867          50.000    22460991.680    88141680.465          50.000  
G29  21086046.800   110807918.309          50.000                                                  
E 2  27054777.120   142173777.473          50.000    27054782.240   106168712.750          50.000  
E 5  24894223.560   130819992.586          50.000    24894228.320    97690240.500          50.000  
E 9  23456372.000   123264047.027          50.000    23456375.960    92047817.066          50.000  
E27  27570845.280   144885727.992          50.000    27570850.420   108193871.074          50.000  
E30  24898243.160   130841108.148          50.000    24898247.960    97706005.141          50.000  
E36  24388355.800   128161636.391          50.000    24388360.720    95705104.207          50.000  
> 2020  7  8 22 30 23.0000000  0 14       0.000000000000
G10  23661891.900   124344019.109          50.000    23661892.960    92854295.719          50.000  
G13  23357729.200   122745742.840          50.000                                                  
G15  21899396.960   115081923.574          50.000                                                  
G16  23720434.580   124651727.184          50.000                                                  
G20  20994279.880   110325684.820          50.000                                                  
G21  23111197.680   121450178.848          50.000                                                  
G26  22461062.820   118033596.805          50.000    22461063.980    88141964.180          50.000  
G29  21086394.540   110809745.699          50.000                                                  
E 2  27055317.680   142176618.145          50.000    27055322.800   106170834.035          50.000  
E 5  24893833.120   130817940.785          50.000    24893837.880    97688708.316          50.000  
E 9  23456466.840   123264545.355          50.000    23456470.780    92048189.199          50.000  
E27  27570688.880   144884906.199          50.000    27570694.040   108193257.402          50.000  
E30  24898530.540   130842618.391          50.000    24898535.360    97707132.922          50.000  
E36  24388543.780   128162624.246          50.000    24388548.700    95705841.898          50.000  
> 2020  7  8 22 30 24.0000000  0 14       0.000000000000
G10  23661285.280   124340831.273          50.000    23661286.320    92851915.191          50.000  
G13  23357695.820   122745567.438          50.000                                                  
G15  21899160.140   115080679.188          50.000                                                  
G16  23720084.640   124649888.301          50.000                                                  
G20  20993906.100   110323720.570          50.000                                                  
G21  23110872.380   121448469.371          50.000                                                  
G26  22461135.220   118033977.336          50.000    22461136.400    88142248.344          50.000  
G29  21086742.360   110811573.543          50.000                                                  
E 2  27055858.240   142179458.840          50.000    27055863.360   106172955.336          50.000  
E 5  24893442.720   130815889.301          50.000    24893447.480    97687176.367          50.000  
E 9  23456561.760   123265044.156          50.000    23456565.700    92048561.684          50.000  
E27  27570532.600   144884084.867          50.000    27570537.740   108192644.074          50.000  
E30  24898818.000   130844129.000          50.000    24898822.820    97708260.977          50.000  
E36  24388731.780   128163612.191          50.000    24388736.700    95706579.652          50.000  
> 2020  7  8 22 30 25.0000000  0 14       0.000000000000
G10  23660678.700   124337643.664          50.000    23660679.740    92849534.836          50.000  
G13  23357662.560   122745392.660          50.000                                                  
G15  21898923.460   115079435.418          50.000                                                  
G16  23719734.820   124648049.973          50.000                                                  
G20  20993532.400   110321756.766          50.000                                                  
G21  23110547.080   121446759.980          50.000                                                  
G26  22461207.760   118034358.465          50.000    22461208.920    88142532.957          50.000  
G29  21087090.280   110813401.871          50.000                                                  
E 2  27056398.800   142182299.527          50.000    27056403.940   106175076.625          50.000  
E 5  24893052.400   130813838.152          50.000    24893057.160    97685644.668          50.000  
E 9  23456656.760   123265543.422          50.000    23456660.720    92048934.512          50.000  
E27  27570376.380   144883263.973          50.000    27570381.540   108192031.070          50.000  
E30  24899105.540   130845639.980          50.000    24899110.340    97709389.305          50.000  
E36  24388919.820   128164600.266          50.000    24388924.720    95707317.500          50.000  
> 2020  7  8 22 30 26.0000000  0 14       0.000000000000
G10  23660072.160   124334456.297          50.000    23660073.200    92847154.660          50.000  
G13  23357629.420   122745218.512          50.000                                                  
G15  21898686.900   115078192.258          50.000                                                  
G16  23719385.100   124646212.211          50.000                                                  
G20  20993158.780   110319793.375          50.000                                                  
G21  23110221.820   121445050.680          50.000                                                  
G26  22461280.400   118034740.195          50.000    22461281.560    88142818.012          50.000  
G29  21087438.280   110815230.652          50.000                                                  
E 2  27056939.380   142185140.223          50.000    27056944.500   106177197.922          50.000  
E 5  24892662.140   130811787.320          50.000    24892666.900    97684113.199          50.000  
E 9  23456751.860   123266043.160          50.000    23456755.820    92049307.691          50.000  
E27  27570220.260   144882443.543          50.000    27570225.420   108191418.410          50.000  
E30  24899393.140   130847151.336          50.000    24899397.940    97710517.914          50.000  
E36  24389107.860   128165588.461          50.000    24389112.760    95708055.438          50.000  
> 2020  7  8 22 30 27.0000000  0 14       0.000000000000
G10  23659465.660   124331269.156          50.000    23659466.700    92844774.652          50.000  
G13  23357596.400   122745044.984          50.000                                                  
G15  21898450.440   115076949.699          50.000                                                  
G16  23719035.500   124644375.008          50.000                                                  
G20  20992785.240   110317830.398          50.000                                                  
G21  23109896.560   121443341.457          50.000                                                  
G26  22461353.140   118035122.523          50.000    22461354.300    88143103.516          50.000  
G29  21087786.380   110817059.902          50.000                                                  
E 2  27057479.940   142187980.926          50.000    27057485.060   106179319.227          50.000  
E 5  24892271.960   130809736.816          50.000    24892276.700    97682581.980          50.000  
E 9  23456847.040   123266543.355          50.000    23456851.000    92049681.215          50.000  
E27  27570064.220   144881623.555          50.000    27570069.380   108190806.082          50.000  
E30  24899680.800   130848663.047          50.000    24899685.620    97711646.785          50.000  
E36  24389295.920   128166576.746          50.000    24389300.840    95708793.441          50.000  
> 2020  7  8 22 30 28.0000000  0 14       0.000000000000
G10  23658859.200   124328082.250          50.000    23658860.260    92842394.824          50.000  
G13  23357563.480   122744872.070          50.000                                                  
G15  21898214.120   115075707.766          50.000                                                  
G16  23718685.980   124642538.352          50.000                                                  
G20  20992411.780   110315867.879          50.000                                                  
G21  23109571.320   121441632.328          50.000                                                  
G26  22461426.020   118035505.465          50.000    22461427.180    88143389.480          50.000  
G29  21088134.560   110818889.625          50.000                                                  
E 2  27058020.520   142190821.637          50.000    27058025.640   106181440.535          50.000  
E 5  24891881.820   130807686.637          50.000    24891886.580    97681051.004          50.000  
E 9  23456942.320   123267044.027          50.000    23456946.280    92050055.090          50.000  
E27  27569908.260   144880804.012          50.000    27569913.420   108190194.086          50.000  
E30  24899968.540   130850175.129          50.000    24899973.360    97712775.938          50.000  
E36  24389484.020   128167565.156          50.000    24389488.920    95709531.539          50.000  
> 2020  7  8 22 30 29.0000000  0 14       0.000000000000
G10  23658252.800   124324895.586          50.000    23658253.860    92840015.172          50.000  
G13  23357530.700   122744699.781          50.000                                                  
G15  21897977.900   115074466.434          50.000                                                  
G16  23718336.580   124640702.273          50.000                                                  
G20  20992038.400   110313905.770          50.000                                                  
G21  23109246.100   121439923.277          50.000                                                  
G26  22461499.000   118035888.988          50.000    22461500.160    88143675.875          50.000  
G29  21088482.840   110820719.809          50.000                                                  
E 2  27058561.080   142193662.359          50.000    27058566.220   106183561.852          50.000  
E 5  24891491.740   130805636.781          50.000    24891496.500    97679520.266          50.000  
E 9  23457037.680   123267545.152          50.000    23457041.640    92050429.309          50.000  
E27  27569752.400   144879984.922          50.000    27569757.560   108189582.426          50.000  
E30  24900256.360   130851687.586          50.000    24900261.160    97713905.367          50.000  
E36  24389672.120   128168553.668          50.000    24389677.020    95710269.715          50.000  
> 2020  7  8 22 30 30.0000000  0 14       0.000000000000
G10  23657646.440   124321709.152          50.000    23657647.480    92837635.695          50.000  
G13  23357498.020   122744528.090          50.000                                                  
G15  21897741.780   115073225.719          50.000                                                  
G16  23717987.300   124638866.750          50.000                                                  
G20  20991665.100   110311944.090          50.000                                                  
G21  23108920.900   121438214.309          50.000                                                  
G26  22461572.080   118036273.105          50.000    22461573.260    88143962.715          50.000  
G29  21088831.200   110822550.457          50.000                                                  
E 2  27059101.660   142196503.078          50.000    27059106.780   106185683.168          50.000  
E 5  24891101.720   130803587.262          50.000    24891106.480    97677989.781          50.000  
E 9  23457133.140   123268046.762          50.000    23457137.080    92050803.887          50.000  
E27  27569596.620   144879166.297          50.000    27569601.780   108188971.117          50.000  
E30  24900544.240   130853200.406          50.000    24900549.040    97715035.070          50.000  
E36  24389860.260   128169542.301          50.000    24389865.160    95711007.977          50.000  
> 2020  7  8 22 30 31.0000000  0 14       0.000000000000
G10  23657040.120   124318522.953          50.000    23657041.180    92835256.391          50.000  
G13  23357465.480   122744357.047          50.000                                                  
G15  21897505.800   115071985.609          50.000                                                  
G16  23717638.120   124637031.777          50.000                                                  
G20  20991291.880   110309982.844          50.000                                                  
G21  23108595.700   121436505.441          50.000                                                  
G26  22461645.300   118036657.824          50.000    22461646.460    88144250.008          50.000  
G29  21089179.640   110824381.578          50.000                                                  
E 2  27059642.240   142199343.816          50.000    27059647.360   106187804.496          50.000  
E 5  24890711.780   130801538.059          50.000    24890716.540    97676459.535          50.000  
E 9  23457228.680   123268548.824          50.000    23457232.620    92051178.805          50.000  
E27  27569440.920   144878348.109          50.000    27569446.080   108188360.133          50.000  
E30  24900832.180   130854713.594          50.000    24900837.000    97716165.051          50.000  
E36  24390048.400   128170531.043          50.000    24390053.300    95711746.324          50.000  
> 2020  7  8 22 30 32.0000000  0 14       0.000000000000
G10  23656433.860   124315336.992          50.000    23656434.900    92832877.266          50.000  
G13  23357433.040   122744186.613          50.000                                                  
G15  21897269.940   115070746.113          50.000                                                  
G16  23717289.040   124635197.375          50.000                                                  
G20  20990918.740   110308022.020          50.000                                                  
G21  23108270.520   121434796.660          50.000                                                  
G26  22461718.620   118037043.145          50.000    22461719.780    88144537.746          50.000  
G29  21089528.180   110826213.160          50.000                                                  
E 2  27060182.800   142202184.551          50.000    27060187.940   106189925.820          50.000  
E 5  24890321.880   130799489.180          50.000    24890326.640    97674929.527          50.000  
E 9  23457324.300   123269051.359          50.000    23457328.260    92051554.074          50.000  
E27  27569285.320   144877530.375          50.000    27569290.460   108187749.488          50.000  
E30  24901120.200   130856227.148          50.000    24901125.020    97717295.301          50.000  
E36  24390236.580   128171519.898          50.000    24390241.480    95712484.754          50.000  
> 2020  7  8 22 30 33.0000000  0 14       0.000000000000
G10  23655827.620   124312151.258          50.000    23655828.680    92830498.313          50.000  
G13  23357400.720   122744016.801          50.000                                                  
G15  21897034.180   115069507.227          50.000                                                  
G16  23716940.060   124633363.527          50.000                                                  
G20  20990545.700   110306061.641          50.000                                                  
G21  23107945.380   121433087.961          50.000                                                  
G26  22461792.060   118037429.063          50.000    22461793.220    88144825.930          50.000  
G29  21089876.800   110828045.227          50.000                                                  
E 2  27060723.380   142205025.297          50.000    27060728.520   106192047.156          50.000  
E 5  24889932.060   130797440.633          50.000    24889936.820    97673399.770          50.000  
E 9  23457420.020   123269554.367          50.000    23457423.980    92051929.695          50.000  
E27  27569129.800   144876713.098          50.000    27569134.940   108187139.184          50.000  
E30  24901408.300   130857741.074          50.000    24901413.100    97718425.828          50.000  
E36  24390424.780   128172508.879          50.000    24390429.680    95713223.281          50.000  
> 2020  7  8 22 30 34.0000000  0 14       0.000000000000
G10  23655221.440   124308965.758          50.000    23655222.480    92828119.531          50.000  
G13  23357368.540   122743847.625          50.000                                                  
G15  21896798.540   115068268.949          50.000                                                  
G16  23716591.200   124631530.250          50.000                                                  
G20  20990172.720   110304101.684          50.000                                                  
G21  23107620.240   121431379.352          50.000                                                  
G26  22461865.600   118037815.582          50.000    22461866.760    88145114.563          50.000  
G29  21090225.520   110829877.750          50.000                                                  
E 2  27061263.960   142207866.039          50.000    27061269.080   106194168.488          50.000  
E 5  24889542.300   130795392.406          50.000    24889547.060    97671870.250          50.000  
E 9  23457515.820   123270057.836          50.000    23457519.780    92052305.664          50.000  
E27  27568974.360   144875896.254          50.000    27568979.500   108186529.207          50.000  
E30  24901696.460   130859255.363          50.000    24901701.260    97719556.629          50.000  
E36  24390612.980   128173497.957          50.000    24390617.900    95713961.879          50.000  
> 2020  7  8 22 30 35.0000000  0 14       0.000000000000
G10  23654615.300   124305780.504          50.000    23654616.340    92825740.934          50.000  
G13  23357336.460   122743679.051          50.000                                                  
G15  21896563.020   115067031.273          50.000                                                  
G16  23716242.440   124629697.527          50.000                                                  
G20  20989799.840   110302142.156          50.000                                                  
G21  23107295.100   121429670.840          50.000                                                  
G26  22461939.260   118038202.691          50.000    22461940.440    88145403.641          50.000  
G29  21090574.320   110831710.738          50.000                                                  
E 2  27061804.540   142210706.793          50.000    27061809.660   106196289.828          50.000  
E 5  24889152.600   130793344.508          50.000    24889157.360    97670340.977          50.000  
E 9  23457611.720   123270561.773          50.000    23457615.680    92052681.980          50.000  
E27  27568819.000   144875079.871          50.000    27568824.140   108185919.566          50.000  
E30  24901984.700   130860770.020          50.000    24901989.500    97720687.703          50.000  
E36  24390801.220   128174487.133          50.000    24390806.140    95714700.547          50.000  
> 2020  7  8 22 30 36.0000000  0 14       0.000000000000
G10  23654009.220   124302595.477          50.000    23654010.260    92823362.504          50.000  
G13  23357304.480   122743511.086          50.000                                                  
G15  21896327.600   115065794.223          50.000                                                  
G16  23715893.800   124627865.363          50.000                                                  
G20  20989427.040   110300183.055          50.000                                                  
G21  23106970.000   121427962.398          50.000                                                  
G26  22462013.040   118038590.402          50.000    22462014.200    88145693.164          50.000  
G29  21090923.220   110833544.199          50.000                                                  
E 2  27062345.120   142213547.555          50.000    27062350.240   106198411.176          50.000  
E 5  24888762.960   130791296.945          50.000    24888767.720    97668811.953          50.000  
E 9  23457707.720   123271066.184          50.000    23457711.660    92053058.648          50.000  
E27  27568663.740   144874263.938          50.000    27568668.880   108185310.270          50.000  
E30  24902272.980   130862285.039          50.000    24902277.800    97721819.047          50.000  
E36  24390989.480   128175476.441          50.000    24390994.380    95715439.316          50.000  
> 2020  7  8 22 30 37.0000000  0 14       0.000000000000
G10  23653403.160   124299410.688          50.000    23653404.200    92820984.254          50.000  
G13  23357272.640   122743343.750          50.000                                                  
G15  21896092.320   115064557.770          50.000                                                  
G16  23715545.240   124626033.766          50.000                                                  
G20  20989054.320   110298224.391          50.000                                                  
G21  23106644.920   121426254.059          50.000                                                  
G26  22462086.940   118038978.723          50.000    22462088.100    88145983.141          50.000  
G29  21091272.200   110835378.125          50.000                                                  
E 2  27062885.700   142216388.324          50.000    27062890.820   106200532.527          50.000  
E 5  24888373.380   130789249.695          50.000    24888378.140    97667283.160          50.000  
E 9  23457803.780   123271571.055          50.000    23457807.740    92053435.664          50.000  
E27  27568508.560   144873448.461          50.000    27568513.700   108184701.309          50.000  
E30  24902561.360   130863800.430          50.000    24902566.160    97722950.668          50.000  
E36  24391177.760   128176465.855          50.000    24391182.660    95716178.164          50.000  
> 2020  7  8 22 30 38.0000000  0 14       0.000000000000
G10  23652797.160   124296226.121          50.000    23652798.200    92818606.172          50.000  
G13  23357240.920   122743177.043          50.000                                                  
G15  21895857.140   115063321.922          50.000                                                  
G16  23715196.800   124624202.727          50.000                                                  
G20  20988681.680   110296266.160          50.000                                                  
G21  23106319.840   121424545.809          50.000                                                  
G26  22462160.940   118039367.625          50.000    22462162.100    88146273.559          50.000  
G29  21091621.280   110837212.512          50.000                                                  
E 2  27063426.280   142219229.090          50.000    27063431.400   106202653.879          50.000  
E 5  24887983.860   130787202.766          50.000    24887988.620    97665754.613          50.000  
E 9  23457899.940   123272076.395          50.000    23457903.900    92053813.027          50.000  
E27  27568353.460   144872633.426          50.000    27568358.600   108184092.680          50.000  
E30  24902849.800   130865316.188          50.000    24902854.600    97724082.566          50.000  
E36  24391366.060   128177455.379          50.000    24391370.960    95716917.094          50.000  
> 2020  7  8 22 30 39.0000000  0 14       0.000000000000
G10  23652191.200   124293041.809          50.000    23652192.240    92816228.277          50.000  
G13  23357209.300   122743010.938          50.000                                                  
G15  21895622.080   115062086.703          50.000                                                  
G16  23714848.480   124622372.246          50.000                                                  
G20  20988309.100   110294308.344          50.000                                                  
G21  23105994.780   121422837.633          50.000                                                  
G26  22462235.060   118039757.133          50.000    22462236.220    88146564.422          50.000  
G29  21091970.440   110839047.367          50.000                                                  
E 2  27063966.860   142222069.875          50.000    27063972.000   106204775.242          50.000  
E 5  24887594.400   130785156.172          50.000    24887599.160    97664226.313          50.000  
E 9  23457996.200   123272582.199          50.000    23458000.160    92054190.738          50.000  
E27  27568198.440   144871818.855          50.000    27568203.600   108183484.395          50.000  
E30  24903138.300   130866832.316          50.000    24903143.120    97725214.738          50.000  
E36  24391554.380   128178445.035          50.000    24391559.300    95717656.121          50.000  
> 2020  7  8 22 30 40.0000000  0 14       0.000000000000
G10  23651585.280   124289857.711          50.000    23651586.320    92813850.551          50.000  
G13  23357177.820   122742845.453          50.000                                                  
G15  21895387.140   115060852.086          50.000                                                  
G16  23714500.260   124620542.320          50.000                                                  
G20  20987936.620   110292350.961          50.000                                                  
G21  23105669.740   121421129.535          50.000                                                  
G26  22462309.300   118040147.234          50.000    22462310.460    88146855.734          50.000  
G29  21092319.680   110840882.680          50.000                                                  
E 2  27064507.460   142224910.660          50.000    27064512.580   106206896.605          50.000  
E 5  24887205.000   130783109.887          50.000    24887209.760    97662698.242          50.000  
E 9  23458092.540   123273088.469          50.000    23458096.500    92054568.797          50.000  
E27  27568043.520   144871004.723          50.000    27568048.680   108182876.438          50.000  
E30  24903426.880   130868348.801          50.000    24903431.700    97726347.176          50.000  
E36  24391742.720   128179434.777          50.000    24391747.640    95718395.215          50.000  
> 2020  7  8 22 30 41.0000000  0 14       0.000000000000
G10  23650979.420   124286673.852          50.000    23650980.460    92811472.996          50.000  
G13  23357146.440   122742680.594          50.000                                                  
G15  21895152.320   115059618.086          50.000                                                  
G16  23714152.140   124618712.961          50.000                                                  
G20  20987564.240   110290394.008          50.000                                                  
G21  23105344.720   121419421.543          50.000                                                  
G26  22462383.640   118040537.930          50.000    22462384.800    88147147.492          50.000  
G29  21092669.020   110842718.477          50.000                                                  
E 2  27065048.040   142227751.445          50.000    27065053.160   106209017.969          50.000  
E 5  24886815.680   130781063.945          50.000    24886820.440    97661170.430          50.000  
E 9  23458188.960   123273595.211          50.000    23458192.920    92054947.211          50.000  
E27  27567888.680   144870191.031          50.000    27567893.840   108182268.813          50.000  
E30  24903715.540   130869865.656          50.000    24903720.340    97727479.895          50.000  
E36  24391931.100   128180424.633          50.000    24391936.000    95719134.395          50.000  
> 2020  7  8 22 30 42.0000000  0 14       0.000000000000
G10  23650373.600   124283490.227          50.000    23650374.640    92809095.617          50.000  
G13  23357115.180   122742516.344          50.000                                                  
G15  21894917.620   115058384.688          50.000                                                  
G16  23713804.120   124616884.168          50.000                                                  
G20  20987191.920   110288437.484          50.000                                                  
G21  23105019.720   121417713.625          50.000                                                  
G26  22462458.100   118040929.219          50.000    22462459.260    88147439.688          50.000  
G29  21093018.460   110844554.723          50.000                                                  
E 2  27065588.620   142230592.238          50.000    27065593.760   106211139.340          50.000  
E 5  24886426.420   130779018.332          50.000    24886431.160    97659642.863          50.000  
E 9  23458285.480   123274102.422          50.000    23458289.440    92055325.969          50.000  
E27  27567733.920   144869377.809          50.000    27567739.080   108181661.535          50.000  
E30  24904004.260   130871382.887          50.000    24904009.060    97728612.891          50.000  
E36  24392119.480   128181414.617          50.000    24392124.380    95719873.668          50.000  
> 2020  7  8 22 30 43.0000000  0 14       0.000000000000
G10  23649767.820   124280306.840          50.000    23649768.860    92806718.414          50.000  
G13  23357084.060   122742352.723          50.000                                                  
G15  21894683.020   115057151.898          50.000                                                  
G16  23713456.220   124615055.934          50.000                                                  
G20  20986819.680   110286481.391          50.000                                                  
G21  23104694.720   121416005.793          50.000                                                  
G26  22462532.680   118041321.113          50.000    22462533.840    88147732.340          50.000  
G29  21093367.960   110846391.438          50.000                                                  
E 2  27066129.200   142233433.039          50.000    27066134.340   106213260.715          50.000  
E 5  24886037.200   130776973.047          50.000    24886041.960    97658115.539          50.000  
E 9  23458382.100   123274610.102          50.000    23458386.040    92055705.082          50.000  
E27  27567579.260   144868565.039          50.000    27567584.420   108181054.598          50.000  
E30  24904293.040   130872900.480          50.000    24904297.860    97729746.156          50.000  
E36  24392307.880   128182404.711          50.000    24392312.800    95720613.023          50.000  
> 2020  7  8 22 30 44.0000000  0 14       0.000000000000
G10  23649162.080   124277123.688          50.000    23649163.120    92804341.387          50.000  
G13  23357053.040   122742189.719          50.000                                                  
G15  21894448.540   115055919.734          50.000                                                  
G16  23713108.440   124613228.258          50.000                                                  
G20  20986447.540   110284525.715          50.000                                                  
G21  23104369.760   121414298.055          50.000                                                  
G26  22462607.360   118041713.602          50.000    22462608.520    88148025.426          50.000  
G29  21093717.580   110848228.633          50.000                                                  
E 2  27066669.800   142236273.848          50.000    27066674.920   106215382.098          50.000  
E 5  24885648.060   130774928.078          50.000    24885652.820    97656588.453          50.000  
E 9  23458478.800   123275118.238          50.000    23458482.740    92056084.535          50.000  
E27  27567424.680   144867752.707          50.000    27567429.840   108180447.988          50.000  
E30  24904581.900   130874418.441          50.000    24904586.720    97730879.699          50.000  
E36  24392496.320   128183394.906          50.000    24392501.220    95721352.453          50.000  
> 2020  7  8 22 30 45.0000000  0 14       0.000000000000
G10  23648556.380   124273940.773          50.000    23648557.420    92801964.535          50.000  
G13  23357022.140   122742027.340          50.000                                                  
G15  21894214.180   115054688.172          50.000                                                  
G16  23712760.740   124611401.145          50.000                                                  
G20  20986075.460   110282570.484          50.000                                                  
G21  23104044.800   121412590.398          50.000                                                  
G26  22462682.160   118042106.691          50.000    22462683.340    88148318.969          50.000  
G29  21094067.260   110850066.277          50.000                                                  
E 2  27067210.380   142239114.648          50.000    27067215.520   106217503.473          50.000  
E 5  24885258.980   130772883.445          50.000    24885263.740    97655061.617          50.000  
E 9  23458575.580   123275626.844          50.000    23458579.520    92056464.336          50.000  
E27  27567270.180   144866940.828          50.000    27567275.340   108179841.715          50.000  
E30  24904870.840   130875936.766          50.000    24904875.640    97732013.512          50.000  
E36  24392684.760   128184385.215          50.000    24392689.680    95722091.969          50.000  
> 2020  7  8 22 30 46.0000000  0 14       0.000000000000
G10  23647950.740   124270758.098          50.000    23647951.780    92799587.867          50.000  
G13  23356991.360   122741865.578          50.000                                                  
G15  21893979.940   115053457.219          50.000                                                  
G16  23712413.160   124609574.594          50.000                                                  
G20  20985703.480   110280615.684          50.000                                                  
G21  23103719.860   121410882.828          50.000                                                  
G26  22462757.080   118042500.375          50.000    22462758.240    88148612.953          50.000  
G29  21094417.040   110851904.391          50.000                                                  
E 2  27067750.980   142241955.473          50.000    27067756.100   106219624.867          50.000  
E 5  24884869.960   130770839.125          50.000    24884874.720    97653535.016          50.000  
E 9  23458672.460   123276135.918          50.000    23458676.400    92056844.488          50.000  
E27  27567115.780   144866129.410          50.000    27567120.920   108179235.785          50.000  
E30  24905159.820   130877455.461          50.000    24905164.640    97733147.598          50.000  
E36  24392873.240   128185375.625          50.000    24392878.140    95722831.559          50.000  
> 2020  7  8 22 30 47.0000000  0 14       0.000000000000
G10  23647345.140   124267575.656          50.000    23647346.180    92797211.367          50.000  
G13  23356960.680   122741704.441          50.000                                                  
G15  21893745.820   115052226.891          50.000                                                  
G16  23712065.680   124607748.613          50.000                                                  
G20  20985331.580   110278661.309          50.000                                                  
G21  23103394.940   121409175.344          50.000                                                  
G26  22462832.120   118042894.668          50.000    22462833.280    88148907.395          50.000  
G29  21094766.920   110853742.973          50.000                                                  
E 2  27068291.560   142244796.289          50.000    27068296.700   106221746.254          50.000  
E 5  24884481.000   130768795.148          50.000    24884485.760    97652008.668          50.000  
E 9  23458769.420   123276645.465          50.000    23458773.360    92057224.996          50.000  
E27  27566961.460   144865318.430          50.000    27566966.600   108178630.184          50.000  
E30  24905448.900   130878974.508          50.000    24905453.700    97734281.953          50.000  
E36  24393061.740   128186366.180          50.000    24393066.640    95723571.262          50.000  
> 2020  7  8 22 30 48.0000000  0 14       0.000000000000
G10  23646739.600   124264393.449          50.000    23646740.620    92794835.047          50.000  
G13  23356930.140   122741543.914          50.000                                                  
G15  21893511.820   115050997.168          50.000                                                  
G16  23711718.320   124605923.191          50.000                                                  
G20  20984959.740   110276707.359          50.000                                                  
G21  23103070.020   121407467.945          50.000                                                  
G26  22462907.260   118043289.547          50.000    22462908.420    88149202.270          50.000  
G29  21095116.880   110855582.016          50.000                                                  
E 2  27068832.160   142247637.121          50.000    27068837.300   106223867.652          50.000  
E 5  24884092.100   130766751.484          50.000    24884096.860    97650482.559          50.000  
E 9  23458866.460   123277155.469          50.000    23458870.420    92057605.844          50.000  
E27  27566807.220   144864507.906          50.000    27566812.360   108178024.922          50.000  
E30  24905738.040   130880493.945          50.000    24905742.840    97735416.594          50.000  
E36  24393250.240   128187356.816          50.000    24393255.160    95724311.020          50.000  
> 2020  7  8 22 30 49.0000000  0 14       0.000000000000
G10  23646134.080   124261211.473          50.000    23646135.120    92792458.898          50.000  
G13  23356899.720   122741384.016          50.000                                                  
G15  21893277.920   115049768.055          50.000                                                  
G16  23711371.060   124604098.336          50.000                                                  
G20  20984588.000   110274753.855          50.000                                                  
G21  23102745.140   121405760.641          50.000                                                  
G26  22462982.520   118043685.031          50.000    22462983.680    88149497.598          50.000  
G29  21095466.920   110857421.535          50.000                                                  
E 2  27069372.760   142250477.953          50.000    27069377.880   106225989.051          50.000  
E 5  24883703.280   130764708.152          50.000    24883708.020    97648956.695          50.000  
E 9  23458963.600   123277665.949          50.000    23458967.560    92057987.043          50.000  
E27  27566653.060   144863697.832          50.000    27566658.220   108177420.000          50.000  
E30  24906027.240   130882013.738          50.000    24906032.060    97736551.508          50.000  
E36  24393438.780   128188347.590          50.000    24393443.700    95725050.883          50.000  
> 2020  7  8 22 30 50.0000000  0 14       0.000000000000
G10  23645528.620   124258029.734          50.000    23645529.640    92790082.926          50.000  
G13  23356869.400   122741224.742          50.000                                                  
G15  21893044.140   115048539.555          50.000                                                  
G16  23711023.920   124602274.047          50.000                                                  
G20  20984216.340   110272800.770          50.000                                                  
G21  23102420.260   121404053.426          50.000                                                  
G26  22463057.880   118044081.102          50.000    22463059.040    88149793.367          50.000  
G29  21095817.060   110859261.516          50.000                                                  
E 2  27069913.340   142253318.781          50.000    27069918.480   106228110.449          50.000  
E 5  24883314.500   130762665.152          50.000    24883319.260    97647431.078          50.000  
E 9  23459060.840   123278176.887          50.000    23459064.780    92058368.590          50.000  
E27  27566499.000   144862888.207          50.000    27566504.140   108176815.410          50.000  
E30  24906316.520   130883533.891          50.000    24906321.340    97737686.684          50.000  
E36  24393627.340   128189338.453          50.000    24393632.240    95725790.813          50.000  
> 2020  7  8 22 30 51.0000000  0 14       0.000000000000
G10  23644923.200   124254848.238          50.000    23644924.220    92787707.133          50.000  
G13  23356839.220   122741066.086          50.000                                                  
G15  21892810.480   115047311.660          50.000                                                  
G16  23710676.860   124600450.309          50.000                                                  
G20  20983844.780   110270848.113          50.000                                                  
G21  23102095.400   121402346.285          50.000                                                  
G26  22463133.380   118044477.777          50.000    22463134.540    88150089.582          50.000  
G29  21096167.300   110861101.961          50.000                                                  
E 2  27070453.940   142256159.629          50.000    27070459.080   106230231.859          50.000  
E 5  24882925.800   130760622.469          50.000    24882930.540    97645905.695          50.000  
E 9  23459158.160   123278688.301          50.000    23459162.100    92058750.488          50.000  
E27  27566345.020   144862079.035          50.000    27566350.160   108176211.156          50.000  
E30  24906605.860   130885054.406          50.000    24906610.680    97738822.133          50.000  
E36  24393815.920   128190329.438          50.000    24393820.820    95726530.836          50.000  
> 2020  7  8 22 30 52.0000000  0 14       0.000000000000
G10  23644317.820   124251666.973          50.000    23644318.860    92785331.516          50.000  
G13  23356809.140   122740908.055          50.000                                                  
G15  21892576.940   115046084.387          50.000                                                  
G16  23710329.940   124598627.148          50.000                                                  
G20  20983473.280   110268895.883          50.000                                                  
G21  23101770.560   121400639.242          50.000                                                  
G26  22463208.980   118044875.055          50.000    22463210.140    88150386.250          50.000  
G29  21096517.600   110862942.879          50.000                                                  
E 2  27070994.540   142259000.469          50.000    27070999.660   106232353.262          50.000  
E 5  24882537.140   130758580.113          50.000    24882541.900    97644380.563          50.000  
E 9  23459255.560   123279200.172          50.000    23459259.520    92059132.730          50.000  
E27  27566191.120   144861270.305          50.000    27566196.280   108175607.234          50.000  
E30  24906895.280   130886575.305          50.000    24906900.100    97739957.867          50.000  
E36  24394004.520   128191320.535          50.000    24394009.420    95727270.941          50.000  
> 2020  7  8 22 30 53.0000000  0 14       0.000000000000
G10  23643712.480   124248485.941          50.000    23643713.520    92782956.070          50.000  
G13  23356779.180   122740750.641          50.000                                                  
G15  21892343.520   115044857.719          50.000                                                  
G16  23709983.100   124596804.535          50.000                                                  
G20  20983101.860   110266944.090          50.000                                                  
G21  23101445.740   121398932.277          50.000                                                  
G26  22463284.680   118045272.910          50.000    22463285.840    88150683.352          50.000  
G29  21096868.020   110864784.258          50.000                                                  
E 2  27071535.140   142261841.313          50.000    27071540.260   106234474.672          50.000  
E 5  24882148.560   130756538.094          50.000    24882153.320    97642855.680          50.000  
E 9  23459353.060   123279712.516          50.000    23459357.000    92059515.324          50.000  
E27  27566037.320   144860462.043          50.000    27566042.460   108175003.660          50.000  
E30  24907184.760   130888096.555          50.000    24907189.580    97741093.863          50.000  
E36  24394193.140   128192311.742          50.000    24394198.040    95728011.125          50.000  
> 2020  7  8 22 30 54.0000000  0 14       0.000000000000
G10  23643107.200   124245305.141          50.000    23643108.240    92780580.801          50.000  
G13  23356749.340   122740593.832          50.000                                                  
G15  21892110.200   115043631.660          50.000                                                  
G16  23709636.380   124594982.492          50.000                                                  
G20  20982730.520   110264992.719          50.000                                                  
G21  23101120.920   121397225.395          50.000                                                  
G26  22463360.500   118045671.383          50.000    22463361.680    88150980.910          50.000  
G29  21097218.500   110866626.105          50.000                                                  
E 2  27072075.720   142264682.172          50.000    27072080.860   106236596.090          50.000  
E 5  24881760.040   130754496.383          50.000    24881764.780    97641331.023          50.000  
E 9  23459450.640   123280225.328          50.000    23459454.600    92059898.270          50.000  
E27  27565883.580   144859654.215          50.000    27565888.740   108174400.414          50.000  
E30  24907474.320   130889618.164          50.000    24907479.140    97742230.129          50.000  
E36  24394381.780   128193303.063          50.000    24394386.680    95728751.398          50.000  
> 2020  7  8 22 30 55.0000000  0 14       0.000000000000
G10  23642501.960   124242124.582          50.000    23642503.000    92778205.711          50.000  
G13  23356719.620   122740437.648          50.000                                                  
G15  21891877.000   115042406.223          50.000                                                  
G16  23709289.760   124593161.012          50.000                                                  
G20  20982359.280   110263041.777          50.000                                                  
G21  23100796.140   121395518.602          50.000                                                  
G26  22463436.440   118046070.445          50.000    22463437.620    88151278.910          50.000  
G29  21097569.080   110868468.430          50.000                                                  
E 2  27072616.320   142267523.023          50.000    27072621.460   106238717.504          50.000  
E 5  24881371.580   130752455.012          50.000    24881376.320    97639806.625          50.000  
E 9  23459548.320   123280738.602          50.000    23459552.260    92060281.559          50.000  
E27  27565729.960   144858846.852          50.000    27565735.100   108173797.516          50.000  
E30  24907763.940   130891140.156          50.000    24907768.760    97743366.684          50.000  
E36  24394570.440   128194294.488          50.000    24394575.340    95729491.746          50.000  
> 2020  7  8 22 30 56.0000000  0 14       0.000000000000
G10  23641896.760   124238944.254          50.000    23641897.800    92775830.789          50.000  
G13  23356690.020   122740282.094          50.000                                                  
G15  21891643.940   115041181.398          50.000                                                  
G16  23708943.240   124591340.086          50.000                                                  
G20  20981988.100   110261091.273          50.000                                                  
G21  23100471.360   121393811.895          50.000                                                  
G26  22463512.500   118046470.105          50.000    22463513.660    88151577.359          50.000  
G29  21097919.760   110870311.207          50.000                                                  
E 2  27073156.920   142270363.879          50.000    27073162.060   106240838.922          50.000  
E 5  24880983.180   130750413.969          50.000    24880987.940    97638282.469          50.000  
E 9  23459646.080   123281252.344          50.000    23459650.020    92060665.195          50.000  
E27  27565576.400   144858039.934          50.000    27565581.560   108173194.945          50.000  
E30  24908053.640   130892662.512          50.000    24908058.460    97744503.504          50.000  
E36  24394759.120   128195286.035          50.000    24394764.040    95730232.191          50.000  
> 2020  7  8 22 30 57.0000000  0 14       0.000000000000
G10  23641291.620   124235764.172          50.000    23641292.640    92773456.055          50.000  
G13  23356660.540   122740127.156          50.000                                                  
G15  21891410.980   115039957.188          50.000                                                  
G16  23708596.840   124589519.738          50.000                                                  
G20  20981617.020   110259141.195          50.000                                                  
G21  23100146.600   121392105.281          50.000                                                  
G26  22463588.660   118046870.355          50.000    22463589.820    88151876.246          50.000  
G29  21098270.520   110872154.453          50.000                                                  
E 2  27073697.520   142273204.750          50.000    27073702.660   106242960.348          50.000  
E 5  24880594.840   130748373.246          50.000    24880599.600    97636758.551          50.000  
E 9  23459743.920   123281766.559          50.000    23459747.880    92061049.188          50.000  
E27  27565422.940   144857233.465          50.000    27565428.080   108172592.715          50.000  
E30  24908343.400   130894185.227          50.000    24908348.220    97745640.598          50.000  
E36  24394947.840   128196277.691          50.000    24394952.740    95730972.711          50.000  
> 2020  7  8 22 30 58.0000000  0 14       0.000000000000
G10  23640686.500   124232584.352          50.000    23640687.540    92771081.496          50.000  
G13  23356631.180   122739972.840          50.000                                                  
G15  21891178.120   115038733.586          50.000                                                  
G16  23708250.560   124587699.957          50.000                                                  
G20  20981246.000   110257191.547          50.000                                                  
G21  23099821.860   121390398.762          50.000                                                  
G26  22463664.940   118047271.227          50.000    22463666.120    88152175.570          50.000  
G29  21098621.360   110873998.172          50.000                                                  
E 2  27074238.120   142276045.617          50.000    27074243.260   106245081.773          50.000  
E 5  24880206.560   130746332.859          50.000    24880211.320    97635234.887          50.000  
E 9  23459841.860   123282281.230          50.000    23459845.820    92061433.520          50.000  
E27  27565269.560   144856427.449          50.000    27565274.700   108171990.816          50.000  
E30  24908633.240   130895708.320          50.000    24908638.060    97746777.969          50.000  
E36  24395136.560   128197269.461          50.000    24395141.460    95731713.316          50.000  
> 2020  7  8 22 30 59.0000000  0 14       0.000000000000
G10  23640081.440   124229404.750          50.000    23640082.480    92768707.121          50.000  
G13  23356601.920   122739819.141          50.000                                                  
G15  21890945.400   115037510.598          50.000                                                  
G16  23707904.360   124585880.742          50.000                                                  
G20  20980875.080   110255242.320          50.000                                                  
G21  23099497.140   121388692.316          50.000                                                  
G26  22463741.340   118047672.691          50.000    22463742.500    88152475.371          50.000  
G29  21098972.300   110875842.355          50.000                                                  
E 2  27074778.720   142278886.496          50.000    27074783.860   106247203.207          50.000  
E 5  24879818.360   130744292.789          50.000    24879823.100    97633711.461          50.000  
E 9  23459939.900   123282796.379          50.000    23459943.840    92061818.207          50.000  
E27  27565116.260   144855621.883          50.000    27565121.420   108171389.262          50.000  
E30  24908923.140   130897231.770          50.000    24908927.960    97747915.609          50.000  
E36  24395325.300   128198261.344          50.000    24395330.220    95732454.012          50.000  
> 2020  7  8 22 31  0.0000000  0 14       0.000000000000
G10  23639476.420   124226225.375          50.000    23639477.460    92766332.922          50.000  
G13  23356572.800   122739666.063          50.000                                                  
G15  21890712.800   115036288.223          50.000                                                  
G16  23707558.280   124584062.078          50.000                                                  
G20  20980504.240   110253293.531          50.000                                                  
G21  23099172.420   121386985.965          50.000                                                  
G26  22463817.860   118048074.742          50.000    22463819.020    88152775.605          50.000  
G29  21099323.320   110877687.000          50.000                                                  
E 2  27075319.340   142281727.383          50.000    27075324.460   106249324.648          50.000  
E 5  24879430.200   130742253.070          50.000    24879434.960    97632188.293          50.000  
E 9  23460038.020   123283311.996          50.000    23460041.960    92062203.246          50.000  
E27  27564963.060   144854816.777          50.000    27564968.200   108170788.047          50.000  
E30  24909213.120   130898755.590          50.000    24909217.940    97749053.527          50.000  
E36  24395514.080   128199253.352          50.000    24395518.980    95733194.793          50.000  
> 2020  7  8 22 31  1.0000000  0 14       0.000000000000
G10  23638871.460   124223046.230          50.000    23638872.480    92763958.891          50.000  
G13  23356543.780   122739513.605          50.000                                                  
G15  21890480.300   115035066.469          50.000                                                  
G16  23707212.320   124582243.984          50.000                                                  
G20  20980133.480   110251345.188          50.000                                                  
G21  23098847.740   121385279.695          50.000                                                  
G26  22463894.480   118048477.395          50.000    22463895.640    88153076.289          50.000  
G29  21099674.440   110879532.113          50.000                                                  
E 2  27075859.940   142284568.258          50.000    27075865.080   106251446.078          50.000  
E 5  24879042.120   130740213.652          50.000    24879046.880    97630665.352          50.000  
E 9  23460136.220   123283828.070          50.000    23460140.180    92062588.629          50.000  
E27  27564809.940   144854012.117          50.000    27564815.080   108170187.160          50.000  
E30  24909503.160   130900279.770          50.000    24909507.980    97750191.711          50.000  
E36  24395702.880   128200245.465          50.000    24395707.780    95733935.656          50.000  
> 2020  7  8 22 31  2.0000000  0 14       0.000000000000
G10  23638266.540   124219867.328          50.000    23638267.560    92761585.039          50.000  
G13  23356514.900   122739361.770          50.000                                                  
G15  21890247.920   115033845.328          50.000                                                  
G16  23706866.440   124580426.449          50.000                                                  
G20  20979762.800   110249397.254          50.000                                                  
G21  23098523.060   121383573.527          50.000                                                  
G26  22463971.220   118048880.648          50.000    22463972.380    88153377.426          50.000  
G29  21100025.640   110881377.691          50.000                                                  
E 2  27076400.540   142287409.148          50.000    27076405.680   106253567.523          50.000  
E 5  24878654.100   130738174.570          50.000    24878658.840    97629142.664          50.000  
E 9  23460234.520   123284344.613          50.000    23460238.460    92062974.355          50.000  
E27  27564656.900   144853207.891          50.000    27564662.040   108169586.605          50.000  
E30  24909793.280   130901804.316          50.000    24909798.080    97751330.176          50.000  
E36  24395891.680   128201237.680          50.000    24395896.600    95734676.598          50.000  
> 2020  7  8 22 31  3.0000000  0 14       0.000000000000
G10  23637661.640   124216688.668          50.000    23637662.680    92759211.371          50.000  
G13  23356486.120   122739210.551          50.000                                                  
G15  21890015.660   115032624.793          50.000                                                  
G16  23706520.680   124578609.461          50.000                                                  
G20  20979392.200   110247449.746          50.000                                                  
G21  23098198.400   121381867.434          50.000                                                  
G26  22464048.060   118049284.488          50.000    22464049.220    88153679.000          50.000  
G29  21100376.920   110883223.746          50.000                                                  
E 2  27076941.140   142290250.043          50.000    27076946.280   106255688.969          50.000  
E 5  24878266.140   130736135.816          50.000    24878270.880    97627620.215          50.000  
E 9  23460332.900   123284861.625          50.000    23460336.860    92063360.438          50.000  
E27  27564503.940   144852404.141          50.000    27564509.100   108168986.402          50.000  
E30  24910083.460   130903329.219          50.000    24910088.260    97752468.898          50.000  
E36  24396080.520   128202230.012          50.000    24396085.440    95735417.625          50.000  
> 2020  7  8 22 31  4.0000000  0 14       0.000000000000
G10  23637056.820   124213510.234          50.000    23637057.840    92756837.871          50.000  
G13  23356457.460   122739059.949          50.000                                                  
G15  21889783.520   115031404.875          50.000                                                  
G16  23706175.040   124576793.051          50.000                                                  
G20  20979021.680   110245502.680          50.000                                                  
G21  23097873.760   121380161.434          50.000                                                  
G26  22464125.020   118049688.922          50.000    22464126.180    88153981.016          50.000  
G29  21100728.320   110885070.273          50.000                                                  
E 2  27077481.740   142293090.945          50.000    27077486.880   106257810.422          50.000  
E 5  24877878.240   130734097.387          50.000    24877882.980    97626098.012          50.000  
E 9  23460431.380   123285379.105          50.000    23460435.320    92063746.867          50.000  
E27  27564351.080   144851600.832          50.000    27564356.220   108168386.531          50.000  
E30  24910373.700   130904854.504          50.000    24910378.520    97753607.910          50.000  
E36  24396269.380   128203222.457          50.000    24396274.280    95736158.738          50.000  
> 2020  7  8 22 31  5.0000000  0 14       0.000000000000
G10  23636452.020   124210332.043          50.000    23636453.040    92754464.551          50.000  
G13  23356428.920   122738909.977          50.000                                                  
G15  21889551.500   115030185.574          50.000                                                  
G16  23705829.480   124574977.203          50.000                                                  
G20  20978651.260   110243556.035          50.000                                                  
G21  23097549.140   121378455.523          50.000                                                  
G26  22464202.100   118050093.965          50.000    22464203.260    88154283.484          50.000  
G29  21101079.780   110886917.266          50.000                                                  
E 2  27078022.360   142295931.836          50.000    27078027.500   106259931.863          50.000  
E 5  24877490.400   130732059.297          50.000    24877495.140    97624576.063          50.000  
E 9  23460529.940   123285897.055          50.000    23460533.880    92064133.648          50.000  
E27  27564198.300   144850797.984          50.000    27564203.460   108167787.000          50.000  
E30  24910664.020   130906380.164          50.000    24910668.840    97754747.199          50.000  
E36  24396458.260   128204215.023          50.000    24396463.160    95736899.938          50.000  
> 2020  7  8 22 31  6.0000000  0 14       0.000000000000
G10  23635847.280   124207154.086          50.000    23635848.300    92752091.406          50.000  
G13  23356400.500   122738760.621          50.000                                                  
G15  21889319.580   115028966.883          50.000                                                  
G16  23705484.060   124573161.926          50.000                                                  
G20  20978280.900   110241609.828          50.000                                                  
G21  23097224.520   121376749.691          50.000                                                  
G26  22464279.280   118050499.594          50.000    22464280.460    88154586.391          50.000  
G29  21101431.340   110888764.715          50.000                                                  
E 2  27078562.960   142298772.734          50.000    27078568.100   106262053.313          50.000  
E 5  24877102.620   130730021.520          50.000    24877107.380    97623054.348          50.000  
E 9  23460628.580   123286415.469          50.000    23460632.540    92064520.773          50.000  
E27  27564045.600   144849995.574          50.000    27564050.760   108167187.797          50.000  
E30  24910954.420   130907906.172          50.000    24910959.240    97755886.750          50.000  
E36  24396647.160   128205207.691          50.000    24396652.060    95737641.215          50.000  
> 2020  7  8 22 31  7.0000000  0 14       0.000000000000
G10  23635242.580   124203976.355          50.000    23635243.600    92749718.426          50.000  
G13  23356372.200   122738611.887          50.000                                                  
G15  21889087.800   115027748.801          50.000                                                  
G16  23705138.720   124571347.215          50.000                                                  
G20  20977910.640   110239664.051          50.000                                                  
G21  23096899.940   121375043.949          50.000                                                  
G26  22464356.600   118050905.820          50.000    22464357.760    88154889.742          50.000  
G29  21101782.980   110890612.633          50.000                                                  
E 2  27079103.560   142301613.641          50.000    27079108.700   106264174.766          50.000  
E 5  24876714.900   130727984.078          50.000    24876719.660    97621532.879          50.000  
E 9  23460727.320   123286934.348          50.000    23460731.280    92064908.250          50.000  
E27  27563893.000   144849193.613          50.000    27563898.140   108166588.934          50.000  
E30  24911244.880   130909432.543          50.000    24911249.700    97757026.570          50.000  
E36  24396836.080   128206200.477          50.000    24396840.980    95738382.582          50.000  
> 2020  7  8 22 31  8.0000000  0 14       0.000000000000
G10  23634637.920   124200798.875          50.000    23634638.940    92747345.637          50.000  
G13  23356344.000   122738463.770          50.000                                                  
G15  21888856.120   115026531.328          50.000                                                  
G16  23704793.500   124569533.055          50.000                                                  
G20  20977540.440   110237718.699          50.000                                                  
G21  23096575.360   121373338.301          50.000                                                  
G26  22464434.000   118051312.648          50.000    22464435.160    88155193.543          50.000  
G29  21102134.720   110892461.023          50.000                                                  
E 2  27079644.180   142304454.559          50.000    27079649.320   106266296.230          50.000  
E 5  24876327.260   130725946.961          50.000    24876332.000    97620011.660          50.000  
E 9  23460826.160   123287453.684          50.000    23460830.100    92065296.066          50.000  
E27  27563740.480   144848392.121          50.000    27563745.620   108165990.414          50.000  
E30  24911535.400   130910959.285          50.000    24911540.220    97758166.668          50.000  
E36  24397025.020   128207193.367          50.000    24397029.920    95739124.023          50.000  
> 2020  7  8 22 31  9.0000000  0 14       0.000000000000
G10  23634033.300   124197621.629          50.000    23634034.340    92744973.016          50.000  
G13  23356315.940   122738316.277          50.000                                                  
G15  21888624.560   115025314.480          50.000                                                  
G16  23704448.380   124567719.469          50.000                                                  
G20  20977170.340   110235773.770          50.000                                                  
G21  23096250.800   121371632.730          50.000                                                  
G26  22464511.540   118051720.078          50.000    22464512.700    88155497.793          50.000  
G29  21102486.560   110894309.883          50.000                                                  
E 2  27080184.780   142307295.461          50.000    27080189.920   106268417.680          50.000  
E 5  24875939.660   130723910.168          50.000    24875944.420    97618490.676          50.000  
E 9  23460925.060   123287973.496          50.000    23460929.020    92065684.234          50.000  
E27  27563588.040   144847591.051          50.000    27563593.200   108165392.211          50.000  
E30  24911826.000   130912486.383          50.000    24911830.820    97759307.035          50.000  
E36  24397213.980   128208186.375          50.000    24397218.880    95739865.555          50.000  
> 2020  7  8 22 31 10.0000000  0 14       0.000000000000
G10  23633428.740   124194444.621          50.000    23633429.760    92742600.578          50.000  
G13  23356288.000   122738169.402          50.000                                                  
G15  21888393.120   115024098.234          50.000                                                  
G16  23704103.380   124565906.438          50.000                                                  
G20  20976800.320   110233829.277          50.000                                                  
G21  23095926.260   121369927.246          50.000                                                  
G26  22464589.180   118052128.102          50.000    22464590.340    88155802.484          50.000  
G29  21102838.460   110896159.199          50.000                                                  
E 2  27080725.400   142310136.387          50.000    27080730.540   106270539.148          50.000  
E 5  24875552.140   130721873.707          50.000    24875556.900    97616969.941          50.000  
E 9  23461024.080   123288493.773          50.000    23461028.020    92066072.754          50.000  
E27  27563435.700   144846790.445          50.000    27563440.840   108164794.359          50.000  
E30  24912116.680   130914013.855          50.000    24912121.500    97760447.680          50.000  
E36  24397402.960   128209179.496          50.000    24397407.880    95740607.176          50.000  
> 2020  7  8 22 31 11.0000000  0 14       0.000000000000
G10  23632824.220   124191267.840          50.000    23632825.240    92740228.309          50.000  
G13  23356260.160   122738023.172          50.000                                                  
G15  21888161.780   115022882.621          50.000                                                  
G16  23703758.480   124564093.977          50.000                                                  
G20  20976430.360   110231885.211          50.000                                                  
G21  23095601.720   121368221.848          50.000                                                  
G26  22464666.940   118052536.727          50.000    22464668.100    88156107.625          50.000  
G29  21103190.480   110898008.992          50.000                                                  
E 2  27081266.000   142312977.301          50.000    27081271.140   106272660.609          50.000  
E 5  24875164.680   130719837.574          50.000    24875169.420    97615449.457          50.000  
E 9  23461123.160   123289014.520          50.000    23461127.120    92066461.625          50.000  
E27  27563283.420   144845990.293          50.000    27563288.580   108164196.844          50.000  
E30  24912407.420   130915541.688          50.000    24912412.220    97761588.594          50.000  
E36  24397591.980   128210172.734          50.000    24397596.880    95741348.875          50.000  
> 2020  7  8 22 31 12.0000000  0 14       0.000000000000
G10  23632219.740   124188091.301          50.000    23632220.760    92737856.219          50.000  
G13  23356232.440   122737877.535          50.000                                                  
G15  21887930.580   115021667.621          50.000                                                  
G16  23703413.680   124562282.078          50.000                                                  
G20  20976060.500   110229941.586          50.000                                                  
G21  23095277.220   121366516.543          50.000                                                  
G26  22464744.820   118052945.938          50.000    22464745.980    88156413.203          50.000  
G29  21103542.560   110899859.250          50.000                                                  
E 2  27081806.620   142315818.223          50.000    27081811.760   106274782.074          50.000  
E 5  24874777.280   130717801.766          50.000    24874782.020    97613929.211          50.000  
E 9  23461222.360   123289535.738          50.000    23461226.300    92066850.844          50.000  
E27  27563131.240   144845190.594          50.000    27563136.400   108163599.664          50.000  
E30  24912698.220   130917069.902          50.000    24912703.040    97762729.789          50.000  
E36  24397781.000   128211166.078          50.000    24397785.900    95742090.660          50.000  
> 2020  7  8 22 31 13.0000000  0 14       0.000000000000
G10  23631615.280   124184915.184          50.000    23631616.280    92735484.543          50.000  
G13  23356204.840   122737732.648          50.000                                                  
G15  21887699.500   115020453.164          50.000                                                  
G16  23703069.000   124560470.738          50.000                                                  
G20  20975690.720   110227998.383          50.000                                                  
G21  23094952.720   121364811.422          50.000                                                  
G26  22464822.800   118053355.766          50.000    22464823.960    88156719.246          50.000  
G29  21103894.740   110901709.984          50.000                                                  
E 2  27082347.240   142318659.191          50.000    27082352.380   106276903.578          50.000  
E 5  24874389.940   130715766.316          50.000    24874394.680    97612409.242          50.000  
E 9  23461321.620   123290057.434          50.000    23461325.580    92067240.430          50.000  
E27  27562979.140   144844391.465          50.000    27562984.280   108163002.965          50.000  
E30  24912989.100   130918598.477          50.000    24912993.920    97763871.254          50.000  
E36  24397970.060   128212159.504          50.000    24397974.980    95742832.477          50.000  
> 2020  7  8 22 31 14.0000000  0 14       0.000000000000
G10  23631010.900   124181739.125          50.000    23631011.900    92733112.813          50.000  
G13  23356177.360   122737588.266          50.000                                                  
G15  21887468.520   115019239.383          50.000                                                  
G16  23702724.420   124558659.973          50.000                                                  
G20  20975321.020   110226055.613          50.000                                                  
G21  23094628.240   121363106.293          50.000                                                  
G26  22464900.900   118053766.180          50.000    22464902.060    88157025.723          50.000  
G29  21104247.020   110903561.176          50.000                                                  
E 2  27082887.840   142321500.117          50.000    27082892.980   106279025.047          50.000  
E 5  24874002.660   130713731.184          50.000    24874007.400    97610889.500          50.000  
E 9  23461420.980   123290579.582          50.000    23461424.940    92067630.348          50.000  
E27  27562827.140   144843592.668          50.000    27562832.280   108162406.461          50.000  
E30  24913280.040   130920127.414          50.000    24913284.860    97765012.992          50.000  
E36  24398159.120   128213153.082          50.000    24398164.040    95743574.434          50.000  
> 2020  7  8 22 31 15.0000000  0 14       0.000000000000
G10  23630406.560   124178563.309          50.000    23630407.560    92730741.262          50.000  
G13  23356150.000   122737444.504          50.000                                                  
G15  21887237.660   115018026.223          50.000                                                  
G16  23702379.960   124556849.789          50.000                                                  
G20  20974951.420   110224113.270          50.000                                                  
G21  23094303.780   121361401.250          50.000                                                  
G26  22464979.100   118054177.188          50.000    22464980.260    88157332.645          50.000  
G29  21104599.360   110905412.828          50.000                                                  
E 2  27083428.460   142324341.051          50.000    27083433.600   106281146.523          50.000  
E 5  24873615.440   130711696.363          50.000    24873620.180    97609369.992          50.000  
E 9  23461520.440   123291102.203          50.000    23461524.380    92068020.613          50.000  
E27  27562675.220   144842794.324          50.000    27562680.340   108161810.297          50.000  
E30  24913571.060   130921656.707          50.000    24913575.880    97766154.996          50.000  
E36  24398348.220   128214146.773          50.000    24398353.140    95744316.477          50.000  
> 2020  7  8 22 31 16.0000000  0 14       0.000000000000
G10  23629802.260   124175387.719          50.000    23629803.260    92728369.879          50.000  
G13  23356122.760   122737301.367          50.000                                                  
G15  21887006.920   115016813.672          50.000                                                  
G16  23702035.600   124555040.156          50.000                                                  
G20  20974581.880   110222171.359          50.000                                                  
G21  23093979.320   121359696.297          50.000                                                  
G26  22465057.420   118054588.789          50.000    22465058.600    88157640.008          50.000  
G29  21104951.820   110907264.949          50.000                                                  
E 2  27083969.060   142327181.992          50.000    27083974.200   106283268.004          50.000  
E 5  24873228.280   130709661.875          50.000    24873233.040    97607850.734          50.000  
E 9  23461619.980   123291625.289          50.000    23461623.920    92068411.230          50.000  
E27  27562523.380   144841996.434          50.000    27562528.520   108161214.469          50.000  
E30  24913862.140   130923186.375          50.000    24913866.960    97767297.281          50.000  
E36  24398537.340   128215140.574          50.000    24398542.240    95745058.598          50.000  
> 2020  7  8 22 31 17.0000000  0 14       0.000000000000
G10  23629198.000   124172212.375          50.000    23629199.000    92725998.684          50.000  
G13  23356095.640   122737158.852          50.000                                                  
G15  21886776.300   115015601.738          50.000                                                  
G16  23701691.340   124553231.090          50.000                                                  
G20  20974212.420   110220229.867          50.000                                                  
G21  23093654.900   121357991.438          50.000                                                  
G26  22465135.860   118055001.000          50.000    22465137.040    88157947.828          50.000  
G29  21105304.340   110909117.535          50.000                                                  
E 2  27084509.680   142330022.930          50.000    27084514.820   106285389.480          50.000  
E 5  24872841.200   130707627.719          50.000    24872845.940    97606331.719          50.000  
E 9  23461719.600   123292148.828          50.000    23461723.540    92068802.184          50.000  
E27  27562371.620   144841198.996          50.000    27562376.760   108160618.980          50.000  
E30  24914153.300   130924716.402          50.000    24914158.120    97768439.832          50.000  
E36  24398726.460   128216134.492          50.000    24398731.380    95745800.809          50.000  
> 2020  7  8 22 31 18.0000000  0 14       0.000000000000
G10  23628593.800   124169037.258          50.000    23628594.800    92723627.656          50.000  
G13  23356068.640   122737016.961          50.000                                                  
G15  21886545.780   115014390.422          50.000                                                  
G16  23701347.200   124551422.590          50.000                                                  
G20  20973843.040   110218288.816          50.000                                                  
G21  23093330.500   121356286.660          50.000                                                  
G26  22465214.420   118055413.809          50.000    22465215.580    88158256.094          50.000  
G29  21105656.960   110910970.594          50.000                                                  
E 2  27085050.280   142332863.883          50.000    27085055.440   106287510.969          50.000  
E 5  24872454.180   130705593.887          50.000    24872458.920    97604812.949          50.000  
E 9  23461819.320   123292672.852          50.000    23461823.260    92069193.500          50.000  
E27  27562219.960   144840402.012          50.000    27562225.100   108160023.828          50.000  
E30  24914444.520   130926246.793          50.000    24914449.340    97769582.656          50.000  
E36  24398915.620   128217128.523          50.000    24398920.540    95746543.105          50.000  
> 2020  7  8 22 31 19.0000000  0 14       0.000000000000
G10  23627989.640   124165862.387          50.000    23627990.640    92721256.813          50.000  
G13  23356041.760   122736875.688          50.000                                                  
G15  21886315.400   115013179.707          50.000                                                  
G16  23701003.140   124549614.656          50.000                                                  
G20  20973473.760   110216348.203          50.000                                                  
G21  23093006.100   121354581.969          50.000                                                  
G26  22465293.080   118055827.207          50.000    22465294.260    88158564.801          50.000  
G29  21106009.680   110912824.109          50.000                                                  
E 2  27085590.900   142335704.828          50.000    27085596.040   106289632.453          50.000  
E 5  24872067.200   130703560.391          50.000    24872071.960    97603294.430          50.000  
E 9  23461919.120   123293197.336          50.000    23461923.060    92069585.160          50.000  
E27  27562068.380   144839605.473          50.000    27562073.520   108159429.012          50.000  
E30  24914735.820   130927777.559          50.000    24914740.640    97770725.758          50.000  
E36  24399104.800   128218122.664          50.000    24399109.720    95747285.484          50.000  
> 2020  7  8 22 31 20.0000000  0 14       0.000000000000
G10  23627385.520   124162687.746          50.000    23627386.520    92718886.141          50.000  
G13  23356014.980   122736735.035          50.000                                                  
G15  21886085.120   115011969.609          50.000                                                  
G16  23700659.220   124547807.285          50.000                                                  
G20  20973104.560   110214408.016          50.000                                                  
G21  23092681.720   121352877.371          50.000                                                  
G26  22465371.860   118056241.188          50.000    22465373.020    88158873.941          50.000  
G29  21106362.480   110914678.086          50.000                                                  
E 2  27086131.520   142338545.773          50.000    27086136.660   106291753.938          50.000  
E 5  24871680.300   130701527.207          50.000    24871685.060    97601776.145          50.000  
E 9  23462019.000   123293722.273          50.000    23462022.960    92069977.160          50.000  
E27  27561916.900   144838809.395          50.000    27561922.040   108158834.539          50.000  
E30  24915027.180   130929308.676          50.000    24915032.000    97771869.125          50.000  
E36  24399294.000   128219116.914          50.000    24399298.920    95748027.941          50.000  
> 2020  7  8 22 31 21.0000000  0 14       0.000000000000
G10  23626781.440   124159513.355          50.000    23626782.440    92716515.656          50.000  
G13  23355988.340   122736595.000          50.000                                                  
G15  21885854.960   115010760.129          50.000                                                  
G16  23700315.400   124546000.492          50.000                                                  
G20  20972735.420   110212468.258          50.000                                                  
G21  23092357.360   121351172.855          50.000                                                  
G26  22465450.760   118056655.789          50.000    22465451.920    88159183.543          50.000  
G29  21106715.360   110916532.539          50.000                                                  
E 2  27086672.140   142341386.738          50.000    27086677.280   106293875.438          50.000  
E 5  24871293.460   130699494.359          50.000    24871298.220    97600258.109          50.000  
E 9  23462118.980   123294247.691          50.000    23462122.940    92070369.516          50.000  
E27  27561765.480   144838013.758          50.000    27561770.620   108158240.395          50.000  
E30  24915318.600   130930840.164          50.000    24915323.420    97773012.766          50.000  
E36  24399483.220   128220111.281          50.000    24399488.140    95748770.488          50.000  
> 2020  7  8 22 31 22.0000000  0 14       0.000000000000
G10  23626177.420   124156339.188          50.000    23626178.420    92714145.340          50.000  
G13  23355961.800   122736455.594          50.000                                                  
G15  21885624.920   115009551.266          50.000                                                  
G16  23699971.680   124544194.254          50.000                                                  
G20  20972366.380   110210528.930          50.000                                                  
G21  23092033.020   121349468.422          50.000                                                  
G26  22465529.760   118057070.973          50.000    22465530.920    88159493.586          50.000  
G29  21107068.340   110918387.449          50.000                                                  
E 2  27087212.740   142344227.691          50.000    27087217.880   106295996.926          50.000  
E 5  24870906.680   130697461.840          50.000    24870911.440    97598740.320          50.000  
E 9  23462219.060   123294773.566          50.000    23462223.000    92070762.215          50.000  
E27  27561614.160   144837218.570          50.000    27561619.300   108157646.586          50.000  
E30  24915610.100   130932372.012          50.000    24915614.920    97774156.680          50.000  
E36  24399672.460   128221105.750          50.000    24399677.380    95749513.113          50.000  
> 2020  7  8 22 31 23.0000000  0 14       0.000000000000
G10  23625573.440   124153165.262          50.000    23625574.440    92711775.203          50.000  
G13  23355935.400   122736316.801          50.000                                                  
G15  21885395.000   115008343.023          50.000                                                  
G16  23699628.060   124542388.574          50.000                                                  
G20  20971997.420   110208590.023          50.000                                                  
G21  23091708.680   121347764.074          50.000                                                  
G26  22465608.880   118057486.750          50.000    22465610.040    88159804.066          50.000  
G29  21107421.420   110920242.840          50.000                                                  
E 2  27087753.360   142347068.645          50.000    27087758.500   106298118.418          50.000  
E 5  24870519.980   130695429.656          50.000    24870524.720    97597222.781          50.000  
E 9  23462319.220   123295299.922          50.000    23462323.160    92071155.273          50.000  
E27  27561462.940   144836423.836          50.000    27561468.060   108157053.117          50.000  
E30  24915901.680   130933904.227          50.000    24915906.500    97775300.863          50.000  
E36  24399861.720   128222100.344          50.000    24399866.640    95750255.828          50.000  
> 2020  7  8 22 31 24.0000000  0 14       0.000000000000
G10  23624969.500   124149991.578          50.000    23624970.500    92709405.242          50.000  
G13  23355909.100   122736178.633          50.000                                                  
G15  21885165.180   115007135.391          50.000                                                  
G16  23699284.560   124540583.469          50.000                                                  
G20  20971628.540   110206651.559          50.000                                                  
G21  23091384.380   121346059.809          50.000                                                  
G26  22465688.120   118057903.133          50.000    22465689.280    88160115.000          50.000  
G29  21107774.560   110922098.688          50.000                                                  
E 2  27088293.980   142349909.605          50.000    27088299.120   106300239.910          50.000  
E 5  24870133.320   130693397.789          50.000    24870138.060    97595705.477          50.000  
E 9  23462419.460   123295826.738          50.000    23462423.420    92071548.672          50.000  
E27  27561311.780   144835629.563          50.000    27561316.920   108156459.988          50.000  
E30  24916193.320   130935436.805          50.000    24916198.140    97776445.320          50.000  
E36  24400051.000   128223095.047          50.000    24400055.920    95750998.625          50.000  
> 2020  7  8 22 31 25.0000000  0 14       0.000000000000
G10  23624365.620   124146818.121          50.000    23624366.600    92707035.457          50.000  
G13  23355882.920   122736041.086          50.000                                                  
G15  21884935.500   115005928.367          50.000                                                  
G16  23698941.160   124538778.930          50.000                                                  
G20  20971259.740   110204713.516          50.000                                                  
G21  23091060.080   121344355.637          50.000                                                  
G26  22465767.460   118058320.102          50.000    22465768.620    88160426.375          50.000  
G29  21108127.800   110923955.000          50.000                                                  
E 2  27088834.600   142352750.566          50.000    27088839.740   106302361.406          50.000  
E 5  24869746.720   130691366.258          50.000    24869751.480    97594188.426          50.000  
E 9  23462519.800   123296354.016          50.000    23462523.760    92071942.422          50.000  
E27  27561160.720   144834835.730          50.000    27561165.860   108155867.195          50.000  
E30  24916485.020   130936969.738          50.000    24916489.840    97777590.043          50.000  
E36  24400240.300   128224089.863          50.000    24400245.220    95751741.508          50.000  
> 2020  7  8 22 31 26.0000000  0 14       0.000000000000
G10  23623761.760   124143644.906          50.000    23623762.760    92704665.852          50.000  
G13  23355856.860   122735904.164          50.000                                                  
G15  21884705.920   115004721.973          50.000                                                  
G16  23698597.880   124536974.941          50.000                                                  
G20  20970891.020   110202775.910          50.000                                                  
G21  23090735.800   121342651.551          50.000                                                  
G26  22465846.920   118058737.680          50.000    22465848.080    88160738.199          50.000  
G29  21108481.140   110925811.789          50.000                                                  
E 2  27089375.200   142355591.531          50.000    27089380.360   106304482.902          50.000  
E 5  24869360.200   130689335.051          50.000    24869364.940    97592671.613          50.000  
E 9  23462620.220   123296881.758          50.000    23462624.180    92072336.512          50.000  
E27  27561009.740   144834042.359          50.000    27561014.880   108155274.742          50.000  
E30  24916776.800   130938503.055          50.000    24916781.620    97778735.051          50.000  
E36  24400429.640   128225084.789          50.000    24400434.560    95752484.473          50.000  
> 2020  7  8 22 31 27.0000000  0 14       0.000000000000
G10  23623157.960   124140471.938          50.000    23623158.960    92702296.426          50.000  
G13  23355830.920   122735767.859          50.000                                                  
G15  21884476.480   115003516.188          50.000                                                  
G16  23698254.700   124535171.523          50.000                                                  
G20  20970522.380   110200838.719          50.000                                                  
G21  23090411.540   121340947.547          50.000                                                  
G26  22465926.500   118059155.852          50.000    22465927.660    88161050.473          50.000  
G29  21108834.560   110927669.027          50.000                                                  
E 2  27089915.820   142358432.488          50.000    27089920.960   106306604.398          50.000  
E 5  24868973.740   130687304.176          50.000    24868978.480    97591155.051          50.000  
E 9  23462720.740   123297409.969          50.000    23462724.680    92072730.957          50.000  
E27  27560858.860   144833249.434          50.000    27560863.980   108154682.621          50.000  
E30  24917068.640   130940036.719          50.000    24917073.460    97779880.320          50.000  
E36  24400618.980   128226079.832          50.000    24400623.900    95753227.523          50.000  
> 2020  7  8 22 31 28.0000000  0 14       0.000000000000
G10  23622554.220   124137299.203          50.000    23622555.200    92699927.176          50.000  
G13  23355805.100   122735632.176          50.000                                                  
G15  21884247.140   115002311.023          50.000                                                  
G16  23697911.620   124533368.672          50.000                                                  
G20  20970153.840   110198901.973          50.000                                                  
G21  23090087.280   121339243.633          50.000                                                  
G26  22466006.180   118059574.617          50.000    22466007.340    88161363.188          50.000  
G29  21109188.080   110929526.746          50.000                                                  
E 2  27090456.440   142361273.465          50.000    27090461.580   106308725.902          50.000  
E 5  24868587.340   130685273.637          50.000    24868592.080    97589638.742          50.000  
E 9  23462821.340   123297938.652          50.000    23462825.300    92073125.750          50.000  
E27  27560708.060   144832456.957          50.000    27560713.180   108154090.836          50.000  
E30  24917360.560   130941570.758          50.000    24917365.380    97781025.867          50.000  
E36  24400808.360   128227074.984          50.000    24400813.260    95753970.652          50.000  
> 2020  7  8 22 31 29.0000000  0 14       0.000000000000
G10  23621950.500   124134126.699          50.000    23621951.500    92697558.105          50.000  
G13  23355779.400   122735497.113          50.000                                                  
G15  21884017.920   115001106.465          50.000                                                  
G16  23697568.660   124531566.383          50.000                                                  
G20  20969785.360   110196965.648          50.000                                                  
G21  23089763.060   121337539.801          50.000                                                  
G26  22466085.980   118059993.984          50.000    22466087.140    88161676.348          50.000  
G29  21109541.660   110931384.922          50.000                                                  
E 2  27090997.060   142364114.430          50.000    27091002.200   106310847.402          50.000  
E 5  24868201.000   130683243.414          50.000    24868205.740    97588122.668          50.000  
E 9  23462922.040   123298467.793          50.000    23462925.980    92073520.891          50.000  
E27  27560557.340   144831664.941          50.000    27560562.460   108153499.398          50.000  
E30  24917652.540   130943105.152          50.000    24917657.360    97782171.680          50.000  
E36  24400997.740   128228070.254          50.000    24401002.660    95754713.875          50.000  
> 2020  7  8 22 31 30.0000000  0 14       0.000000000000
G10  23621346.840   124130954.441          50.000    23621347.840    92695189.211          50.000  
G13  23355753.820   122735362.672          50.000                                                  
G15  21883788.800   114999902.516          50.000                                                  
G16  23697225.800   124529764.660          50.000                                                  
G20  20969416.960   110195029.750          50.000                                                  
G21  23089438.840   121335836.059          50.000                                                  
G26  22466165.900   118060413.945          50.000    22466167.060    88161989.957          50.000  
G29  21109895.360   110933243.559          50.000                                                  
E 2  27091537.680   142366955.410          50.000    27091542.820   106312968.914          50.000  
E 5  24867814.720   130681213.531          50.000    24867819.460    97586606.844          50.000  
E 9  23463022.820   123298997.414          50.000    23463026.760    92073916.387          50.000  
E27  27560406.700   144830873.371          50.000    27560411.840   108152908.289          50.000  
E30  24917944.600   130944639.922          50.000    24917949.420    97783317.773          50.000  
E36  24401187.160   128229065.633          50.000    24401192.080    95755457.180          50.000  
> 2020  7  8 22 31 31.0000000  0 14       0.000000000000
G10  23620743.220   124127782.426          50.000    23620744.220    92692820.500          50.000  
G13  23355728.340   122735228.855          50.000                                                  
G15  21883559.820   114998699.195          50.000                                                  
G16  23696883.040   124527963.496          50.000                                                  
G20  20969048.660   110193094.289          50.000                                                  
G21  23089114.640   121334132.402          50.000                                                  
G26  22466245.920   118060834.488          50.000    22466247.080    88162304.000          50.000  
G29  21110249.120   110935102.672          50.000                                                  
E 2  27092078.300   142369796.387          50.000    27092083.440   106315090.418          50.000  
E 5  24867428.500   130679183.977          50.000    24867433.240    97585091.270          50.000  
E 9  23463123.680   123299527.492          50.000    23463127.640    92074312.223          50.000  
E27  27560256.160   144830082.258          50.000    27560261.280   108152317.523          50.000  
E30  24918236.720   130946175.055          50.000    24918241.540    97784464.137          50.000  
E36  24401376.600   128230061.129          50.000    24401381.500    95756200.566          50.000  
> 2020  7  8 22 31 32.0000000  0 14       0.000000000000
G10  23620139.660   124124610.641          50.000    23620140.640    92690451.961          50.000  
G13  23355703.000   122735095.660          50.000                                                  
G15  21883330.940   114997496.488          50.000                                                  
G16  23696540.400   124526162.898          50.000                                                  
G20  20968680.440   110191159.258          50.000                                                  
G21  23088790.460   121332428.836          50.000                                                  
G26  22466326.060   118061255.645          50.000    22466327.220    88162618.500          50.000  
G29  21110603.000   110936962.242          50.000                                                  
E 2  27092618.920   142372637.359          50.000    27092624.060   106317211.922          50.000  
E 5  24867042.360   130677154.746          50.000    24867047.100    97583575.938          50.000  
E 9  23463224.640   123300058.035          50.000    23463228.580    92074708.410          50.000  
E27  27560105.700   144829291.594          50.000    27560110.820   108151727.094          50.000  
E30  24918528.920   130947710.535          50.000    24918533.740    97785610.762          50.000  
E36  24401566.040   128231056.738          50.000    24401570.960    95756944.043          50.000  
> 2020  7  8 22 31 33.0000000  0 14       0.000000000000
G10  23619536.120   124121439.094          50.000    23619537.120    92688083.598          50.000  
G13  23355677.780   122734963.086          50.000                                                  
G15  21883102.200   114996294.398          50.000                                                  
G16  23696197.860   124524362.871          50.000                                                  
G20  20968312.280   110189224.656          50.000                                                  
G21  23088466.300   121330725.355          50.000                                                  
G26  22466406.320   118061677.387          50.000    22466407.480    88162933.438          50.000  
G29  21110956.940   110938822.281          50.000                                                  
E 2  27093159.540   142375478.332          50.000    27093164.680   106319333.426          50.000  
E 5  24866656.260   130675125.848          50.000    24866661.000    97582060.852          50.000  
E 9  23463325.680   123300589.047          50.000    23463329.640    92075104.941          50.000  
E27  27559955.320   144828501.379          50.000    27559960.460   108151137.000          50.000  
E30  24918821.180   130949246.398          50.000    24918826.000    97786757.672          50.000  
E36  24401755.520   128232052.453          50.000    24401760.440    95757687.594          50.000  
> 2020  7  8 22 31 34.0000000  0 14       0.000000000000
G10  23618932.640   124118267.781          50.000    23618933.640    92685715.418          50.000  
G13  23355652.660   122734831.133          50.000                                                  
G15  21882873.560   114995092.914          50.000                                                  
G16  23695855.440   124522563.402          50.000                                                  
G20  20967944.220   110187290.477          50.000                                                  
G21  23088142.160   121329021.961          50.000                                                  
G26  22466486.680   118062099.727          50.000    22466487.840    88163248.820          50.000  
G29  21111310.980   110940682.781          50.000                                                  
E 2  27093700.160   142378319.313          50.000    27093705.300   106321454.938          50.000  
E 5  24866270.240   130673097.277          50.000    24866274.980    97580546.008          50.000  
E 9  23463426.820   123301120.523          50.000    23463430.780    92075501.824          50.000  
E27  27559805.020   144827711.621          50.000    27559810.160   108150547.242          50.000  
E30  24919113.500   130950782.625          50.000    24919118.340    97787904.852          50.000  
E36  24401945.020   128233048.285          50.000    24401949.940    95758431.234          50.000  
> 2020  7  8 22 31 35.0000000  0 14       0.000000000000
G10  23618329.200   124115096.707          50.000    23618330.200    92683347.410          50.000  
G13  23355627.660   122734699.801          50.000                                                  
G15  21882645.040   114993892.055          50.000                                                  
G16  23695513.120   124520764.496          50.000                                                  
G20  20967576.240   110185356.723          50.000                                                  
G21  23087818.020   121327318.652          50.000                                                  
G26  22466567.160   118062522.656          50.000    22466568.320    88163564.648          50.000  
G29  21111665.120   110942543.746          50.000                                                  
E 2  27094240.780   142381160.293          50.000    27094245.920   106323576.449          50.000  
E 5  24865884.280   130671069.043          50.000    24865889.020    97579031.422          50.000  
E 9  23463528.040   123301652.465          50.000    23463532.000    92075899.055          50.000  
E27  27559654.820   144826922.313          50.000    27559659.960   108149957.824          50.000  
E30  24919405.900   130952319.203          50.000    24919410.740    97789052.297          50.000  
E36  24402134.540   128234044.234          50.000    24402139.460    95759174.965          50.000  
> 2020  7  8 22 31 36.0000000  0 14       0.000000000000
G10  23617725.820   124111925.879          50.000    23617726.800    92680979.590          50.000  
G13  23355602.800   122734569.074          50.000                                                  
G15  21882416.640   114992691.801          50.000                                                  
G16  23695170.900   124518966.164          50.000                                                  
G20  20967208.340   110183423.410          50.000                                                  
G21  23087493.920   121325615.430          50.000                                                  
G26  22466647.760   118062946.188          50.000    22466648.920    88163880.926          50.000  
G29  21112019.340   110944405.172          50.000                                                  
E 2  27094781.400   142384001.277          50.000    27094786.540   106325697.961          50.000  
E 5  24865498.380   130669041.125          50.000    24865503.120    97577517.066          50.000  
E 9  23463629.360   123302184.875          50.000    23463633.300    92076296.633          50.000  
E27  27559504.700   144826133.445          50.000    27559509.840   108149368.738          50.000  
E30  24919698.380   130953856.156          50.000    24919703.200    97790200.023          50.000  
E36  24402324.080   128235040.289          50.000    24402329.000    95759918.770          50.000  
> 2020  7  8 22 31 37.0000000  0 14       0.000000000000
G10  23617122.460   124108755.281          50.000    23617123.460    92678611.941          50.000  
G13  23355578.040   122734438.984          50.000                                                  
G15  21882188.360   114991492.164          50.000                                                  
G16  23694828.800   124517168.402          50.000                                                  
G20  20966840.540   110181490.531          50.000                                                  
G21  23087169.820   121323912.289          50.000                                                  
G26  22466728.460   118063370.305          50.000    22466729.620    88164197.641          50.000  
G29  21112373.640   110946267.074          50.000                                                  
E 2  27095322.020   142386842.266          50.000    27095327.160   106327819.477          50.000  
E 5  24865112.540   130667013.547          50.000    24865117.280    97576002.965          50.000  
E 9  23463730.760   123302717.742          50.000    23463734.700    92076694.551          50.000  
E27  27559354.680   144825345.035          50.000    27559359.820   108148779.988          50.000  
E30  24919990.920   130955393.461          50.000    24919995.740    97791348.008          50.000  
E36  24402513.640   128236036.461          50.000    24402518.560    95760662.664          50.000  
> 2020  7  8 22 31 38.0000000  0 14       0.000000000000
G10  23616519.160   124105584.922          50.000    23616520.160    92676244.469          50.000  
G13  23355553.400   122734309.523          50.000                                                  
G15  21881960.200   114990293.141          50.000                                                  
G16  23694486.800   124515371.199          50.000                                                  
G20  20966472.800   110179558.074          50.000                                                  
G21  23086845.740   121322209.246          50.000                                                  
G26  22466809.300   118063795.039          50.000    22466810.460    88164514.816          50.000  
G29  21112728.040   110948129.438          50.000                                                  
E 2  27095862.640   142389683.246          50.000    27095867.780   106329940.988          50.000  
E 5  24864726.760   130664986.297          50.000    24864731.500    97574489.109          50.000  
E 9  23463832.240   123303251.090          50.000    23463836.200    92077092.832          50.000  
E27  27559204.740   144824557.082          50.000    27559209.860   108148191.582          50.000  
E30  24920283.520   130956931.137          50.000    24920288.360    97792496.273          50.000  
E36  24402703.240   128237032.746          50.000    24402708.160    95761406.645          50.000  
> 2020  7  8 22 31 39.0000000  0 14       0.000000000000
G10  23615915.920   124102414.793          50.000    23615916.900    92673877.176          50.000  
G13  23355528.880   122734180.668          50.000                                                  
G15  21881732.140   114989094.742          50.000                                                  
G16  23694144.920   124513574.566          50.000                                                  
G20  20966105.140   110177626.059          50.000                                                  
G21  23086521.680   121320506.285          50.000                                                  
G26  22466890.220   118064220.344          50.000    22466891.380    88164832.418          50.000  
G29  21113082.520   110949992.270          50.000                                                  
E 2  27096403.260   142392524.238          50.000    27096408.400   106332062.504          50.000  
E 5  24864341.040   130662959.371          50.000    24864345.780    97572975.496          50.000  
E 9  23463933.820   123303784.902          50.000    23463937.780    92077491.457          50.000  
E27  27559054.880   144823769.570          50.000    27559060.000   108147603.508          50.000  
E30  24920576.200   130958469.176          50.000    24920581.020    97793644.805          50.000  
E36  24402892.840   128238029.148          50.000    24402897.760    95762150.711          50.000  
> 2020  7  8 22 31 40.0000000  0 14       0.000000000000
G10  23615312.700   124099244.918          50.000    23615313.680    92671510.063          50.000  
G13  23355504.480   122734052.445          50.000                                                  
G15  21881504.220   114987896.961          50.000                                                  
G16  23693803.140   124511778.500          50.000                                                  
G20  20965737.580   110175694.477          50.000                                                  
G21  23086197.620   121318803.402          50.000                                                  
G26  22466971.280   118064646.246          50.000    22466972.440    88165150.465          50.000  
G29  21113437.100   110951855.563          50.000                                                  
E 2  27096943.880   142395365.230          50.000    27096949.020   106334184.023          50.000  
E 5  24863955.400   130660932.785          50.000    24863960.140    97571462.141          50.000  
E 9  23464035.500   123304319.172          50.000    23464039.440    92077890.426          50.000  
E27  27558905.100   144822982.523          50.000    27558910.240   108147015.777          50.000  
E30  24920868.960   130960007.578          50.000    24920873.780    97794793.609          50.000  
E36  24403082.460   128239025.656          50.000    24403087.380    95762894.855          50.000  
> 2020  7  8 22 31 41.0000000  0 14       0.000000000000
G10  23614709.540   124096075.281          50.000    23614710.520    92669143.133          50.000  
G13  23355480.200   122733924.848          50.000                                                  
G15  21881276.400   114986699.781          50.000                                                  
G16  23693461.460   124509983.004          50.000                                                  
G20  20965370.100   110173763.320          50.000                                                  
G21  23085873.600   121317100.613          50.000                                                  
G26  22467052.440   118065072.762          50.000    22467053.600    88165468.973          50.000  
G29  21113791.760   110953719.324          50.000                                                  
E 2  27097484.500   142398206.223          50.000    27097489.640   106336305.543          50.000  
E 5  24863569.800   130658906.523          50.000    24863574.560    97569949.020          50.000  
E 9  23464137.240   123304853.918          50.000    23464141.200    92078289.750          50.000  
E27  27558755.420   144822195.930          50.000    27558760.540   108146428.387          50.000  
E30  24921161.760   130961546.340          50.000    24921166.600    97795942.688          50.000  
E36  24403272.120   128240022.285          50.000    24403277.040    95763639.090          50.000  
> 2020  7  8 22 31 42.0000000  0 14       0.000000000000
G10  23614106.420   124092905.871          50.000    23614107.400    92666776.371          50.000  
G13  23355456.040   122733797.855          50.000                                                  
G15  21881048.700   114985503.234          50.000                                                  
G16  23693119.900   124508188.070          50.000                                                  
G20  20965002.680   110171832.602          50.000                                                  
G21  23085549.580   121315397.910          50.000                                                  
G26  22467133.720   118065499.879          50.000    22467134.880    88165787.926          50.000  
G29  21114146.520   110955583.563          50.000                                                  
E 2  27098025.120   142401047.211          50.000    27098030.280   106338427.059          50.000  
E 5  24863184.280   130656880.586          50.000    24863189.020    97568436.148          50.000  
E 9  23464239.100   123305389.117          50.000    23464243.040    92078689.410          50.000  
E27  27558605.820   144821409.781          50.000    27558610.940   108145841.328          50.000  
E30  24921454.660   130963085.469          50.000    24921459.480    97797092.035          50.000  
E36  24403461.780   128241019.023          50.000    24403466.700    95764383.410          50.000  
> 2020  7  8 22 31 43.0000000  0 14       0.000000000000
G10  23613503.340   124089736.711          50.000    23613504.320    92664409.797          50.000  
G13  23355431.980   122733671.492          50.000                                                  
G15  21880821.120   114984307.297          50.000                                                  
G16  23692778.440   124506393.699          50.000                                                  
G20  20964635.360   110169902.301          50.000                                                  
G21  23085225.580   121313695.293          50.000                                                  
G26  22467215.100   118065927.570          50.000    22467216.260    88166107.309          50.000  
G29  21114501.360   110957448.246          50.000                                                  
E 2  27098565.740   142403888.199          50.000    27098570.900   106340548.574          50.000  
E 5  24862798.820   130654854.988          50.000    24862803.560    97566923.523          50.000  
E 9  23464341.020   123305924.789          50.000    23464344.980    92079089.426          50.000  
E27  27558456.300   144820624.090          50.000    27558461.440   108145254.609          50.000  
E30  24921747.600   130964624.953          50.000    24921752.420    97798241.648          50.000  
E36  24403651.480   128242015.871          50.000    24403656.400    95765127.809          50.000  
> 2020  7  8 22 31 44.0000000  0 14       0.000000000000
G10  23612900.320   124086567.781          50.000    23612901.300    92662043.391          50.000  
G13  23355408.060   122733545.746          50.000                                                  
G15  21880593.660   114983111.969          50.000                                                  
G16  23692437.080   124504599.891          50.000                                                  
G20  20964268.120   110167972.441          50.000                                                  
G21  23084901.600   121311992.758          50.000                                                  
G26  22467296.600   118066355.871          50.000    22467297.760    88166427.148          50.000  
G29  21114856.280   110959313.410          50.000                                                  
E 2  27099106.360   142406729.191          50.000    27099111.520   106342670.090          50.000  
E 5  24862413.420   130652829.707          50.000    24862418.160    97565411.141          50.000  
E 9  23464443.040   123306460.926          50.000    23464447.000    92079489.785          50.000  
E27  27558306.860   144819838.844          50.000    27558312.000   108144668.227          50.000  
E30  24922040.620   130966164.801          50.000    24922045.460    97799391.535          50.000  
E36  24403841.200   128243012.828          50.000    24403846.120    95765872.285          50.000  
> 2020  7  8 22 31 45.0000000  0 14       0.000000000000
G10  23612297.340   124083399.086          50.000    23612298.320    92659677.164          50.000  
G13  23355384.240   122733420.621          50.000                                                  
G15  21880366.320   114981917.266          50.000                                                  
G16  23692095.840   124502806.648          50.000                                                  
G20  20963900.960   110166043.004          50.000                                                  
G21  23084577.640   121310290.313          50.000                                                  
G26  22467378.220   118066784.754          50.000    22467379.380    88166747.418          50.000  
G29  21115211.300   110961179.031          50.000                                                  
E 2  27099646.980   142409570.180          50.000    27099652.140   106344791.609          50.000  
E 5  24862028.080   130650804.758          50.000    24862032.820    97563899.004          50.000  
E 9  23464545.160   123306997.527          50.000    23464549.100    92079890.496          50.000  
E27  27558157.520   144819054.043          50.000    27558162.660   108144082.172          50.000  
E30  24922333.720   130967705.016          50.000    24922338.540    97800541.695          50.000  
E36  24404030.920   128244009.902          50.000    24404035.840    95766616.855          50.000  
> 2020  7  8 22 31 46.0000000  0 14       0.000000000000
G10  23611694.400   124080230.645          50.000    23611695.380    92657311.125          50.000  
G13  23355360.560   122733296.117          50.000                                                  
G15  21880139.080   114980723.172          50.000                                                  
G16  23691754.700   124501013.977          50.000                                                  
G20  20963533.880   110164113.992          50.000                                                  
G21  23084253.680   121308587.949          50.000                                                  
G26  22467459.940   118067214.238          50.000    22467461.100    88167068.145          50.000  
G29  21115566.400   110963045.129          50.000                                                  
E 2  27100187.600   142412411.168          50.000    27100192.760   106346913.125          50.000  
E 5  24861642.820   130648780.141          50.000    24861647.560    97562387.117          50.000  
E 9  23464647.360   123307534.598          50.000    23464651.300    92080291.551          50.000  
E27  27558008.260   144818269.711          50.000    27558013.400   108143496.469          50.000  
E30  24922626.880   130969245.586          50.000    24922631.700    97801692.121          50.000  
E36  24404220.680   128245007.094          50.000    24404225.600    95767361.512          50.000  
> 2020  7  8 22 31 47.0000000  0 14       0.000000000000
G10  23611091.500   124077062.434          50.000    23611092.480    92654945.258          50.000  
G13  23355336.980   122733172.250          50.000                                                  
G15  21879911.980   114979529.695          50.000                                                  
G16  23691413.680   124499221.867          50.000                                                  
G20  20963166.900   110162185.438          50.000                                                  
G21  23083929.760   121306885.672          50.000                                                  
G26  22467541.780   118067644.320          50.000    22467542.940    88167389.309          50.000  
G29  21115921.600   110964911.688          50.000                                                  
E 2  27100728.220   142415252.168          50.000    27100733.380   106349034.648          50.000  
E 5  24861257.600   130646755.855          50.000    24861262.340    97560875.477          50.000  
E 9  23464749.640   123308072.133          50.000    23464753.600    92080692.961          50.000  
E27  27557859.100   144817485.809          50.000    27557864.220   108142911.090          50.000  
E30  24922920.100   130970786.531          50.000    24922924.940    97802842.824          50.000  
E36  24404410.460   128246004.398          50.000    24404415.380    95768106.250          50.000  
> 2020  7  8 22 31 48.0000000  0 14       0.000000000000
G10  23610488.660   124073894.465          50.000    23610489.640    92652579.574          50.000  
G13  23355313.520   122733048.988          50.000                                                  
G15  21879684.980   114978336.828          50.000                                                  
G16  23691072.760   124497430.320          50.000                                                  
G20  20962799.980   110160257.289          50.000                                                  
G21  23083605.840   121305183.480          50.000                                                  
G26  22467623.740   118068074.988          50.000    22467624.900    88167710.918          50.000  
G29  21116276.880   110966778.711          50.000                                                  
E 2  27101268.840   142418093.148          50.000    27101274.000   106351156.160          50.000  
E 5  24860872.460   130644731.906          50.000    24860877.200    97559364.082          50.000  
E 9  23464852.020   123308610.137          50.000    23464855.980    92081094.715          50.000  
E27  27557710.020   144816702.379          50.000    27557715.140   108142326.063          50.000  
E30  24923213.400   130972327.840          50.000    24923218.240    97803993.801          50.000  
E36  24404600.260   128247001.813          50.000    24404605.180    95768851.074          50.000  
