     3.03           OBSERVATION DATA    M: Mixed            RINEX VERSION / TYPE
sbp2rinex v2.2 (RTKL                    20210504 171527 UTC PGM / RUN BY / DATE 
log: 2020-07-17-US-MTV-2.sbp                                COMMENT             
format: Swift Navigation SBP, option: CONVBASE,EPHALL,OBSALLCOMMENT             
                                                            MARKER NAME         
                                                            MARKER NUMBER       
                                                            MARKER TYPE         
                                                            OBSERVER / AGENCY   
                                                            REC # / TYPE / VERS 
                                                            ANT # / TYPE        
 -2742473.4592 -4329277.7197  3784232.9349                  APPROX POSITION XYZ 
        0.0000        0.0000        0.0000                  ANTENNA: DELTA H/E/N
G    6 C1C L1C S1C C5I L5I S5I                              SYS / # / OBS TYPES 
E    6 C1B L1B S1B C5I L5I S5I                              SYS / # / OBS TYPES 
  2020     7    17    23    12   17.0000000     GPS         TIME OF FIRST OBS   
  2020     7    17    23    42   21.0000000     GPS         TIME OF LAST OBS    
G                                                           SYS / PHASE SHIFT   
E                                                           SYS / PHASE SHIFT   
  0                                                         GLONASS SLOT / FRQ #
 C1C    0.000 C1P    0.000 C2C    0.000 C2P    0.000        GLONASS COD/PHS/BIS 
                                                            END OF HEADER       
> 2020  7 17 23 12 17.0000000  0 11       0.000000000000
G10  21432615.580   112629104.664          50.000    21432615.720    84106148.777          50.000  
G13  24513284.820   128818216.953          50.000                                                  
G15  22202920.160   116676944.449          50.000                                                  
G16  23353619.000   122724090.594          50.000                                                  
G20  20158780.180   105935105.508          50.000                                                  
G21  22005650.280   115640492.582          50.000                                                  
G26  23844914.660   125305760.934          50.000    23844917.860    93572468.480          50.000  
G27  22885669.760   120264956.992          50.000    22885671.160    89808247.082          50.000  
G29  23581263.260   123920340.051          50.000                                                  
E13  23782231.480   124976450.516          50.000    23782235.180    93326558.969          50.000  
E15  27255455.840   143228323.672          50.000    27255463.060   106956194.395          50.000  
> 2020  7 17 23 12 18.0000000  0 11       0.000000000000
G10  21432304.820   112627471.574          50.000    21432304.940    84104929.262          50.000  
G13  24513774.940   128820792.570          50.000                                                  
G15  22203280.000   116678835.496          50.000                                                  
G16  23353814.620   122725118.520          50.000                                                  
G20  20158798.300   105935200.703          50.000                                                  
G21  22005365.740   115638997.219          50.000                                                  
G26  23845375.720   125308183.801          50.000    23845378.920    93574277.762          50.000  
G27  22885126.320   120262101.148          50.000    22885127.700    89806114.473          50.000  
G29  23581939.960   123923896.094          50.000                                                  
E13  23782356.800   124977109.160          50.000    23782360.520    93327050.813          50.000  
E15  27255853.860   143230415.320          50.000    27255861.080   106957756.340          50.000  
> 2020  7 17 23 12 19.0000000  0 11       0.000000000000
G10  21431994.120   112625838.875          50.000    21431994.260    84103710.039          50.000  
G13  24514265.140   128823368.641          50.000                                                  
G15  22203639.980   116680727.145          50.000                                                  
G16  23354010.320   122726147.023          50.000                                                  
G20  20158816.480   105935296.285          50.000                                                  
G21  22005081.200   115637501.961          50.000                                                  
G26  23845836.800   125310606.867          50.000    23845840.020    93576087.191          50.000  
G27  22884582.940   120259245.660          50.000    22884584.320    89803982.129          50.000  
G29  23582616.700   123927452.375          50.000                                                  
E13  23782482.180   124977768.012          50.000    23782485.900    93327542.813          50.000  
E15  27256251.920   143232507.109          50.000    27256259.140   106959318.387          50.000  
> 2020  7 17 23 12 20.0000000  0 11       0.000000000000
G10  21431683.500   112624206.559          50.000    21431683.640    84102491.102          50.000  
G13  24514755.440   128825945.164          50.000                                                  
G15  22204000.060   116682619.398          50.000                                                  
G16  23354206.160   122727176.078          50.000                                                  
G20  20158834.740   105935392.254          50.000                                                  
G21  22004796.680   115636006.789          50.000                                                  
G26  23846297.940   125313030.133          50.000    23846301.160    93577896.773          50.000  
G27  22884039.620   120256390.520          50.000    22884041.000    89801850.043          50.000  
G29  23583293.480   123931008.867          50.000                                                  
E13  23782607.600   124978427.082          50.000    23782611.320    93328034.977          50.000  
E15  27256650.000   143234599.016          50.000    27256657.220   106960880.523          50.000  
> 2020  7 17 23 12 21.0000000  0 11       0.000000000000
G10  21431372.960   112622574.629          50.000    21431373.080    84101272.453          50.000  
G13  24515245.820   128828522.137          50.000                                                  
G15  22204360.260   116684512.254          50.000                                                  
G16  23354402.080   122728205.691          50.000                                                  
G20  20158853.080   105935488.617          50.000                                                  
G21  22004512.160   115634511.719          50.000                                                  
G26  23846759.120   125315453.605          50.000    23846762.320    93579706.508          50.000  
G27  22883496.360   120253535.719          50.000    22883497.760    89799718.211          50.000  
G29  23583970.300   123934565.586          50.000                                                  
E13  23782733.060   124979086.387          50.000    23782736.780    93328527.313          50.000  
E15  27257048.100   143236691.070          50.000    27257055.320   106962442.770          50.000  
> 2020  7 17 23 12 22.0000000  0 11       0.000000000000
G10  21431062.480   112620943.078          50.000    21431062.620    84100054.086          50.000  
G13  24515736.300   128831099.566          50.000                                                  
G15  22204720.580   116686405.723          50.000                                                  
G16  23354598.120   122729235.863          50.000                                                  
G20  20158871.500   105935585.363          50.000                                                  
G21  22004227.680   115633016.738          50.000                                                  
G26  23847220.320   125317877.273          50.000    23847223.540    93581516.391          50.000  
G27  22882953.180   120250681.270          50.000    22882954.580    89797586.645          50.000  
G29  23584647.160   123938122.520          50.000                                                  
E13  23782858.560   124979745.902          50.000    23782862.280    93329019.809          50.000  
E15  27257446.220   143238783.258          50.000    27257453.460   106964005.121          50.000  
> 2020  7 17 23 12 23.0000000  0 11       0.000000000000
G10  21430752.080   112619311.895          50.000    21430752.200    84098835.996          50.000  
G13  24516226.840   128833677.434          50.000                                                  
G15  22205081.000   116688299.781          50.000                                                  
G16  23354794.260   122730266.590          50.000                                                  
G20  20158889.980   105935682.512          50.000                                                  
G21  22003943.220   115631521.848          50.000                                                  
G26  23847681.580   125320301.148          50.000    23847684.780    93583326.426          50.000  
G27  22882410.060   120247827.168          50.000    22882411.460    89795455.336          50.000  
G29  23585324.060   123941679.680          50.000                                                  
E13  23782984.100   124980405.637          50.000    23782987.820    93329512.469          50.000  
E15  27257844.380   143240875.578          50.000    27257851.620   106965567.566          50.000  
> 2020  7 17 23 12 24.0000000  0 11       0.000000000000
G10  21430441.740   112617681.098          50.000    21430441.880    84097618.195          50.000  
G13  24516717.480   128836255.750          50.000                                                  
G15  22205441.540   116690194.445          50.000                                                  
G16  23354990.500   122731297.867          50.000                                                  
G20  20158908.540   105935780.047          50.000                                                  
G21  22003658.760   115630027.063          50.000                                                  
G26  23848142.860   125322725.219          50.000    23848146.080    93585136.605          50.000  
G27  22881867.020   120244973.410          50.000    22881868.400    89793324.281          50.000  
G29  23586001.020   123945237.059          50.000                                                  
E13  23783109.700   124981065.582          50.000    23783113.400    93330005.285          50.000  
E15  27258242.560   143242968.023          50.000    27258249.800   106967130.102          50.000  
> 2020  7 17 23 12 25.0000000  0 11       0.000000000000
G10  21430131.480   112616050.688          50.000    21430131.620    84096400.680          50.000  
G13  24517208.220   128838834.523          50.000                                                  
G15  22205802.200   116692089.711          50.000                                                  
G16  23355186.860   122732329.707          50.000                                                  
G20  20158927.180   105935877.969          50.000                                                  
G21  22003374.340   115628532.355          50.000                                                  
G26  23848604.180   125325149.488          50.000    23848607.400    93586946.934          50.000  
G27  22881324.020   120242119.992          50.000    22881325.420    89791193.484          50.000  
G29  23586678.000   123948794.668          50.000                                                  
E13  23783235.320   124981725.742          50.000    23783239.020    93330498.262          50.000  
E15  27258640.780   143245060.613          50.000    27258648.000   106968692.754          50.000  
> 2020  7 17 23 12 26.0000000  0 11       0.000000000000
G10  21429821.300   112614420.660          50.000    21429821.440    84095183.453          50.000  
G13  24517699.020   128841413.750          50.000                                                  
G15  22206162.980   116693985.590          50.000                                                  
G16  23355383.320   122733362.094          50.000                                                  
G20  20158945.880   105935976.281          50.000                                                  
G21  22003089.920   115627037.750          50.000                                                  
G26  23849065.540   125327573.969          50.000    23849068.760    93588757.422          50.000  
G27  22880781.100   120239266.930          50.000    22880782.500    89789062.953          50.000  
G29  23587355.040   123952352.484          50.000                                                  
E13  23783360.980   124982386.133          50.000    23783364.700    93330991.406          50.000  
E15  27259039.000   143247153.328          50.000    27259046.240   106970255.492          50.000  
> 2020  7 17 23 12 27.0000000  0 11       0.000000000000
G10  21429511.200   112612791.012          50.000    21429511.320    84093966.508          50.000  
G13  24518189.920   128843993.422          50.000                                                  
G15  22206523.860   116695882.059          50.000                                                  
G16  23355579.880   122734395.039          50.000                                                  
G20  20158964.660   105936074.988          50.000                                                  
G21  22002805.520   115625543.238          50.000                                                  
G26  23849526.940   125329998.645          50.000    23849530.160    93590568.059          50.000  
G27  22880238.240   120236414.219          50.000    22880239.640    89786932.680          50.000  
G29  23588032.120   123955910.520          50.000                                                  
E13  23783486.700   124983046.727          50.000    23783490.400    93331484.707          50.000  
E15  27259437.260   143249246.180          50.000    27259444.500   106971818.332          50.000  
> 2020  7 17 23 12 28.0000000  0 11       0.000000000000
G10  21429201.160   112611161.738          50.000    21429201.280    84092749.844          50.000  
G13  24518680.900   128846573.547          50.000                                                  
G15  22206884.860   116697779.137          50.000                                                  
G16  23355776.540   122735428.535          50.000                                                  
G20  20158983.520   105936174.082          50.000                                                  
G21  22002521.140   115624048.813          50.000                                                  
G26  23849988.380   125332423.520          50.000    23849991.600    93592378.836          50.000  
G27  22879695.460   120233561.848          50.000    22879696.840    89784802.664          50.000  
G29  23588709.220   123959468.773          50.000                                                  
E13  23783612.440   124983707.551          50.000    23783616.160    93331978.180          50.000  
E15  27259835.540   143251339.164          50.000    27259842.780   106973381.277          50.000  
> 2020  7 17 23 12 29.0000000  0 11       0.000000000000
G10  21428891.180   112609532.863          50.000    21428891.320    84091533.477          50.000  
G13  24519171.960   128849154.117          50.000                                                  
G15  22207245.980   116699676.820          50.000                                                  
G16  23355973.320   122736462.602          50.000                                                  
G20  20159002.460   105936273.586          50.000                                                  
G21  22002236.780   115622554.480          50.000                                                  
G26  23850449.860   125334848.598          50.000    23850453.080    93594189.770          50.000  
G27  22879152.740   120230709.836          50.000    22879154.120    89782672.918          50.000  
G29  23589386.380   123963027.270          50.000                                                  
E13  23783738.240   124984368.598          50.000    23783741.940    93332471.820          50.000  
E15  27260233.860   143253432.293          50.000    27260241.080   106974944.324          50.000  
> 2020  7 17 23 12 30.0000000  0 11       0.000000000000
G10  21428581.300   112607904.355          50.000    21428581.420    84090317.383          50.000  
G13  24519663.120   128851735.141          50.000                                                  
G15  22207607.220   116701575.102          50.000                                                  
G16  23356170.200   122737497.211          50.000                                                  
G20  20159021.460   105936373.469          50.000                                                  
G21  22001952.440   115621060.246          50.000                                                  
G26  23850911.380   125337273.879          50.000    23850914.600    93596000.855          50.000  
G27  22878610.080   120227858.160          50.000    22878611.480    89780543.422          50.000  
G29  23590063.580   123966585.961          50.000                                                  
E13  23783864.060   124985029.852          50.000    23783867.780    93332965.613          50.000  
E15  27260632.180   143255525.547          50.000    27260639.420   106976507.469          50.000  
> 2020  7 17 23 12 31.0000000  0 11       0.000000000000
G10  21428271.460   112606276.234          50.000    21428271.600    84089101.582          50.000  
G13  24520154.360   128854316.617          50.000                                                  
G15  22207968.560   116703473.996          50.000                                                  
G16  23356367.180   122738532.379          50.000                                                  
G20  20159040.540   105936473.738          50.000                                                  
G21  22001668.100   115619566.102          50.000                                                  
G26  23851372.940   125339699.352          50.000    23851376.160    93597812.086          50.000  
G27  22878067.500   120225006.832          50.000    22878068.880    89778414.184          50.000  
G29  23590740.820   123970144.875          50.000                                                  
E13  23783989.940   124985691.336          50.000    23783993.660    93333459.578          50.000  
E15  27261030.540   143257618.930          50.000    27261037.780   106978070.707          50.000  
> 2020  7 17 23 12 32.0000000  0 11       0.000000000000
G10  21427961.720   112604648.488          50.000    21427961.840    84087886.059          50.000  
G13  24520645.680   128856898.543          50.000                                                  
G15  22208330.020   116705373.480          50.000                                                  
G16  23356564.280   122739568.082          50.000                                                  
G20  20159059.700   105936574.398          50.000                                                  
G21  22001383.800   115618072.047          50.000                                                  
G26  23851834.520   125342125.031          50.000    23851837.740    93599623.469          50.000  
G27  22877524.960   120222155.855          50.000    22877526.360    89776285.207          50.000  
G29  23591418.100   123973704.016          50.000                                                  
E13  23784115.860   124986353.027          50.000    23784119.580    93333953.699          50.000  
E15  27261428.920   143259712.445          50.000    27261436.160   106979634.047          50.000  
> 2020  7 17 23 12 33.0000000  0 11       0.000000000000
G10  21427652.040   112603021.121          50.000    21427652.180    84086670.816          50.000  
G13  24521137.080   128859480.902          50.000                                                  
G15  22208691.600   116707273.570          50.000                                                  
G16  23356761.480   122740604.355          50.000                                                  
G20  20159078.940   105936675.457          50.000                                                  
G21  22001099.500   115616578.082          50.000                                                  
G26  23852296.160   125344550.910          50.000    23852299.380    93601435.000          50.000  
G27  22876982.520   120219305.223          50.000    22876983.900    89774156.492          50.000  
G29  23592095.420   123977263.363          50.000                                                  
E13  23784241.820   124987014.941          50.000    23784245.520    93334447.984          50.000  
E15  27261827.340   143261806.117          50.000    27261834.580   106981197.500          50.000  
> 2020  7 17 23 12 34.0000000  0 11       0.000000000000
G10  21427342.440   112601394.141          50.000    21427342.560    84085455.863          50.000  
G13  24521628.580   128862063.723          50.000                                                  
G15  22209053.280   116709174.258          50.000                                                  
G16  23356958.780   122741641.188          50.000                                                  
G20  20159098.240   105936776.902          50.000                                                  
G21  22000815.240   115615084.203          50.000                                                  
G26  23852757.820   125346976.977          50.000    23852761.040    93603246.672          50.000  
G27  22876440.120   120216454.938          50.000    22876441.500    89772028.031          50.000  
G29  23592772.800   123980822.938          50.000                                                  
E13  23784367.820   124987677.066          50.000    23784371.520    93334942.430          50.000  
E15  27262225.780   143263899.910          50.000    27262233.020   106982761.047          50.000  
> 2020  7 17 23 12 35.0000000  0 11       0.000000000000
G10  21427032.900   112599767.547          50.000    21427033.040    84084241.199          50.000  
G13  24522120.160   128864646.984          50.000                                                  
G15  22209415.100   116711075.543          50.000                                                  
G16  23357156.180   122742678.563          50.000                                                  
G20  20159117.620   105936878.742          50.000                                                  
G21  22000530.980   115613590.426          50.000                                                  
G26  23853219.520   125349403.262          50.000    23853222.740    93605058.508          50.000  
G27  22875897.800   120213605.012          50.000    22875899.180    89769899.840          50.000  
G29  23593450.200   123984382.727          50.000                                                  
E13  23784493.860   124988339.422          50.000    23784497.580    93335437.043          50.000  
E15  27262624.240   143265993.844          50.000    27262631.480   106984324.695          50.000  
> 2020  7 17 23 12 36.0000000  0 11       0.000000000000
G10  21426723.440   112598141.332          50.000    21426723.580    84083026.816          50.000  
G13  24522611.820   128867230.703          50.000                                                  
G15  22209777.020   116712977.445          50.000                                                  
G16  23357353.700   122743716.512          50.000                                                  
G20  20159137.060   105936980.973          50.000                                                  
G21  22000246.740   115612096.750          50.000                                                  
G26  23853681.280   125351829.738          50.000    23853684.500    93606870.484          50.000  
G27  22875355.540   120210755.426          50.000    22875356.920    89767771.906          50.000  
G29  23594127.640   123987942.730          50.000                                                  
E13  23784619.940   124989001.996          50.000    23784623.660    93335931.824          50.000  
E15  27263022.720   143268087.895          50.000    27263029.960   106985888.434          50.000  
> 2020  7 17 23 12 37.0000000  0 11       0.000000000000
G10  21426414.060   112596515.488          50.000    21426414.180    84081812.715          50.000  
G13  24523103.580   128869814.867          50.000                                                  
G15  22210139.040   116714879.945          50.000                                                  
G16  23357551.320   122744755.004          50.000                                                  
G20  20159156.600   105937083.586          50.000                                                  
G21  21999962.520   115610603.156          50.000                                                  
G26  23854143.060   125354256.410          50.000    23854146.280    93608682.609          50.000  
G27  22874813.340   120207906.191          50.000    22874814.740    89765644.230          50.000  
G29  23594805.140   123991502.969          50.000                                                  
E13  23784746.060   124989664.785          50.000    23784749.780    93336426.762          50.000  
E15  27263421.240   143270182.086          50.000    27263428.480   106987452.277          50.000  
> 2020  7 17 23 12 38.0000000  0 11       0.000000000000
G10  21426104.740   112594890.035          50.000    21426104.880    84080598.902          50.000  
G13  24523595.420   128872399.484          50.000                                                  
G15  22210501.200   116716783.039          50.000                                                  
G16  23357749.040   122745794.059          50.000                                                  
G20  20159176.200   105937186.602          50.000                                                  
G21  21999678.320   115609109.660          50.000                                                  
G26  23854604.880   125356683.289          50.000    23854608.100    93610494.887          50.000  
G27  22874271.220   120205057.301          50.000    22874272.600    89763516.816          50.000  
G29  23595482.680   123995063.426          50.000                                                  
E13  23784872.240   124990327.789          50.000    23784875.940    93336921.863          50.000  
E15  27263819.780   143272276.410          50.000    27263827.020   106989016.219          50.000  
> 2020  7 17 23 12 39.0000000  0 11       0.000000000000
G10  21425795.500   112593264.965          50.000    21425795.640    84079385.379          50.000  
G13  24524087.340   128874984.551          50.000                                                  
G15  22210863.460   116718686.746          50.000                                                  
G16  23357946.880   122746833.668          50.000                                                  
G20  20159195.880   105937289.992          50.000                                                  
G21  21999394.120   115607616.262          50.000                                                  
G26  23855066.740   125359110.363          50.000    23855069.960    93612307.313          50.000  
G27  22873729.160   120202208.762          50.000    22873730.540    89761389.660          50.000  
G29  23596160.240   123998624.094          50.000                                                  
E13  23784998.440   124990991.016          50.000    23785002.160    93337417.129          50.000  
E15  27264218.340   143274370.879          50.000    27264225.580   106990580.270          50.000  
> 2020  7 17 23 12 40.0000000  0 11       0.000000000000
G10  21425486.340   112591640.273          50.000    21425486.460    84078172.133          50.000  
G13  24524579.340   128877570.063          50.000                                                  
G15  22211225.840   116720591.039          50.000                                                  
G16  23358144.820   122747873.824          50.000                                                  
G20  20159215.620   105937393.785          50.000                                                  
G21  21999109.960   115606122.953          50.000                                                  
G26  23855528.620   125361537.645          50.000    23855531.860    93614119.887          50.000  
G27  22873187.160   120199360.578          50.000    22873188.560    89759262.770          50.000  
G29  23596837.860   124002184.992          50.000                                                  
E13  23785124.700   124991654.465          50.000    23785128.400    93337912.559          50.000  
E15  27264616.920   143276465.473          50.000    27264624.160   106992144.414          50.000  
> 2020  7 17 23 12 41.0000000  0 11       0.000000000000
G10  21425177.240   112590015.980          50.000    21425177.380    84076959.188          50.000  
G13  24525071.440   128880156.012          50.000                                                  
G15  22211588.320   116722495.938          50.000                                                  
G16  23358342.860   122748914.543          50.000                                                  
G20  20159235.440   105937497.961          50.000                                                  
G21  21998825.800   115604629.730          50.000                                                  
G26  23855990.560   125363965.117          50.000    23855993.780    93615932.609          50.000  
G27  22872645.240   120196512.742          50.000    22872646.620    89757136.141          50.000  
G29  23597515.520   124005746.102          50.000                                                  
E13  23785250.980   124992318.129          50.000    23785254.700    93338408.156          50.000  
E15  27265015.540   143278560.191          50.000    27265022.780   106993708.648          50.000  
> 2020  7 17 23 12 42.0000000  0 11       0.000000000000
G10  21424868.220   112588392.055          50.000    21424868.340    84075746.516          50.000  
G13  24525563.620   128882742.430          50.000                                                  
G15  22211950.920   116724401.434          50.000                                                  
G16  23358541.000   122749955.816          50.000                                                  
G20  20159255.360   105937602.543          50.000                                                  
G21  21998541.680   115603136.609          50.000                                                  
G26  23856452.540   125366392.793          50.000    23856455.760    93617745.484          50.000  
G27  22872103.380   120193665.250          50.000    22872104.760    89755009.770          50.000  
G29  23598193.220   124009307.434          50.000                                                  
E13  23785377.320   124992982.008          50.000    23785381.020    93338903.910          50.000  
E15  27265414.180   143280655.055          50.000    27265421.420   106995272.992          50.000  
> 2020  7 17 23 12 43.0000000  0 11       0.000000000000
G10  21424559.260   112586768.492          50.000    21424559.400    84074534.117          50.000  
G13  24526055.880   128885329.285          50.000                                                  
G15  22212313.640   116726307.535          50.000                                                  
G16  23358739.260   122750997.641          50.000                                                  
G20  20159275.320   105937707.508          50.000                                                  
G21  21998257.560   115601643.574          50.000                                                  
G26  23856914.540   125368820.664          50.000    23856917.760    93619558.504          50.000  
G27  22871561.580   120190818.109          50.000    22871562.980    89752883.656          50.000  
G29  23598870.960   124012868.992          50.000                                                  
E13  23785503.700   124993646.113          50.000    23785507.400    93339399.832          50.000  
E15  27265812.840   143282750.059          50.000    27265820.080   106996837.445          50.000  
> 2020  7 17 23 12 44.0000000  0 11       0.000000000000
G10  21424250.380   112585145.332          50.000    21424250.520    84073322.020          50.000  
G13  24526548.220   128887916.598          50.000                                                  
G15  22212676.480   116728214.234          50.000                                                  
G16  23358937.620   122752040.012          50.000                                                  
G20  20159295.380   105937812.867          50.000                                                  
G21  21997973.460   115600150.637          50.000                                                  
G26  23857376.600   125371248.742          50.000    23857379.820    93621371.676          50.000  
G27  22871019.860   120187971.320          50.000    22871021.240    89750757.809          50.000  
G29  23599548.740   124016430.746          50.000                                                  
E13  23785630.100   124994310.434          50.000    23785633.820    93339895.914          50.000  
E15  27266211.540   143284845.152          50.000    27266218.780   106998401.961          50.000  
> 2020  7 17 23 12 45.0000000  0 11       0.000000000000
G10  21423941.580   112583522.547          50.000    21423941.700    84072110.199          50.000  
G13  24527040.660   128890504.352          50.000                                                  
G15  22213039.420   116730121.535          50.000                                                  
G16  23359136.080   122753082.938          50.000                                                  
G20  20159315.500   105937918.617          50.000                                                  
G21  21997689.380   115598657.785          50.000                                                  
G26  23857838.680   125373677.004          50.000    23857841.900    93623184.988          50.000  
G27  22870478.200   120185124.871          50.000    22870479.580    89748632.215          50.000  
G29  23600226.580   124019992.727          50.000                                                  
E13  23785756.560   124994974.969          50.000    23785760.280    93340392.156          50.000  
E15  27266610.240   143286940.422          50.000    27266617.480   106999966.609          50.000  
> 2020  7 17 23 12 46.0000000  0 11       0.000000000000
G10  21423632.840   112581900.133          50.000    21423632.980    84070898.656          50.000  
G13  24527533.180   128893092.555          50.000                                                  
G15  22213402.480   116732029.434          50.000                                                  
G16  23359334.640   122754126.430          50.000                                                  
G20  20159335.700   105938024.758          50.000                                                  
G21  21997405.320   115597165.043          50.000                                                  
G26  23858300.800   125376105.469          50.000    23858304.020    93624998.449          50.000  
G27  22869936.600   120182278.781          50.000    22869937.980    89746506.887          50.000  
G29  23600904.440   124023554.926          50.000                                                  
E13  23785883.060   124995639.727          50.000    23785886.780    93340888.570          50.000  
E15  27267009.000   143289035.848          50.000    27267016.240   107001531.375          50.000  
> 2020  7 17 23 12 47.0000000  0 11       0.000000000000
G10  21423324.180   112580278.117          50.000    21423324.320    84069687.410          50.000  
G13  24528025.780   128895681.199          50.000                                                  
G15  22213765.660   116733937.941          50.000                                                  
G16  23359533.320   122755170.477          50.000                                                  
G20  20159355.960   105938131.301          50.000                                                  
G21  21997121.280   115595672.383          50.000                                                  
G26  23858762.960   125378534.133          50.000    23858766.180    93626812.063          50.000  
G27  22869395.080   120179433.031          50.000    22869396.460    89744381.816          50.000  
G29  23601582.340   124027117.348          50.000                                                  
E13  23786009.600   124996304.699          50.000    23786013.320    93341385.141          50.000  
E15  27267407.760   143291131.375          50.000    27267415.000   107003096.215          50.000  
> 2020  7 17 23 12 48.0000000  0 11       0.000000000000
G10  21423015.600   112578656.469          50.000    21423015.720    84068476.441          50.000  
G13  24528518.480   128898270.305          50.000                                                  
G15  22214128.960   116735847.051          50.000                                                  
G16  23359732.100   122756215.070          50.000                                                  
G20  20159376.320   105938238.219          50.000                                                  
G21  21996837.260   115594179.820          50.000                                                  
G26  23859225.160   125380962.996          50.000    23859228.380    93628625.820          50.000  
G27  22868853.620   120176587.641          50.000    22868855.000    89742257.016          50.000  
G29  23602260.300   124030679.984          50.000                                                  
E13  23786136.180   124996969.895          50.000    23786139.900    93341881.875          50.000  
E15  27267806.560   143293227.055          50.000    27267813.800   107004661.168          50.000  
> 2020  7 17 23 12 49.0000000  0 11       0.000000000000
G10  21422707.080   112577035.215          50.000    21422707.200    84067265.766          50.000  
G13  24529011.240   128900859.855          50.000                                                  
G15  22214492.360   116737756.762          50.000                                                  
G16  23359930.980   122757260.219          50.000                                                  
G20  20159396.740   105938345.527          50.000                                                  
G21  21996553.240   115592687.352          50.000                                                  
G26  23859687.400   125383392.055          50.000    23859690.620    93630439.727          50.000  
G27  22868312.220   120173742.578          50.000    22868313.600    89740132.453          50.000  
G29  23602938.280   124034242.832          50.000                                                  
E13  23786262.820   124997635.305          50.000    23786266.520    93342378.773          50.000  
E15  27268205.380   143295322.836          50.000    27268212.620   107006226.199          50.000  
> 2020  7 17 23 12 50.0000000  0 11       0.000000000000
G10  21422398.640   112575414.348          50.000    21422398.760    84066055.379          50.000  
G13  24529504.100   128903449.852          50.000                                                  
G15  22214855.880   116739667.074          50.000                                                  
G16  23360129.980   122758305.926          50.000                                                  
G20  20159417.220   105938453.223          50.000                                                  
G21  21996269.260   115591194.977          50.000                                                  
G26  23860149.660   125385821.320          50.000    23860152.900    93632253.789          50.000  
G27  22867770.900   120170897.891          50.000    22867772.280    89738008.176          50.000  
G29  23603616.320   124037805.914          50.000                                                  
E13  23786389.480   124998300.945          50.000    23786393.180    93342875.840          50.000  
E15  27268604.220   143297418.773          50.000    27268611.460   107007791.348          50.000  
> 2020  7 17 23 12 51.0000000  0 11       0.000000000000
G10  21422090.260   112573793.844          50.000    21422090.400    84064845.258          50.000  
G13  24529997.060   128906040.289          50.000                                                  
G15  22215219.520   116741577.988          50.000                                                  
G16  23360329.080   122759352.191          50.000                                                  
G20  20159437.800   105938561.313          50.000                                                  
G21  21995985.280   115589702.691          50.000                                                  
G26  23860611.980   125388250.770          50.000    23860615.200    93634067.988          50.000  
G27  22867229.620   120168053.547          50.000    22867231.020    89735884.152          50.000  
G29  23604294.380   124041369.207          50.000                                                  
E13  23786516.180   124998966.793          50.000    23786519.900    93343373.063          50.000  
E15  27269003.080   143299514.832          50.000    27269010.320   107009356.586          50.000  
> 2020  7 17 23 12 52.0000000  0 11       0.000000000000
G10  21421781.960   112572173.727          50.000    21421782.100    84063635.434          50.000  
G13  24530490.080   128908631.184          50.000                                                  
G15  22215583.260   116743489.504          50.000                                                  
G16  23360528.280   122760399.016          50.000                                                  
G20  20159458.440   105938669.805          50.000                                                  
G21  21995701.340   115588210.508          50.000                                                  
G26  23861074.320   125390680.430          50.000    23861077.560    93635882.344          50.000  
G27  22866688.440   120165209.555          50.000    22866689.820    89733760.395          50.000  
G29  23604972.500   124044932.723          50.000                                                  
E13  23786642.940   124999632.871          50.000    23786646.640    93343870.457          50.000  
E15  27269401.980   143301611.039          50.000    27269409.220   107010921.930          50.000  
> 2020  7 17 23 12 53.0000000  0 11       0.000000000000
G10  21421473.740   112570553.992          50.000    21421473.880    84062425.891          50.000  
G13  24530983.200   128911222.523          50.000                                                  
G15  22215947.140   116745401.609          50.000                                                  
G16  23360727.580   122761446.375          50.000                                                  
G20  20159479.160   105938778.664          50.000                                                  
G21  21995417.400   115586718.402          50.000                                                  
G26  23861536.720   125393110.301          50.000    23861539.940    93637696.855          50.000  
G27  22866147.300   120162365.902          50.000    22866148.680    89731636.887          50.000  
G29  23605650.660   124048496.441          50.000                                                  
E13  23786769.720   125000299.145          50.000    23786773.440    93344368.000          50.000  
E15  27269800.900   143303707.367          50.000    27269808.140   107012487.371          50.000  
> 2020  7 17 23 12 54.0000000  0 11       0.000000000000
G10  21421165.600   112568934.637          50.000    21421165.720    84061216.633          50.000  
G13  24531476.400   128913814.313          50.000                                                  
G15  22216311.100   116747314.328          50.000                                                  
G16  23360927.000   122762494.301          50.000                                                  
G20  20159499.940   105938887.922          50.000                                                  
G21  21995133.480   115585226.406          50.000                                                  
G26  23861999.140   125395540.359          50.000    23862002.380    93639511.508          50.000  
G27  22865606.240   120159522.605          50.000    22865607.620    89729513.648          50.000  
G29  23606328.860   124052060.371          50.000                                                  
E13  23786896.560   125000965.652          50.000    23786900.260    93344865.719          50.000  
E15  27270199.840   143305803.832          50.000    27270207.080   107014052.910          50.000  
> 2020  7 17 23 12 55.0000000  0 11       0.000000000000
G10  21420857.520   112567315.668          50.000    21420857.640    84060007.664          50.000  
G13  24531969.680   128916406.543          50.000                                                  
G15  22216675.200   116749227.645          50.000                                                  
G16  23361126.520   122763542.770          50.000                                                  
G20  20159520.820   105938997.574          50.000                                                  
G21  21994849.580   115583734.508          50.000                                                  
G26  23862461.600   125397970.602          50.000    23862464.840    93641326.297          50.000  
G27  22865065.240   120156679.648          50.000    22865066.620    89727390.664          50.000  
G29  23607007.100   124055624.539          50.000                                                  
E13  23787023.420   125001632.379          50.000    23787027.140    93345363.598          50.000  
E15  27270598.820   143307900.438          50.000    27270606.060   107015618.555          50.000  
> 2020  7 17 23 12 56.0000000  0 11       0.000000000000
G10  21420549.500   112565697.070          50.000    21420549.620    84058798.973          50.000  
G13  24532463.060   128918999.227          50.000                                                  
G15  22217039.400   116751141.559          50.000                                                  
G16  23361326.140   122764591.789          50.000                                                  
G20  20159541.760   105939107.617          50.000                                                  
G21  21994565.700   115582242.699          50.000                                                  
G26  23862924.100   125400401.051          50.000    23862927.340    93643141.242          50.000  
G27  22864524.320   120153837.051          50.000    22864525.700    89725267.941          50.000  
G29  23607685.380   124059188.918          50.000                                                  
E13  23787150.340   125002299.316          50.000    23787154.060    93345861.637          50.000  
E15  27270997.800   143309997.160          50.000    27271005.060   107017184.289          50.000  
> 2020  7 17 23 12 57.0000000  0 11       0.000000000000
G10  21420241.560   112564078.875          50.000    21420241.700    84057590.578          50.000  
G13  24532956.520   128921592.371          50.000                                                  
G15  22217403.720   116753056.082          50.000                                                  
G16  23361525.880   122765641.379          50.000                                                  
G20  20159562.780   105939218.051          50.000                                                  
G21  21994281.840   115580750.988          50.000                                                  
G26  23863386.640   125402831.695          50.000    23863389.860    93644956.332          50.000  
G27  22863983.460   120150994.809          50.000    22863984.840    89723145.492          50.000  
G29  23608363.700   124062753.523          50.000                                                  
E13  23787277.300   125002966.488          50.000    23787281.020    93346359.848          50.000  
E15  27271396.840   143312094.035          50.000    27271404.080   107018750.137          50.000  
> 2020  7 17 23 12 58.0000000  0 11       0.000000000000
G10  21419933.700   112562461.039          50.000    21419933.840    84056382.457          50.000  
G13  24533450.060   128924185.938          50.000                                                  
G15  22217768.160   116754971.203          50.000                                                  
G16  23361725.700   122766691.512          50.000                                                  
G20  20159583.860   105939328.871          50.000                                                  
G21  21993997.980   115579259.355          50.000                                                  
G26  23863849.220   125405262.543          50.000    23863852.440    93646771.574          50.000  
G27  22863442.660   120148152.906          50.000    22863444.040    89721023.293          50.000  
G29  23609042.060   124066318.336          50.000                                                  
E13  23787404.300   125003633.875          50.000    23787408.020    93346858.223          50.000  
E15  27271795.880   143314191.051          50.000    27271803.120   107020316.090          50.000  
> 2020  7 17 23 12 59.0000000  0 11       0.000000000000
G10  21419625.920   112560843.594          50.000    21419626.040    84055174.625          50.000  
G13  24533943.680   128926779.957          50.000                                                  
G15  22218132.720   116756886.930          50.000                                                  
G16  23361925.640   122767742.191          50.000                                                  
G20  20159605.020   105939440.078          50.000                                                  
G21  21993714.160   115577767.828          50.000                                                  
G26  23864311.820   125407693.586          50.000    23864315.060    93648586.965          50.000  
G27  22862901.940   120145311.371          50.000    22862903.320    89718901.367          50.000  
G29  23609720.460   124069883.379          50.000                                                  
E13  23787531.340   125004301.480          50.000    23787535.060    93347356.758          50.000  
E15  27272194.960   143316288.195          50.000    27272202.200   107021882.137          50.000  
> 2020  7 17 23 13  0.0000000  0 11       0.000000000000
G10  21419318.200   112559226.523          50.000    21419318.320    84053967.074          50.000  
G13  24534437.400   128929374.422          50.000                                                  
G15  22218497.380   116758803.250          50.000                                                  
G16  23362125.700   122768793.434          50.000                                                  
G20  20159626.260   105939551.672          50.000                                                  
G21  21993430.340   115576276.383          50.000                                                  
G26  23864774.480   125410124.820          50.000    23864777.700    93650402.492          50.000  
G27  22862361.280   120142470.176          50.000    22862362.660    89716779.699          50.000  
G29  23610398.920   124073448.625          50.000                                                  
E13  23787658.420   125004969.301          50.000    23787662.140    93347855.453          50.000  
E15  27272594.060   143318385.445          50.000    27272601.300   107023448.266          50.000  
> 2020  7 17 23 13  1.0000000  0 11       0.000000000000
G10  21419010.540   112557609.836          50.000    21419010.680    84052759.809          50.000  
G13  24534931.200   128931969.340          50.000                                                  
G15  22218862.160   116760720.176          50.000                                                  
G16  23362325.840   122769845.219          50.000                                                  
G20  20159647.560   105939663.664          50.000                                                  
G21  21993146.560   115574785.051          50.000                                                  
G26  23865237.160   125412556.250          50.000    23865240.400    93652218.168          50.000  
G27  22861820.680   120139629.336          50.000    22861822.060    89714658.293          50.000  
G29  23611077.400   124077014.098          50.000                                                  
E13  23787785.540   125005637.344          50.000    23787789.260    93348354.316          50.000  
E15  27272993.180   143320482.863          50.000    27273000.420   107025014.516          50.000  
> 2020  7 17 23 13  2.0000000  0 11       0.000000000000
G10  21418702.980   112555993.547          50.000    21418703.100    84051552.840          50.000  
G13  24535425.080   128934564.695          50.000                                                  
G15  22219227.060   116762637.703          50.000                                                  
G16  23362526.100   122770897.566          50.000                                                  
G20  20159668.960   105939776.055          50.000                                                  
G21  21992862.780   115573293.797          50.000                                                  
G26  23865699.900   125414987.895          50.000    23865703.120    93654034.008          50.000  
G27  22861280.140   120136788.844          50.000    22861281.520    89712537.148          50.000  
G29  23611755.940   124080579.797          50.000                                                  
E13  23787912.720   125006305.609          50.000    23787916.420    93348853.348          50.000  
E15  27273392.320   143322580.402          50.000    27273399.560   107026580.859          50.000  
> 2020  7 17 23 13  3.0000000  0 11       0.000000000000
G10  21418395.480   112554377.625          50.000    21418395.600    84050346.145          50.000  
G13  24535919.040   128937160.508          50.000                                                  
G15  22219592.060   116764555.828          50.000                                                  
G16  23362726.460   122771950.473          50.000                                                  
G20  20159690.420   105939888.813          50.000                                                  
G21  21992579.020   115571802.637          50.000                                                  
G26  23866162.660   125417419.715          50.000    23866165.880    93655849.977          50.000  
G27  22860739.680   120133948.703          50.000    22860741.060    89710416.266          50.000  
G29  23612434.500   124084145.695          50.000                                                  
E13  23788039.920   125006974.078          50.000    23788043.640    93349352.527          50.000  
E15  27273791.500   143324678.066          50.000    27273798.740   107028147.297          50.000  
> 2020  7 17 23 13  4.0000000  0 11       0.000000000000
G10  21418088.040   112552762.070          50.000    21418088.180    84049139.727          50.000  
G13  24536413.080   128939756.766          50.000                                                  
G15  22219957.180   116766474.559          50.000                                                  
G16  23362926.920   122773003.930          50.000                                                  
G20  20159711.940   105940001.973          50.000                                                  
G21  21992295.280   115570311.570          50.000                                                  
G26  23866625.460   125419851.738          50.000    23866628.680    93657666.094          50.000  
G27  22860199.300   120131108.922          50.000    22860200.680    89708295.648          50.000  
G29  23613113.120   124087711.828          50.000                                                  
E13  23788167.180   125007642.789          50.000    23788170.880    93349851.887          50.000  
E15  27274190.700   143326775.891          50.000    27274197.940   107029713.852          50.000  
> 2020  7 17 23 13  5.0000000  0 11       0.000000000000
G10  21417780.700   112551146.914          50.000    21417780.820    84047933.602          50.000  
G13  24536907.220   128942353.453          50.000                                                  
G15  22220322.420   116768393.879          50.000                                                  
G16  23363127.500   122774057.941          50.000                                                  
G20  20159733.560   105940115.520          50.000                                                  
G21  21992011.560   115568820.598          50.000                                                  
G26  23867088.300   125422283.969          50.000    23867091.520    93659482.371          50.000  
G27  22859658.960   120128269.473          50.000    22859660.340    89706175.281          50.000  
G29  23613791.760   124091278.172          50.000                                                  
E13  23788294.460   125008311.703          50.000    23788298.180    93350351.402          50.000  
E15  27274589.920   143328873.828          50.000    27274597.180   107031280.492          50.000  
> 2020  7 17 23 13  6.0000000  0 11       0.000000000000
G10  21417473.420   112549532.129          50.000    21417473.540    84046727.758          50.000  
G13  24537401.440   128944950.602          50.000                                                  
G15  22220687.760   116770313.801          50.000                                                  
G16  23363328.180   122775112.508          50.000                                                  
G20  20159755.240   105940229.453          50.000                                                  
G21  21991727.840   115567329.719          50.000                                                  
G26  23867551.160   125424716.383          50.000    23867554.400    93661298.781          50.000  
G27  22859118.700   120125430.379          50.000    22859120.080    89704055.180          50.000  
G29  23614470.460   124094844.727          50.000                                                  
E13  23788421.800   125008980.840          50.000    23788425.500    93350851.082          50.000  
E15  27274989.180   143330971.910          50.000    27274996.420   107032847.242          50.000  
> 2020  7 17 23 13  7.0000000  0 11       0.000000000000
G10  21417166.200   112547917.750          50.000    21417166.320    84045522.215          50.000  
G13  24537895.740   128947548.191          50.000                                                  
G15  22221053.240   116772234.328          50.000                                                  
G16  23363528.960   122776167.633          50.000                                                  
G20  20159776.980   105940343.777          50.000                                                  
G21  21991444.160   115565838.945          50.000                                                  
G26  23868014.080   125427148.996          50.000    23868017.300    93663115.344          50.000  
G27  22858578.500   120122591.652          50.000    22858579.880    89701935.352          50.000  
G29  23615149.200   124098411.500          50.000                                                  
E13  23788549.180   125009650.199          50.000    23788552.880    93351350.930          50.000  
E15  27275388.460   143333070.113          50.000    27275395.700   107034414.082          50.000  
> 2020  7 17 23 13  8.0000000  0 11       0.000000000000
G10  21416859.060   112546303.734          50.000    21416859.200    84044316.945          50.000  
G13  24538390.140   128950146.227          50.000                                                  
G15  22221418.820   116774155.457          50.000                                                  
G16  23363729.840   122777223.293          50.000                                                  
G20  20159798.820   105940458.488          50.000                                                  
G21  21991160.500   115564348.266          50.000                                                  
G26  23868477.020   125429581.801          50.000    23868480.260    93664932.047          50.000  
G27  22858038.380   120119753.273          50.000    22858039.760    89699815.785          50.000  
G29  23615827.980   124101978.488          50.000                                                  
E13  23788676.580   125010319.785          50.000    23788680.300    93351850.941          50.000  
E15  27275787.760   143335168.469          50.000    27275795.000   107035981.031          50.000  
> 2020  7 17 23 13  9.0000000  0 11       0.000000000000
G10  21416552.000   112544690.102          50.000    21416552.120    84043111.957          50.000  
G13  24538884.620   128952744.711          50.000                                                  
G15  22221784.500   116776077.180          50.000                                                  
G16  23363930.840   122778279.520          50.000                                                  
G20  20159820.720   105940573.590          50.000                                                  
G21  21990876.840   115562857.668          50.000                                                  
G26  23868940.020   125432014.805          50.000    23868943.240    93666748.898          50.000  
G27  22857498.320   120116915.234          50.000    22857499.700    89697696.473          50.000  
G29  23616506.800   124105545.688          50.000                                                  
E13  23788804.040   125010989.578          50.000    23788807.760    93352351.113          50.000  
E15  27276187.080   143337266.922          50.000    27276194.320   107037548.059          50.000  
> 2020  7 17 23 13 10.0000000  0 11       0.000000000000
G10  21416245.000   112543076.848          50.000    21416245.140    84041907.254          50.000  
G13  24539379.180   128955343.633          50.000                                                  
G15  22222150.300   116777999.504          50.000                                                  
G16  23364131.940   122779336.297          50.000                                                  
G20  20159842.700   105940689.070          50.000                                                  
G21  21990593.200   115561367.160          50.000                                                  
G26  23869403.040   125434448.008          50.000    23869406.260    93668565.902          50.000  
G27  22856958.320   120114077.551          50.000    22856959.700    89695577.422          50.000  
G29  23617185.660   124109113.117          50.000                                                  
E13  23788931.540   125011659.598          50.000    23788935.260    93352851.453          50.000  
E15  27276586.440   143339365.547          50.000    27276593.680   107039115.211          50.000  
> 2020  7 17 23 13 11.0000000  0 11       0.000000000000
G10  21415938.100   112541463.977          50.000    21415938.220    84040702.840          50.000  
G13  24539873.820   128957943.000          50.000                                                  
G15  22222516.240   116779922.430          50.000                                                  
G16  23364333.140   122780393.625          50.000                                                  
G20  20159864.740   105940804.961          50.000                                                  
G21  21990309.600   115559876.762          50.000                                                  
G26  23869866.100   125436881.406          50.000    23869869.320    93670383.047          50.000  
G27  22856418.400   120111240.227          50.000    22856419.780    89693458.645          50.000  
G29  23617864.560   124112680.762          50.000                                                  
E13  23789059.080   125012329.836          50.000    23789062.800    93353351.957          50.000  
E15  27276985.820   143341464.293          50.000    27276993.060   107040682.457          50.000  
> 2020  7 17 23 13 12.0000000  0 11       0.000000000000
G10  21415631.240   112539851.484          50.000    21415631.360    84039498.707          50.000  
G13  24540368.540   128960542.816          50.000                                                  
G15  22222882.260   116781845.945          50.000                                                  
G16  23364534.440   122781451.512          50.000                                                  
G20  20159886.880   105940921.227          50.000                                                  
G21  21990026.000   115558386.445          50.000                                                  
G26  23870329.200   125439314.992          50.000    23870332.420    93672200.332          50.000  
G27  22855878.540   120108403.246          50.000    22855879.920    89691340.117          50.000  
G29  23618543.500   124116248.621          50.000                                                  
E13  23789186.680   125013000.285          50.000    23789190.380    93353852.613          50.000  
E15  27277385.220   143343563.160          50.000    27277392.460   107042249.793          50.000  
> 2020  7 17 23 13 13.0000000  0 11       0.000000000000
G10  21415324.460   112538239.418          50.000    21415324.560    84038294.934          50.000  
G13  24540863.340   128963143.121          50.000                                                  
G15  22223248.360   116783770.281          50.000                                                  
G16  23364735.860   122782509.898          50.000                                                  
G20  20159909.060   105941037.926          50.000                                                  
G21  21989742.420   115556896.160          50.000                                                  
G26  23870792.340   125441748.676          50.000    23870795.600    93674017.637          50.000  
G27  22855338.740   120105566.605          50.000    22855340.120    89689221.855          50.000  
G29  23619222.480   124119816.695          50.000                                                  
E13  23789314.300   125013670.961          50.000    23789318.000    93354353.449          50.000  
E15  27277784.640   143345662.152          50.000    27277791.900   107043817.223          50.000  
> 2020  7 17 23 13 14.0000000  0 11       0.000000000000
G10  21415017.760   112536627.703          50.000    21415017.860    84037091.383          50.000  
G13  24541358.240   128965743.836          50.000                                                  
G15  22223614.620   116785695.004          50.000                                                  
G16  23364937.380   122783568.895          50.000                                                  
G20  20159931.340   105941154.988          50.000                                                  
G21  21989458.860   115555406.035          50.000                                                  
G26  23871255.520   125444182.668          50.000    23871258.760    93675835.227          50.000  
G27  22854799.020   120102730.336          50.000    22854800.400    89687103.863          50.000  
G29  23619901.500   124123385.004          50.000                                                  
E13  23789441.960   125014341.852          50.000    23789445.680    93354854.441          50.000  
E15  27278184.100   143347761.289          50.000    27278191.340   107045384.758          50.000  
> 2020  7 17 23 13 15.0000000  0 11       0.000000000000
G10  21414711.120   112535016.359          50.000    21414711.240    84035888.109          50.000  
G13  24541853.220   128968344.992          50.000                                                  
G15  22223981.000   116787620.328          50.000                                                  
G16  23365139.000   122784628.441          50.000                                                  
G20  20159953.680   105941272.438          50.000                                                  
G21  21989175.320   115553916.004          50.000                                                  
G26  23871718.720   125446616.848          50.000    23871721.980    93677652.957          50.000  
G27  22854259.360   120099894.426          50.000    22854260.740    89684986.137          50.000  
G29  23620580.560   124126953.520          50.000                                                  
E13  23789569.680   125015012.957          50.000    23789573.380    93355355.590          50.000  
E15  27278583.580   143349860.574          50.000    27278590.840   107046952.402          50.000  
> 2020  7 17 23 13 16.0000000  0 11       0.000000000000
G10  21414404.560   112533405.395          50.000    21414404.680    84034685.117          50.000  
G13  24542348.300   128970946.605          50.000                                                  
G15  22224347.500   116789546.258          50.000                                                  
G16  23365340.740   122785688.539          50.000                                                  
G20  20159976.100   105941390.273          50.000                                                  
G21  21988891.780   115552426.066          50.000                                                  
G26  23872181.980   125449051.234          50.000    23872185.220    93679470.844          50.000  
G27  22853719.760   120097058.859          50.000    22853721.140    89682868.668          50.000  
G29  23621259.680   124130522.258          50.000                                                  
E13  23789697.420   125015684.285          50.000    23789701.140    93355856.906          50.000  
E15  27278983.080   143351959.977          50.000    27278990.340   107048520.137          50.000  
> 2020  7 17 23 13 17.0000000  0 11       0.000000000000
G10  21414098.080   112531794.824          50.000    21414098.200    84033482.418          50.000  
G13  24542843.440   128973548.652          50.000                                                  
G15  22224714.100   116791472.789          50.000                                                  
G16  23365542.560   122786749.188          50.000                                                  
G20  20159998.600   105941508.492          50.000                                                  
G21  21988608.280   115550936.215          50.000                                                  
G26  23872645.260   125451485.813          50.000    23872648.500    93681288.871          50.000  
G27  22853180.240   120094223.645          50.000    22853181.620    89680751.465          50.000  
G29  23621938.820   124134091.195          50.000                                                  
E13  23789825.220   125016355.824          50.000    23789828.920    93356358.379          50.000  
E15  27279382.620   143354059.516          50.000    27279389.860   107050087.973          50.000  
> 2020  7 17 23 13 18.0000000  0 11       0.000000000000
G10  21413791.660   112530184.629          50.000    21413791.780    84032280.000          50.000  
G13  24543338.680   128976151.148          50.000                                                  
G15  22225080.820   116793399.902          50.000                                                  
G16  23365744.500   122787810.398          50.000                                                  
G20  20160021.160   105941627.105          50.000                                                  
G21  21988324.780   115549446.465          50.000                                                  
G26  23873108.580   125453920.582          50.000    23873111.820    93683107.039          50.000  
G27  22852640.780   120091388.793          50.000    22852642.160    89678634.531          50.000  
G29  23622618.000   124137660.359          50.000                                                  
E13  23789953.040   125017027.586          50.000    23789956.760    93356860.023          50.000  
E15  27279782.180   143356159.184          50.000    27279789.420   107051655.906          50.000  
> 2020  7 17 23 13 19.0000000  0 11       0.000000000000
G10  21413485.320   112528574.809          50.000    21413485.440    84031077.859          50.000  
G13  24543834.000   128978754.086          50.000                                                  
G15  22225447.640   116795327.629          50.000                                                  
G16  23365946.560   122788872.164          50.000                                                  
G20  20160043.800   105941746.105          50.000                                                  
G21  21988041.300   115547956.813          50.000                                                  
G26  23873571.940   125456355.547          50.000    23873575.180    93684925.359          50.000  
G27  22852101.400   120088554.285          50.000    22852102.760    89676517.855          50.000  
G29  23623297.240   124141229.738          50.000                                                  
E13  23790080.920   125017699.574          50.000    23790084.640    93357361.832          50.000  
E15  27280181.760   143358259.004          50.000    27280189.020   107053223.957          50.000  
> 2020  7 17 23 13 20.0000000  0 11       0.000000000000
G10  21413179.060   112526965.379          50.000    21413179.180    84029876.016          50.000  
G13  24544329.420   128981357.465          50.000                                                  
G15  22225814.600   116797255.945          50.000                                                  
G16  23366148.700   122789934.465          50.000                                                  
G20  20160066.520   105941865.496          50.000                                                  
G21  21987757.860   115546467.258          50.000                                                  
G26  23874035.340   125458790.703          50.000    23874038.580    93686743.820          50.000  
G27  22851562.060   120085720.125          50.000    22851563.440    89674401.438          50.000  
G29  23623976.500   124144799.336          50.000                                                  
E13  23790208.840   125018371.781          50.000    23790212.560    93357863.801          50.000  
E15  27280581.380   143360358.949          50.000    27280588.620   107054792.094          50.000  
> 2020  7 17 23 13 21.0000000  0 11       0.000000000000
G10  21412872.860   112525356.320          50.000    21412872.980    84028674.445          50.000  
G13  24544824.900   128983961.301          50.000                                                  
G15  22226181.660   116799184.871          50.000                                                  
G16  23366350.960   122790997.328          50.000                                                  
G20  20160089.320   105941985.273          50.000                                                  
G21  21987474.420   115544977.789          50.000                                                  
G26  23874498.760   125461226.051          50.000    23874502.020    93688562.422          50.000  
G27  22851022.820   120082886.324          50.000    22851024.180    89672285.289          50.000  
G29  23624655.820   124148369.152          50.000                                                  
E13  23790336.800   125019044.215          50.000    23790340.520    93358365.945          50.000  
E15  27280981.000   143362459.039          50.000    27280988.260   107056360.344          50.000  
> 2020  7 17 23 13 22.0000000  0 11       0.000000000000
G10  21412566.740   112523747.652          50.000    21412566.860    84027473.168          50.000  
G13  24545320.480   128986565.563          50.000                                                  
G15  22226548.820   116801114.387          50.000                                                  
G16  23366553.320   122792060.750          50.000                                                  
G20  20160112.180   105942105.430          50.000                                                  
G21  21987191.000   115543488.410          50.000                                                  
G26  23874962.240   125463661.621          50.000    23874965.480    93690381.188          50.000  
G27  22850483.620   120080052.875          50.000    22850485.000    89670169.402          50.000  
G29  23625335.180   124151939.180          50.000                                                  
E13  23790464.800   125019716.852          50.000    23790468.520    93358868.238          50.000  
E15  27281380.660   143364559.238          50.000    27281387.920   107057928.672          50.000  
> 2020  7 17 23 13 23.0000000  0 11       0.000000000000
G10  21412260.680   112522139.359          50.000    21412260.800    84026272.168          50.000  
G13  24545816.140   128989170.277          50.000                                                  
G15  22226916.120   116803044.512          50.000                                                  
G16  23366755.780   122793124.723          50.000                                                  
G20  20160135.120   105942225.988          50.000                                                  
G21  21986907.600   115541999.137          50.000                                                  
G26  23875425.740   125466097.359          50.000    23875428.980    93692200.082          50.000  
G27  22849944.500   120077219.781          50.000    22849945.880    89668053.785          50.000  
G29  23626014.580   124155509.434          50.000                                                  
E13  23790592.860   125020389.723          50.000    23790596.560    93359370.707          50.000  
E15  27281780.360   143366659.602          50.000    27281787.600   107059497.121          50.000  
> 2020  7 17 23 13 24.0000000  0 11       0.000000000000
G10  21411954.720   112520531.445          50.000    21411954.820    84025071.457          50.000  
G13  24546311.880   128991775.430          50.000                                                  
G15  22227283.520   116804975.230          50.000                                                  
G16  23366958.360   122794189.250          50.000                                                  
G20  20160158.140   105942346.930          50.000                                                  
G21  21986624.200   115540509.953          50.000                                                  
G26  23875889.280   125468533.293          50.000    23875892.540    93694019.125          50.000  
G27  22849405.440   120074387.039          50.000    22849406.820    89665938.426          50.000  
G29  23626694.000   124159079.895          50.000                                                  
E13  23790720.940   125021062.801          50.000    23790724.640    93359873.328          50.000  
E15  27282180.060   143368760.059          50.000    27282187.320   107061065.645          50.000  
> 2020  7 17 23 13 25.0000000  0 11       0.000000000000
G10  21411648.800   112518923.918          50.000    21411648.920    84023871.031          50.000  
G13  24546807.700   128994381.035          50.000                                                  
G15  22227651.040   116806906.551          50.000                                                  
G16  23367161.020   122795254.316          50.000                                                  
G20  20160181.220   105942468.266          50.000                                                  
G21  21986340.840   115539020.859          50.000                                                  
G26  23876352.860   125470969.426          50.000    23876356.100    93695838.313          50.000  
G27  22848866.460   120071554.656          50.000    22848867.820    89663823.332          50.000  
G29  23627373.480   124162650.578          50.000                                                  
E13  23790849.060   125021736.102          50.000    23790852.780    93360376.121          50.000  
E15  27282579.800   143370860.672          50.000    27282587.040   107062634.285          50.000  
> 2020  7 17 23 13 26.0000000  0 11       0.000000000000
G10  21411342.980   112517316.766          50.000    21411343.080    84022670.883          50.000  
G13  24547303.620   128996987.090          50.000                                                  
G15  22228018.660   116808838.465          50.000                                                  
G16  23367363.800   122796319.934          50.000                                                  
G20  20160204.380   105942589.992          50.000                                                  
G21  21986057.480   115537531.848          50.000                                                  
G26  23876816.480   125473405.750          50.000    23876819.720    93697657.645          50.000  
G27  22848327.540   120068722.617          50.000    22848328.900    89661708.500          50.000  
G29  23628053.000   124166221.457          50.000                                                  
E13  23790977.240   125022409.629          50.000    23790980.940    93360879.078          50.000  
E15  27282979.560   143372961.410          50.000    27282986.800   107064203.016          50.000  
> 2020  7 17 23 13 27.0000000  0 11       0.000000000000
G10  21411037.220   112515710.000          50.000    21411037.320    84021471.027          50.000  
G13  24547799.620   128999593.586          50.000                                                  
G15  22228386.400   116810770.973          50.000                                                  
G16  23367566.700   122797386.102          50.000                                                  
G20  20160227.620   105942712.105          50.000                                                  
G21  21985774.160   115536042.945          50.000                                                  
G26  23877280.120   125475842.270          50.000    23877283.380    93699477.121          50.000  
G27  22847788.680   120065890.941          50.000    22847790.060    89659593.938          50.000  
G29  23628732.560   124169792.566          50.000                                                  
E13  23791105.440   125023083.367          50.000    23791109.160    93361382.191          50.000  
E15  27283379.340   143375062.305          50.000    27283386.600   107065771.863          50.000  
> 2020  7 17 23 13 28.0000000  0 11       0.000000000000
G10  21410731.520   112514103.625          50.000    21410731.640    84020271.465          50.000  
G13  24548295.700   129002200.531          50.000                                                  
G15  22228754.260   116812704.082          50.000                                                  
G16  23367769.680   122798452.832          50.000                                                  
G20  20160250.920   105942834.609          50.000                                                  
G21  21985490.840   115534554.137          50.000                                                  
G26  23877743.820   125478278.988          50.000    23877747.080    93701296.750          50.000  
G27  22847249.900   120063059.605          50.000    22847251.260    89657479.633          50.000  
G29  23629412.160   124173363.895          50.000                                                  
E13  23791233.700   125023757.332          50.000    23791237.420    93361885.480          50.000  
E15  27283779.160   143377163.328          50.000    27283786.420   107067340.809          50.000  
> 2020  7 17 23 13 29.0000000  0 11       0.000000000000
G10  21410425.920   112512497.609          50.000    21410426.020    84019072.168          50.000  
G13  24548791.860   129004807.910          50.000                                                  
G15  22229122.240   116814637.781          50.000                                                  
G16  23367972.780   122799520.102          50.000                                                  
G20  20160274.300   105942957.492          50.000                                                  
G21  21985207.540   115533065.410          50.000                                                  
G26  23878207.540   125480715.898          50.000    23878210.800    93703116.520          50.000  
G27  22846711.180   120060228.637          50.000    22846712.540    89655365.598          50.000  
G29  23630091.800   124176935.426          50.000                                                  
E13  23791362.000   125024431.516          50.000    23791365.700    93362388.930          50.000  
E15  27284179.000   143379264.469          50.000    27284186.240   107068909.840          50.000  
> 2020  7 17 23 13 30.0000000  0 11       0.000000000000
G10  21410120.360   112510891.992          50.000    21410120.480    84017873.168          50.000  
G13  24549288.120   129007415.742          50.000                                                  
G15  22229490.320   116816572.082          50.000                                                  
G16  23368175.980   122800587.922          50.000                                                  
G20  20160297.760   105943080.766          50.000                                                  
G21  21984924.260   115531576.793          50.000                                                  
G26  23878671.300   125483153.000          50.000    23878674.560    93704936.430          50.000  
G27  22846172.520   120057398.016          50.000    22846173.900    89653251.824          50.000  
G29  23630771.480   124180507.176          50.000                                                  
E13  23791490.340   125025105.918          50.000    23791494.040    93362892.539          50.000  
E15  27284578.860   143381365.750          50.000    27284586.120   107070478.980          50.000  
> 2020  7 17 23 13 31.0000000  0 11       0.000000000000
G10  21409814.900   112509286.754          50.000    21409815.020    84016674.449          50.000  
G13  24549784.460   129010024.016          50.000                                                  
G15  22229858.520   116818506.980          50.000                                                  
G16  23368379.280   122801656.297          50.000                                                  
G20  20160321.300   105943204.434          50.000                                                  
G21  21984641.000   115530088.270          50.000                                                  
G26  23879135.120   125485590.313          50.000    23879138.360    93706756.500          50.000  
G27  22845633.940   120054567.742          50.000    22845635.300    89651138.309          50.000  
G29  23631451.200   124184079.141          50.000                                                  
E13  23791618.700   125025780.539          50.000    23791622.420    93363396.316          50.000  
E15  27284978.740   143383467.160          50.000    27284986.000   107072048.211          50.000  
> 2020  7 17 23 13 32.0000000  0 11       0.000000000000
G10  21409509.500   112507681.887          50.000    21409509.620    84015476.012          50.000  
G13  24550280.880   129012632.738          50.000                                                  
G15  22230226.820   116820442.473          50.000                                                  
G16  23368582.680   122802725.215          50.000                                                  
G20  20160344.900   105943328.480          50.000                                                  
G21  21984357.760   115528599.840          50.000                                                  
G26  23879598.960   125488027.801          50.000    23879602.200    93708576.699          50.000  
G27  22845095.420   120051737.824          50.000    22845096.780    89649025.059          50.000  
G29  23632130.960   124187651.313          50.000                                                  
E13  23791747.120   125026455.375          50.000    23791750.840    93363900.250          50.000  
E15  27285378.660   143385568.707          50.000    27285385.920   107073617.547          50.000  
> 2020  7 17 23 13 33.0000000  0 11       0.000000000000
G10  21409204.180   112506077.414          50.000    21409204.280    84014277.867          50.000  
G13  24550777.380   129015241.898          50.000                                                  
G15  22230595.240   116822378.570          50.000                                                  
G16  23368786.200   122803794.691          50.000                                                  
G20  20160368.580   105943452.934          50.000                                                  
G21  21984074.540   115527111.500          50.000                                                  
G26  23880062.820   125490465.480          50.000    23880066.080    93710397.047          50.000  
G27  22844556.960   120048908.273          50.000    22844558.340    89646912.082          50.000  
G29  23632810.760   124191223.703          50.000                                                  
E13  23791875.580   125027130.438          50.000    23791879.300    93364404.355          50.000  
E15  27285778.600   143387670.387          50.000    27285785.860   107075186.984          50.000  
> 2020  7 17 23 13 34.0000000  0 11       0.000000000000
G10  21408898.920   112504473.316          50.000    21408899.040    84013080.004          50.000  
G13  24551273.980   129017851.512          50.000                                                  
G15  22230963.780   116824315.266          50.000                                                  
G16  23368989.820   122804864.711          50.000                                                  
G20  20160392.320   105943577.758          50.000                                                  
G21  21983791.340   115525623.262          50.000                                                  
G26  23880526.740   125492903.359          50.000    23880530.000    93712217.539          50.000  
G27  22844018.580   120046079.051          50.000    22844019.960    89644799.355          50.000  
G29  23633490.600   124194796.309          50.000                                                  
E13  23792004.100   125027805.723          50.000    23792007.800    93364908.629          50.000  
E15  27286178.560   143389772.203          50.000    27286185.820   107076756.523          50.000  
> 2020  7 17 23 13 35.0000000  0 11       0.000000000000
G10  21408593.740   112502869.602          50.000    21408593.860    84011882.426          50.000  
G13  24551770.640   129020461.563          50.000                                                  
G15  22231332.440   116826252.555          50.000                                                  
G16  23369193.540   122805935.289          50.000                                                  
G20  20160416.160   105943702.980          50.000                                                  
G21  21983508.160   115524135.113          50.000                                                  
G26  23880990.680   125495341.434          50.000    23880993.940    93714038.176          50.000  
G27  22843480.260   120043250.203          50.000    22843481.640    89642686.902          50.000  
G29  23634170.480   124198369.125          50.000                                                  
E13  23792132.640   125028481.230          50.000    23792136.360    93365413.063          50.000  
E15  27286578.560   143391874.156          50.000    27286585.800   107078326.160          50.000  
> 2020  7 17 23 13 36.0000000  0 11       0.000000000000
G10  21408288.640   112501266.262          50.000    21408288.740    84010685.129          50.000  
G13  24552267.400   129023072.059          50.000                                                  
G15  22231701.200   116828190.438          50.000                                                  
G16  23369397.360   122807006.406          50.000                                                  
G20  20160440.060   105943828.582          50.000                                                  
G21  21983224.980   115522647.055          50.000                                                  
G26  23881454.680   125497779.703          50.000    23881457.920    93715858.961          50.000  
G27  22842942.020   120040421.711          50.000    22842943.400    89640574.719          50.000  
G29  23634850.420   124201942.152          50.000                                                  
E13  23792261.220   125029156.945          50.000    23792264.940    93365917.656          50.000  
E15  27286978.580   143393976.250          50.000    27286985.820   107079895.902          50.000  
> 2020  7 17 23 13 37.0000000  0 11       0.000000000000
G10  21407983.600   112499663.316          50.000    21407983.720    84009488.121          50.000  
G13  24552764.240   129025682.988          50.000                                                  
G15  22232070.080   116830128.922          50.000                                                  
G16  23369601.300   122808078.094          50.000                                                  
G20  20160464.020   105943954.578          50.000                                                  
G21  21982941.840   115521159.094          50.000                                                  
G26  23881918.700   125500218.160          50.000    23881921.940    93717679.887          50.000  
G27  22842403.840   120037593.566          50.000    22842405.220    89638462.793          50.000  
G29  23635530.380   124205515.398          50.000                                                  
E13  23792389.860   125029832.883          50.000    23792393.560    93366422.414          50.000  
E15  27287378.620   143396078.465          50.000    27287385.860   107081465.738          50.000  
> 2020  7 17 23 13 38.0000000  0 11       0.000000000000
G10  21407678.640   112498060.734          50.000    21407678.760    84008291.387          50.000  
G13  24553261.180   129028294.379          50.000                                                  
G15  22232439.080   116832068.012          50.000                                                  
G16  23369805.320   122809150.324          50.000                                                  
G20  20160488.080   105944080.961          50.000                                                  
G21  21982658.700   115519671.234          50.000                                                  
G26  23882382.760   125502656.816          50.000    23882386.000    93719500.957          50.000  
G27  22841865.720   120034765.773          50.000    22841867.100    89636351.133          50.000  
G29  23636210.380   124209088.859          50.000                                                  
E13  23792518.520   125030509.047          50.000    23792522.240    93366927.340          50.000  
E15  27287778.680   143398180.813          50.000    27287785.940   107083035.672          50.000  
> 2020  7 17 23 13 39.0000000  0 14       0.000000000000
G10  21407373.760   112496458.559          50.000    21407373.860    84007094.957          50.000  
G13  24553758.180   129030906.207          50.000                                                  
G15  22232808.180   116834007.688          50.000                                                  
G16  23370009.480   122810223.102          50.000                                                  
G20  20160512.200   105944207.734          50.000                                                  
G21  21982375.580   115518183.461          50.000                                                  
G26  23882846.840   125505095.656          50.000    23882850.100    93721322.168          50.000  
G27  22841327.680   120031938.348          50.000    22841329.060    89634239.742          50.000  
G29  23636890.440   124212662.527          50.000                                                  
E 7  24132383.640   126816500.676          50.000    24132388.820    94700621.512          50.000  
E 8  22648740.880   119019938.789          50.000    22648743.580    88878518.762          50.000  
E13  23792647.240   125031185.430          50.000    23792650.960    93367432.434          50.000  
E15  27288178.780   143400283.297          50.000    27288186.020   107084605.711          50.000  
E26  23390535.120   122918055.344          50.000    23390540.220    91789443.602          50.000  
> 2020  7 17 23 13 40.0000000  0 14       0.000000000000
G10  21407068.940   112494856.750          50.000    21407069.040    84005898.805          50.000  
G13  24554255.280   129033518.469          50.000                                                  
G15  22233177.400   116835947.977          50.000                                                  
G16  23370213.720   122811296.438          50.000                                                  
G20  20160536.400   105944334.895          50.000                                                  
G21  21982092.480   115516695.789          50.000                                                  
G26  23883310.980   125507534.695          50.000    23883314.240    93723143.527          50.000  
G27  22840789.700   120029111.266          50.000    22840791.080    89632128.609          50.000  
G29  23637570.520   124216236.418          50.000                                                  
E 7  24132056.020   126814779.039          50.000    24132061.200    94699335.875          50.000  
E 8  22648941.880   119020995.020          50.000    22648944.580    88879307.504          50.000  
E13  23792776.000   125031862.031          50.000    23792779.700    93367937.688          50.000  
E15  27288578.900   143402385.922          50.000    27288586.140   107086175.848          50.000  
E26  23390254.800   122916582.262          50.000    23390259.900    91788343.574          50.000  
> 2020  7 17 23 13 41.0000000  0 14       0.000000000000
G10  21406764.200   112493255.313          50.000    21406764.300    84004702.926          50.000  
G13  24554752.460   129036131.176          50.000                                                  
G15  22233546.740   116837888.855          50.000                                                  
G16  23370418.060   122812370.316          50.000                                                  
G20  20160560.660   105944462.438          50.000                                                  
G21  21981809.400   115515208.207          50.000                                                  
G26  23883775.140   125509973.922          50.000    23883778.400    93724965.027          50.000  
G27  22840251.800   120026284.535          50.000    22840253.160    89630017.742          50.000  
G29  23638250.640   124219810.523          50.000                                                  
E 7  24131728.480   126813057.777          50.000    24131733.660    94698050.520          50.000  
E 8  22649142.960   119022051.652          50.000    22649145.660    88880096.547          50.000  
E13  23792904.800   125032538.852          50.000    23792908.500    93368443.105          50.000  
E15  27288979.040   143404488.672          50.000    27288986.300   107087746.086          50.000  
E26  23389974.520   122915109.297          50.000    23389979.600    91787243.633          50.000  
> 2020  7 17 23 13 42.0000000  0 14       0.000000000000
G10  21406459.520   112491654.266          50.000    21406459.640    84003507.340          50.000  
G13  24555249.720   129038744.328          50.000                                                  
G15  22233916.200   116839830.320          50.000                                                  
G16  23370622.520   122813444.758          50.000                                                  
G20  20160585.000   105944590.379          50.000                                                  
G21  21981526.340   115513720.711          50.000                                                  
G26  23884239.360   125512413.340          50.000    23884242.600    93726786.668          50.000  
G27  22839713.960   120023458.164          50.000    22839715.320    89627907.141          50.000  
G29  23638930.820   124223384.828          50.000                                                  
E 7  24131401.000   126811336.891          50.000    24131406.180    94696765.445          50.000  
E 8  22649344.100   119023108.715          50.000    22649346.820    88880885.914          50.000  
E13  23793033.640   125033215.898          50.000    23793037.340    93368948.691          50.000  
E15  27289379.200   143406591.559          50.000    27289386.460   107089316.418          50.000  
E26  23389694.240   122913636.422          50.000    23389699.320    91786143.758          50.000  
> 2020  7 17 23 13 43.0000000  0 14       0.000000000000
G10  21406154.920   112490053.586          50.000    21406155.040    84002312.031          50.000  
G13  24555747.080   129041357.922          50.000                                                  
G15  22234285.760   116841772.391          50.000                                                  
G16  23370827.080   122814519.738          50.000                                                  
G20  20160609.420   105944718.703          50.000                                                  
G21  21981243.300   115512233.301          50.000                                                  
G26  23884703.600   125514852.953          50.000    23884706.860    93728608.457          50.000  
G27  22839176.180   120020632.133          50.000    22839177.540    89625796.797          50.000  
G29  23639611.020   124226959.359          50.000                                                  
E 7  24131073.600   126809616.398          50.000    24131078.780    94695480.660          50.000  
E 8  22649545.340   119024166.188          50.000    22649548.040    88881675.582          50.000  
E13  23793162.520   125033893.160          50.000    23793166.220    93369454.438          50.000  
E15  27289779.400   143408694.582          50.000    27289786.660   107090886.859          50.000  
E26  23389413.980   122912163.672          50.000    23389419.080    91785043.977          50.000  
> 2020  7 17 23 13 44.0000000  0 14       0.000000000000
G10  21405850.400   112488453.305          50.000    21405850.500    84001117.020          50.000  
G13  24556244.520   129043971.965          50.000                                                  
G15  22234655.420   116843715.047          50.000                                                  
G16  23371031.760   122815595.262          50.000                                                  
G20  20160633.920   105944847.406          50.000                                                  
G21  21980960.280   115510745.996          50.000                                                  
G26  23885167.880   125517292.750          50.000    23885171.140    93730430.391          50.000  
G27  22838638.460   120017806.465          50.000    22838639.840    89623686.727          50.000  
G29  23640291.280   124230534.098          50.000                                                  
E 7  24130746.280   126807896.277          50.000    24130751.460    94694196.156          50.000  
E 8  22649746.660   119025224.094          50.000    22649749.360    88882465.578          50.000  
E13  23793291.440   125034570.648          50.000    23793295.160    93369960.355          50.000  
E15  27290179.620   143410797.754          50.000    27290186.880   107092457.406          50.000  
E26  23389133.740   122910691.023          50.000    23389138.840    91783944.270          50.000  
> 2020  7 17 23 13 45.0000000  0 14       0.000000000000
G10  21405545.940   112486853.398          50.000    21405546.060    83999922.289          50.000  
G13  24556742.040   129046586.434          50.000                                                  
G15  22235025.220   116845658.305          50.000                                                  
G16  23371236.520   122816671.344          50.000                                                  
G20  20160658.480   105944976.504          50.000                                                  
G21  21980677.260   115509258.785          50.000                                                  
G26  23885632.180   125519732.738          50.000    23885635.440    93732252.461          50.000  
G27  22838100.820   120014981.164          50.000    22838102.200    89621576.926          50.000  
G29  23640971.560   124234109.051          50.000                                                  
E 7  24130419.020   126806176.551          50.000    24130424.200    94692911.938          50.000  
E 8  22649948.040   119026282.406          50.000    22649950.740    88883255.871          50.000  
E13  23793420.400   125035248.363          50.000    23793424.120    93370466.438          50.000  
E15  27290579.860   143412901.047          50.000    27290587.120   107094028.043          50.000  
E26  23388853.540   122909218.488          50.000    23388858.620    91782844.648          50.000  
> 2020  7 17 23 13 46.0000000  0 14       0.000000000000
G10  21405241.560   112485253.863          50.000    21405241.660    83998727.836          50.000  
G13  24557239.640   129049201.367          50.000                                                  
G15  22235395.120   116847602.156          50.000                                                  
G16  23371441.400   122817747.973          50.000                                                  
G20  20160683.120   105945105.988          50.000                                                  
G21  21980394.280   115507771.672          50.000                                                  
G26  23886096.540   125522172.930          50.000    23886099.800    93734074.684          50.000  
G27  22837563.260   120012156.199          50.000    22837564.620    89619467.383          50.000  
G29  23641651.900   124237684.215          50.000                                                  
E 7  24130091.840   126804457.195          50.000    24130097.020    94691628.000          50.000  
E 8  22650149.520   119027341.152          50.000    22650152.220    88884046.488          50.000  
E13  23793549.400   125035926.289          50.000    23793553.120    93370972.676          50.000  
E15  27290980.140   143415004.480          50.000    27290987.400   107095598.781          50.000  
E26  23388573.340   122907746.051          50.000    23388578.420    91781745.094          50.000  
> 2020  7 17 23 13 47.0000000  0 14       0.000000000000
G10  21404937.260   112483654.727          50.000    21404937.360    83997533.680          50.000  
G13  24557737.320   129051816.723          50.000                                                  
G15  22235765.140   116849546.613          50.000                                                  
G16  23371646.380   122818825.156          50.000                                                  
G20  20160707.840   105945235.863          50.000                                                  
G21  21980111.300   115506284.648          50.000                                                  
G26  23886560.940   125524613.309          50.000    23886564.180    93735897.047          50.000  
G27  22837025.740   120009331.594          50.000    22837027.120    89617358.105          50.000  
G29  23642332.280   124241259.602          50.000                                                  
E 7  24129764.740   126802738.227          50.000    24129769.920    94690344.352          50.000  
E 8  22650351.060   119028400.301          50.000    22650353.780    88884837.410          50.000  
E13  23793678.460   125036604.438          50.000    23793682.180    93371479.078          50.000  
E15  27291380.440   143417108.039          50.000    27291387.700   107097169.617          50.000  
E26  23388293.160   122906273.723          50.000    23388298.260    91780645.629          50.000  
> 2020  7 17 23 13 48.0000000  0 14       0.000000000000
G10  21404633.020   112482055.961          50.000    21404633.120    83996339.801          50.000  
G13  24558235.100   129054432.543          50.000                                                  
G15  22236135.260   116851491.656          50.000                                                  
G16  23371851.480   122819902.895          50.000                                                  
G20  20160732.620   105945366.129          50.000                                                  
G21  21979828.360   115504797.730          50.000                                                  
G26  23887025.360   125527053.879          50.000    23887028.620    93737719.555          50.000  
G27  22836488.320   120006507.359          50.000    22836489.680    89615249.102          50.000  
G29  23643012.680   124244835.195          50.000                                                  
E 7  24129437.700   126801019.645          50.000    24129442.880    94689060.992          50.000  
E 8  22650552.700   119029459.891          50.000    22650555.400    88885628.656          50.000  
E13  23793807.540   125037282.813          50.000    23793811.260    93371985.656          50.000  
E15  27291780.760   143419211.746          50.000    27291788.020   107098740.563          50.000  
E26  23388013.000   122904801.516          50.000    23388018.100    91779546.246          50.000  
> 2020  7 17 23 13 49.0000000  0 14       0.000000000000
G10  21404328.860   112480457.574          50.000    21404328.960    83995146.207          50.000  
G13  24558732.960   129057048.793          50.000                                                  
G15  22236505.520   116853437.297          50.000                                                  
G16  23372056.660   122820981.215          50.000                                                  
G20  20160757.480   105945496.777          50.000                                                  
G21  21979545.420   115503310.902          50.000                                                  
G26  23887489.820   125529494.641          50.000    23887493.080    93739542.203          50.000  
G27  22835950.940   120003683.473          50.000    22835952.300    89613140.359          50.000  
G29  23643693.140   124248411.004          50.000                                                  
E 7  24129110.740   126799301.438          50.000    24129115.920    94687777.910          50.000  
E 8  22650754.400   119030519.879          50.000    22650757.120    88886420.203          50.000  
E13  23793936.680   125037961.398          50.000    23793940.400    93372492.387          50.000  
E15  27292181.100   143421315.566          50.000    27292188.360   107100311.594          50.000  
E26  23387732.880   122903329.395          50.000    23387737.980    91778446.934          50.000  
> 2020  7 17 23 13 50.0000000  0 14       0.000000000000
G10  21404024.760   112478859.566          50.000    21404024.860    83993952.891          50.000  
G13  24559230.900   129059665.488          50.000                                                  
G15  22236875.880   116855383.539          50.000                                                  
G16  23372261.960   122822060.063          50.000                                                  
G20  20160782.420   105945627.813          50.000                                                  
G21  21979262.500   115501824.172          50.000                                                  
G26  23887954.320   125531935.582          50.000    23887957.560    93741364.988          50.000  
G27  22835413.640   120000859.938          50.000    22835415.000    89611031.883          50.000  
G29  23644373.640   124251987.027          50.000                                                  
E 7  24128783.840   126797583.602          50.000    24128789.020    94686495.109          50.000  
E 8  22650956.200   119031580.277          50.000    22650958.900    88887212.055          50.000  
E13  23794065.860   125038640.211          50.000    23794069.560    93372999.289          50.000  
E15  27292581.480   143423419.535          50.000    27292588.740   107101882.734          50.000  
E26  23387452.760   122901857.387          50.000    23387457.860    91777347.703          50.000  
> 2020  7 17 23 13 51.0000000  0 14       0.000000000000
G10  21403720.760   112477261.957          50.000    21403720.860    83992759.879          50.000  
G13  24559728.920   129062282.629          50.000                                                  
G15  22237246.340   116857330.375          50.000                                                  
G16  23372467.380   122823139.465          50.000                                                  
G20  20160807.440   105945759.230          50.000                                                  
G21  21978979.600   115500337.535          50.000                                                  
G26  23888418.860   125534376.730          50.000    23888422.100    93743187.926          50.000  
G27  22834876.420   119998036.758          50.000    22834877.760    89608923.668          50.000  
G29  23645054.180   124255563.266          50.000                                                  
E 7  24128457.020   126795866.160          50.000    24128462.200    94685212.598          50.000  
E 8  22651158.060   119032641.102          50.000    22651160.780    88888004.227          50.000  
E13  23794195.060   125039319.234          50.000    23794198.780    93373506.348          50.000  
E15  27292981.860   143425523.629          50.000    27292989.140   107103453.969          50.000  
E26  23387172.660   122900385.480          50.000    23387177.760    91776248.551          50.000  
> 2020  7 17 23 13 52.0000000  0 14       0.000000000000
G10  21403416.800   112475664.711          50.000    21403416.900    83991567.133          50.000  
G13  24560227.020   129064900.207          50.000                                                  
G15  22237616.920   116859277.805          50.000                                                  
G16  23372672.880   122824219.410          50.000                                                  
G20  20160832.520   105945891.043          50.000                                                  
G21  21978696.720   115498850.992          50.000                                                  
G26  23888883.420   125536818.059          50.000    23888886.680    93745011.000          50.000  
G27  22834339.240   119995213.934          50.000    22834340.600    89606815.719          50.000  
G29  23645734.760   124259139.703          50.000                                                  
E 7  24128130.280   126794149.090          50.000    24128135.460    94683930.371          50.000  
E 8  22651360.000   119033702.340          50.000    22651362.720    88888796.703          50.000  
E13  23794324.320   125039998.480          50.000    23794328.040    93374013.574          50.000  
E15  27293382.280   143427627.855          50.000    27293389.560   107105025.301          50.000  
E26  23386892.580   122898913.676          50.000    23386897.680    91775149.473          50.000  
> 2020  7 17 23 13 53.0000000  0 14       0.000000000000
G10  21403112.940   112474067.852          50.000    21403113.040    83990374.676          50.000  
G13  24560725.220   129067518.227          50.000                                                  
G15  22237987.620   116861225.832          50.000                                                  
G16  23372878.500   122825299.914          50.000                                                  
G20  20160857.680   105946023.246          50.000                                                  
G21  21978413.860   115497364.539          50.000                                                  
G26  23889348.040   125539259.605          50.000    23889351.280    93746834.234          50.000  
G27  22833802.140   119992391.465          50.000    22833803.500    89604708.039          50.000  
G29  23646415.380   124262716.375          50.000                                                  
E 7  24127803.600   126792432.410          50.000    24127808.780    94682648.430          50.000  
E 8  22651562.040   119034764.008          50.000    22651564.760    88889589.504          50.000  
E13  23794453.620   125040677.961          50.000    23794457.340    93374520.973          50.000  
E15  27293782.740   143429732.230          50.000    27293790.000   107106596.746          50.000  
E26  23386612.540   122897441.977          50.000    23386617.640    91774050.473          50.000  
> 2020  7 17 23 13 54.0000000  0 14       0.000000000000
G10  21402809.140   112472471.387          50.000    21402809.240    83989182.516          50.000  
G13  24561223.500   129070136.691          50.000                                                  
G15  22238358.440   116863174.449          50.000                                                  
G16  23373084.200   122826380.965          50.000                                                  
G20  20160882.900   105946155.828          50.000                                                  
G21  21978131.020   115495878.188          50.000                                                  
G26  23889812.680   125541701.309          50.000    23889815.920    93748657.586          50.000  
G27  22833265.120   119989569.352          50.000    22833266.460    89602600.621          50.000  
G29  23647096.020   124266293.254          50.000                                                  
E 7  24127477.000   126790716.113          50.000    24127482.180    94681366.777          50.000  
E 8  22651764.140   119035826.086          50.000    22651766.860    88890382.609          50.000  
E13  23794582.960   125041357.656          50.000    23794586.680    93375028.531          50.000  
E15  27294183.220   143431836.734          50.000    27294190.480   107108168.281          50.000  
E26  23386332.500   122895970.391          50.000    23386337.600    91772951.555          50.000  
> 2020  7 17 23 13 55.0000000  0 14       0.000000000000
G10  21402505.400   112470875.281          50.000    21402505.500    83987990.625          50.000  
G13  24561721.860   129072755.598          50.000                                                  
G15  22238729.360   116865123.668          50.000                                                  
G16  23373290.020   122827462.559          50.000                                                  
G20  20160908.200   105946288.801          50.000                                                  
G21  21977848.200   115494391.922          50.000                                                  
G26  23890277.360   125544143.219          50.000    23890280.600    93750481.094          50.000  
G27  22832728.160   119986747.594          50.000    22832729.500    89600493.469          50.000  
G29  23647776.720   124269870.344          50.000                                                  
E 7  24127150.480   126789000.195          50.000    24127155.660    94680085.402          50.000  
E 8  22651966.340   119036888.582          50.000    22651969.040    88891176.027          50.000  
E13  23794712.340   125042037.566          50.000    23794716.080    93375536.254          50.000  
E15  27294583.720   143433941.367          50.000    27294590.980   107109739.922          50.000  
E26  23386052.480   122894498.922          50.000    23386057.600    91771852.727          50.000  
> 2020  7 17 23 13 56.0000000  0 14       0.000000000000
G10  21402201.760   112469279.566          50.000    21402201.840    83986799.023          50.000  
G13  24562220.300   129075374.938          50.000                                                  
G15  22239100.400   116867073.480          50.000                                                  
G16  23373495.960   122828544.703          50.000                                                  
G20  20160933.580   105946422.164          50.000                                                  
G21  21977565.380   115492905.766          50.000                                                  
G26  23890742.080   125546585.316          50.000    23890745.320    93752304.738          50.000  
G27  22832191.260   119983926.191          50.000    22832192.600    89598386.582          50.000  
G29  23648457.460   124273447.641          50.000                                                  
E 7  24126824.020   126787284.660          50.000    24126829.200    94678804.320          50.000  
E 8  22652168.600   119037951.492          50.000    22652171.320    88891969.754          50.000  
E13  23794841.780   125042717.695          50.000    23794845.500    93376044.141          50.000  
E15  27294984.240   143436046.137          50.000    27294991.500   107111311.660          50.000  
E26  23385772.500   122893027.547          50.000    23385777.600    91770753.969          50.000  
> 2020  7 17 23 13 57.0000000  0 14       0.000000000000
G10  21401898.180   112467684.242          50.000    21401898.260    83985607.707          50.000  
G13  24562718.840   129077994.727          50.000                                                  
G15  22239471.540   116869023.879          50.000                                                  
G16  23373701.980   122829627.398          50.000                                                  
G20  20160959.040   105946555.914          50.000                                                  
G21  21977282.600   115491419.688          50.000                                                  
G26  23891206.820   125549027.609          50.000    23891210.080    93754128.523          50.000  
G27  22831654.420   119981105.152          50.000    22831655.780    89596279.957          50.000  
G29  23649138.240   124277025.141          50.000                                                  
E 7  24126497.640   126785569.500          50.000    24126502.820    94677523.516          50.000  
E 8  22652370.940   119039014.828          50.000    22652373.660    88892763.801          50.000  
E13  23794971.240   125043398.055          50.000    23794974.960    93376552.195          50.000  
E15  27295384.780   143438151.035          50.000    27295392.060   107112883.492          50.000  
E26  23385492.520   122891556.277          50.000    23385497.620    91769655.289          50.000  
> 2020  7 17 23 13 58.0000000  0 14       0.000000000000
G10  21401594.660   112466089.285          50.000    21401594.760    83984416.672          50.000  
G13  24563217.440   129080614.945          50.000                                                  
G15  22239842.820   116870974.879          50.000                                                  
G16  23373908.120   122830710.629          50.000                                                  
G20  20160984.560   105946690.047          50.000                                                  
G21  21976999.820   115489933.699          50.000                                                  
G26  23891671.620   125551470.086          50.000    23891674.860    93755952.457          50.000  
G27  22831117.660   119978284.453          50.000    22831119.020    89594173.598          50.000  
G29  23649819.060   124280602.863          50.000                                                  
E 7  24126171.320   126783854.723          50.000    24126176.520    94676242.996          50.000  
E 8  22652573.360   119040078.566          50.000    22652576.080    88893558.145          50.000  
E13  23795100.740   125044078.621          50.000    23795104.480    93377060.406          50.000  
E15  27295785.360   143440256.063          50.000    27295792.640   107114455.426          50.000  
E26  23385212.560   122890085.113          50.000    23385217.680    91768556.691          50.000  
> 2020  7 17 23 13 59.0000000  0 14       0.000000000000
G10  21401291.220   112464494.711          50.000    21401291.320    83983225.930          50.000  
G13  24563716.140   129083235.602          50.000                                                  
G15  22240214.180   116872926.477          50.000                                                  
G16  23374114.360   122831794.406          50.000                                                  
G20  20161010.160   105946824.570          50.000                                                  
G21  21976717.060   115488447.805          50.000                                                  
G26  23892136.440   125553912.754          50.000    23892139.680    93757776.531          50.000  
G27  22830580.980   119975464.129          50.000    22830582.320    89592067.520          50.000  
G29  23650499.920   124284180.789          50.000                                                  
E 7  24125845.080   126782140.332          50.000    24125850.280    94674962.766          50.000  
E 8  22652775.860   119041142.734          50.000    22652778.600    88894352.813          50.000  
E13  23795230.300   125044759.414          50.000    23795234.020    93377568.785          50.000  
E15  27296185.960   143442361.227          50.000    27296193.240   107116027.457          50.000  
E26  23384932.640   122888614.051          50.000    23384937.740    91767458.168          50.000  
> 2020  7 17 23 14  0.0000000  0 14       0.000000000000
G10  21400987.860   112462900.520          50.000    21400987.940    83982035.469          50.000  
G13  24564214.920   129085856.715          50.000                                                  
G15  22240585.680   116874878.672          50.000                                                  
G16  23374320.700   122832878.746          50.000                                                  
G20  20161035.840   105946959.484          50.000                                                  
G21  21976434.320   115486962.016          50.000                                                  
G26  23892601.300   125556355.613          50.000    23892604.540    93759600.750          50.000  
G27  22830044.360   119972644.137          50.000    22830045.700    89589961.688          50.000  
G29  23651180.820   124287758.934          50.000                                                  
E 7  24125518.920   126780426.313          50.000    24125524.100    94673682.816          50.000  
E 8  22652978.460   119042207.313          50.000    22652981.180    88895147.789          50.000  
E13  23795359.880   125045440.418          50.000    23795363.620    93378077.324          50.000  
E15  27296586.580   143444466.520          50.000    27296593.860   107117599.586          50.000  
E26  23384652.720   122887143.105          50.000    23384657.820    91766359.730          50.000  
> 2020  7 17 23 14  1.0000000  0 14       0.000000000000
G10  21400684.560   112461306.715          50.000    21400684.660    83980845.293          50.000  
G13  24564713.800   129088478.270          50.000                                                  
G15  22240957.280   116876831.469          50.000                                                  
G16  23374527.140   122833963.625          50.000                                                  
G20  20161061.580   105947094.785          50.000                                                  
G21  21976151.620   115485476.320          50.000                                                  
G26  23893066.200   125558798.664          50.000    23893069.440    93761425.109          50.000  
G27  22829507.800   119969824.516          50.000    22829509.140    89587856.133          50.000  
G29  23651861.760   124291337.301          50.000                                                  
E 7  24125192.820   126778712.688          50.000    24125198.020    94672403.156          50.000  
E 8  22653181.120   119043272.313          50.000    22653183.840    88895943.074          50.000  
E13  23795489.520   125046121.656          50.000    23795493.260    93378586.039          50.000  
E15  27296987.240   143446571.969          50.000    27296994.520   107119171.832          50.000  
E26  23384372.840   122885672.266          50.000    23384377.940    91765261.371          50.000  
> 2020  7 17 23 14  2.0000000  0 14       0.000000000000
G10  21400381.340   112459713.281          50.000    21400381.440    83979655.395          50.000  
G13  24565212.740   129091100.262          50.000                                                  
G15  22241329.000   116878784.863          50.000                                                  
G16  23374733.700   122835049.047          50.000                                                  
G20  20161087.400   105947230.480          50.000                                                  
G21  21975868.900   115483990.719          50.000                                                  
G26  23893531.140   125561241.906          50.000    23893534.380    93763249.609          50.000  
G27  22828971.300   119967005.250          50.000    22828972.640    89585750.844          50.000  
G29  23652542.760   124294915.891          50.000                                                  
E 7  24124866.800   126776999.438          50.000    24124872.000    94671123.777          50.000  
E 8  22653383.860   119044337.723          50.000    22653386.580    88896738.672          50.000  
E13  23795619.200   125046803.109          50.000    23795622.940    93379094.910          50.000  
E15  27297387.920   143448677.543          50.000    27297395.200   107120744.172          50.000  
E26  23384092.960   122884201.527          50.000    23384098.060    91764163.090          50.000  
> 2020  7 17 23 14  3.0000000  0 14       0.000000000000
G10  21400078.200   112458120.246          50.000    21400078.280    83978465.793          50.000  
G13  24565711.780   129093722.699          50.000                                                  
G15  22241700.840   116880738.855          50.000                                                  
G16  23374940.360   122836135.031          50.000                                                  
G20  20161113.300   105947366.559          50.000                                                  
G21  21975586.220   115482505.219          50.000                                                  
G26  23893996.100   125563685.340          50.000    23893999.340    93765074.254          50.000  
G27  22828434.880   119964186.344          50.000    22828436.220    89583645.820          50.000  
G29  23653223.780   124298494.672          50.000                                                  
E 7  24124540.860   126775286.574          50.000    24124546.060    94669844.688          50.000  
E 8  22653586.680   119045403.559          50.000    22653589.400    88897534.582          50.000  
E13  23795748.920   125047484.785          50.000    23795752.660    93379603.949          50.000  
E15  27297788.620   143450783.246          50.000    27297795.900   107122316.605          50.000  
E26  23383813.100   122882730.902          50.000    23383818.220    91763064.891          50.000  
> 2020  7 17 23 14  4.0000000  0 14       0.000000000000
G10  21399775.120   112456527.578          50.000    21399775.220    83977276.469          50.000  
G13  24566210.900   129096345.578          50.000                                                  
G15  22242072.780   116882693.441          50.000                                                  
G16  23375147.120   122837221.559          50.000                                                  
G20  20161139.260   105947503.020          50.000                                                  
G21  21975303.560   115481019.809          50.000                                                  
G26  23894461.120   125566128.957          50.000    23894464.360    93766899.039          50.000  
G27  22827898.540   119961367.813          50.000    22827899.880    89581541.078          50.000  
G29  23653904.840   124302073.680          50.000                                                  
E 7  24124214.980   126773574.094          50.000    24124220.180    94668565.883          50.000  
E 8  22653789.580   119046469.809          50.000    22653792.300    88898330.805          50.000  
E13  23795878.680   125048166.688          50.000    23795882.420    93380113.160          50.000  
E15  27298189.360   143452889.086          50.000    27298196.640   107123889.145          50.000  
E26  23383533.280   122881260.379          50.000    23383538.380    91761966.770          50.000  
> 2020  7 17 23 14  5.0000000  0 14       0.000000000000
G10  21399472.120   112454935.289          50.000    21399472.200    83976087.426          50.000  
G13  24566710.100   129098968.895          50.000                                                  
G15  22242444.840   116884648.625          50.000                                                  
G16  23375353.980   122838308.629          50.000                                                  
G20  20161165.300   105947639.867          50.000                                                  
G21  21975020.920   115479534.492          50.000                                                  
G26  23894926.160   125568572.766          50.000    23894929.400    93768723.961          50.000  
G27  22827362.260   119958549.617          50.000    22827363.580    89579436.582          50.000  
G29  23654585.940   124305652.891          50.000                                                  
E 7  24123889.180   126771861.988          50.000    24123894.380    94667287.359          50.000  
E 8  22653992.560   119047536.473          50.000    22653995.280    88899127.336          50.000  
E13  23796008.480   125048848.805          50.000    23796012.220    93380622.527          50.000  
E15  27298590.100   143454995.066          50.000    27298597.380   107125461.789          50.000  
E26  23383253.460   122879789.961          50.000    23383258.580    91760868.727          50.000  
> 2020  7 17 23 14  6.0000000  0 14       0.000000000000
G10  21399169.200   112453343.398          50.000    21399169.280    83974898.676          50.000  
G13  24567209.380   129101592.652          50.000                                                  
G15  22242817.020   116886604.402          50.000                                                  
G16  23375560.940   122839396.258          50.000                                                  
G20  20161191.420   105947777.105          50.000                                                  
G21  21974738.280   115478049.273          50.000                                                  
G26  23895391.240   125571016.770          50.000    23895394.480    93770549.027          50.000  
G27  22826826.040   119955731.789          50.000    22826827.380    89577332.359          50.000  
G29  23655267.080   124309232.313          50.000                                                  
E 7  24123563.440   126770150.273          50.000    24123568.640    94666009.129          50.000  
E 8  22654195.620   119048603.563          50.000    22654198.340    88899924.184          50.000  
E13  23796138.320   125049531.141          50.000    23796142.060    93381132.059          50.000  
E15  27298990.880   143457101.164          50.000    27298998.160   107127034.520          50.000  
E26  23382973.680   122878319.648          50.000    23382978.780    91759770.766          50.000  
> 2020  7 17 23 14  7.0000000  0 14       0.000000000000
G10  21398866.340   112451751.879          50.000    21398866.420    83973710.203          50.000  
G13  24567708.740   129104216.852          50.000                                                  
G15  22243189.300   116888560.785          50.000                                                  
G16  23375768.020   122840484.438          50.000                                                  
G20  20161217.620   105947914.746          50.000                                                  
G21  21974455.680   115476564.152          50.000                                                  
G26  23895856.340   125573460.961          50.000    23895859.600    93772374.230          50.000  
G27  22826289.880   119952914.316          50.000    22826291.220    89575228.406          50.000  
G29  23655948.260   124312811.953          50.000                                                  
E 7  24123237.800   126768438.938          50.000    24123243.000    94664731.180          50.000  
E 8  22654398.760   119049671.055          50.000    22654401.480    88900721.332          50.000  
E13  23796268.220   125050213.703          50.000    23796271.960    93381641.762          50.000  
E15  27299391.700   143459207.414          50.000    27299398.980   107128607.363          50.000  
E26  23382693.900   122876849.449          50.000    23382699.020    91758672.883          50.000  
> 2020  7 17 23 14  8.0000000  0 14       0.000000000000
G10  21398563.560   112450160.738          50.000    21398563.640    83972522.012          50.000  
G13  24568208.200   129106841.500          50.000                                                  
G15  22243561.700   116890517.754          50.000                                                  
G16  23375975.200   122841573.168          50.000                                                  
G20  20161243.880   105948052.762          50.000                                                  
G21  21974173.080   115475079.129          50.000                                                  
G26  23896321.500   125575905.344          50.000    23896324.740    93774199.582          50.000  
G27  22825753.800   119950097.199          50.000    22825755.140    89573124.715          50.000  
G29  23656629.480   124316391.797          50.000                                                  
E 7  24122912.200   126766727.984          50.000    24122917.400    94663453.516          50.000  
E 8  22654601.980   119050738.973          50.000    22654604.700    88901518.797          50.000  
E13  23796398.140   125050896.480          50.000    23796401.880    93382151.625          50.000  
E15  27299792.520   143461313.777          50.000    27299799.800   107130180.293          50.000  
E26  23382414.160   122875379.348          50.000    23382419.260    91757575.078          50.000  
> 2020  7 17 23 14  9.0000000  0 14       0.000000000000
G10  21398260.840   112448569.992          50.000    21398260.920    83971334.121          50.000  
G13  24568707.740   129109466.551          50.000                                                  
G15  22243934.220   116892475.332          50.000                                                  
G16  23376182.480   122842662.434          50.000                                                  
G20  20161270.220   105948191.148          50.000                                                  
G21  21973890.520   115473594.199          50.000                                                  
G26  23896786.700   125578349.883          50.000    23896789.940    93776025.031          50.000  
G27  22825217.800   119947280.422          50.000    22825219.140    89571021.273          50.000  
G29  23657310.780   124319971.746          50.000                                                  
E 7  24122586.700   126765017.410          50.000    24122591.900    94662176.141          50.000  
E 8  22654805.260   119051807.313          50.000    22654808.000    88902316.586          50.000  
E13  23796528.120   125051579.469          50.000    23796531.840    93382661.645          50.000  
E15  27300193.380   143463420.219          50.000    27300200.680   107131753.238          50.000  
E26  23382134.420   122873909.363          50.000    23382139.540    91756477.359          50.000  
> 2020  7 17 23 14 10.0000000  0 14       0.000000000000
G10  21397958.200   112446979.609          50.000    21397958.280    83970146.500          50.000  
G13  24569207.360   129112092.078          50.000                                                  
G15  22244306.840   116894433.488          50.000                                                  
G16  23376389.860   122843752.254          50.000                                                  
G20  20161296.620   105948329.934          50.000                                                  
G21  21973607.960   115472109.352          50.000                                                  
G26  23897251.920   125580794.648          50.000    23897255.160    93777850.668          50.000  
G27  22824681.840   119944464.012          50.000    22824683.180    89568918.113          50.000  
G29  23657992.080   124323552.027          50.000                                                  
E 7  24122261.260   126763307.223          50.000    24122266.460    94660899.055          50.000  
E 8  22655008.640   119052876.066          50.000    22655011.380    88903114.680          50.000  
E13  23796658.120   125052262.691          50.000    23796661.860    93383171.844          50.000  
E15  27300594.260   143465526.852          50.000    27300601.560   107133326.375          50.000  
E26  23381854.720   122872439.477          50.000    23381859.820    91755379.719          50.000  
> 2020  7 17 23 14 11.0000000  0 14       0.000000000000
G10  21397655.640   112445389.625          50.000    21397655.720    83968959.172          50.000  
G13  24569707.060   129114718.031          50.000                                                  
G15  22244679.580   116896392.238          50.000                                                  
G16  23376597.340   122844842.613          50.000                                                  
G20  20161323.100   105948469.105          50.000                                                  
G21  21973325.420   115470624.613          50.000                                                  
G26  23897717.180   125583239.598          50.000    23897720.420    93779676.438          50.000  
G27  22824145.980   119941647.965          50.000    22824147.300    89566815.223          50.000  
G29  23658673.420   124327132.516          50.000                                                  
E 7  24121935.880   126761597.410          50.000    24121941.080    94659622.246          50.000  
E 8  22655212.100   119053945.246          50.000    22655214.840    88903913.098          50.000  
E13  23796788.180   125052946.137          50.000    23796791.920    93383682.207          50.000  
E15  27300995.180   143467633.641          50.000    27301002.480   107134899.625          50.000  
E26  23381575.020   122870969.707          50.000    23381580.140    91754282.160          50.000  
> 2020  7 17 23 14 12.0000000  0 14       0.000000000000
G10  21397353.140   112443800.000          50.000    21397353.220    83967772.117          50.000  
G13  24570206.860   129117344.434          50.000                                                  
G15  22245052.420   116898351.582          50.000                                                  
G16  23376804.940   122845933.523          50.000                                                  
G20  20161349.660   105948608.668          50.000                                                  
G21  21973042.900   115469139.961          50.000                                                  
G26  23898182.460   125585684.734          50.000    23898185.720    93781502.352          50.000  
G27  22823610.160   119938832.285          50.000    22823611.500    89564712.605          50.000  
G29  23659354.800   124330713.215          50.000                                                  
E 7  24121610.600   126759887.988          50.000    24121615.800    94658345.730          50.000  
E 8  22655415.640   119055014.824          50.000    22655418.360    88904711.805          50.000  
E13  23796918.280   125053629.801          50.000    23796922.020    93384192.734          50.000  
E15  27301396.100   143469740.563          50.000    27301403.400   107136472.977          50.000  
E26  23381295.360   122869500.043          50.000    23381300.460    91753184.688          50.000  
> 2020  7 17 23 14 13.0000000  0 14       0.000000000000
G10  21397050.720   112442210.777          50.000    21397050.800    83966585.363          50.000  
G13  24570706.720   129119971.266          50.000                                                  
G15  22245425.380   116900311.520          50.000                                                  
G16  23377012.640   122847024.984          50.000                                                  
G20  20161376.300   105948748.617          50.000                                                  
G21  21972760.400   115467655.418          50.000                                                  
G26  23898647.800   125588130.063          50.000    23898651.040    93783328.410          50.000  
G27  22823074.420   119936016.941          50.000    22823075.760    89562610.238          50.000  
G29  23660036.240   124334294.125          50.000                                                  
E 7  24121285.380   126758178.941          50.000    24121290.580    94657069.496          50.000  
E 8  22655619.260   119056084.816          50.000    22655621.980    88905510.828          50.000  
E13  23797048.420   125054313.688          50.000    23797052.160    93384703.430          50.000  
E15  27301797.060   143471847.590          50.000    27301804.360   107138046.402          50.000  
E26  23381015.700   122868030.477          50.000    23381020.820    91752087.285          50.000  
> 2020  7 17 23 14 14.0000000  0 14       0.000000000000
G10  21396748.380   112440621.918          50.000    21396748.460    83965398.879          50.000  
G13  24571206.680   129122598.547          50.000                                                  
G15  22245798.460   116902272.055          50.000                                                  
G16  23377220.440   122848116.996          50.000                                                  
G20  20161403.000   105948888.953          50.000                                                  
G21  21972477.920   115466170.957          50.000                                                  
G26  23899113.160   125590575.586          50.000    23899116.420    93785154.609          50.000  
G27  22822538.740   119933201.973          50.000    22822540.080    89560508.152          50.000  
G29  23660717.700   124337875.238          50.000                                                  
E 7  24120960.220   126756470.270          50.000    24120965.420    94655793.539          50.000  
E 8  22655822.940   119057155.234          50.000    22655825.680    88906310.164          50.000  
E13  23797178.600   125054997.777          50.000    23797182.340    93385214.277          50.000  
E15  27302198.040   143473954.770          50.000    27302205.340   107139619.945          50.000  
E26  23380736.080   122866561.016          50.000    23380741.200    91750989.961          50.000  
> 2020  7 17 23 14 15.0000000  0 14       0.000000000000
G10  21396446.100   112439033.449          50.000    21396446.180    83964212.684          50.000  
G13  24571706.720   129125226.262          50.000                                                  
G15  22246171.660   116904233.188          50.000                                                  
G16  23377428.360   122849209.551          50.000                                                  
G20  20161429.780   105949029.684          50.000                                                  
G21  21972195.460   115464686.605          50.000                                                  
G26  23899578.580   125593021.289          50.000    23899581.820    93786980.945          50.000  
G27  22822003.140   119930387.359          50.000    22822004.480    89558406.332          50.000  
G29  23661399.200   124341456.570          50.000                                                  
E 7  24120635.140   126754761.992          50.000    24120640.340    94654517.879          50.000  
E 8  22656026.720   119058226.066          50.000    22656029.440    88907109.813          50.000  
E13  23797308.820   125055682.105          50.000    23797312.560    93385725.301          50.000  
E15  27302599.060   143476062.063          50.000    27302606.360   107141193.574          50.000  
E26  23380456.460   122865091.668          50.000    23380461.580    91749892.719          50.000  
> 2020  7 17 23 14 16.0000000  0 14       0.000000000000
G10  21396143.900   112437445.355          50.000    21396143.980    83963026.770          50.000  
G13  24572206.840   129127854.418          50.000                                                  
G15  22246544.960   116906194.910          50.000                                                  
G16  23377636.360   122850302.652          50.000                                                  
G20  20161456.640   105949170.797          50.000                                                  
G21  21971913.000   115463202.332          50.000                                                  
G26  23900044.000   125595467.172          50.000    23900047.260    93788807.414          50.000  
G27  22821467.600   119927573.098          50.000    22821468.940    89556304.773          50.000  
G29  23662080.760   124345038.117          50.000                                                  
E 7  24120310.140   126753054.086          50.000    24120315.340    94653242.496          50.000  
E 8  22656230.560   119059297.313          50.000    22656233.300    88907909.770          50.000  
E13  23797439.080   125056366.648          50.000    23797442.820    93386236.484          50.000  
E15  27303000.080   143478169.512          50.000    27303007.380   107142767.316          50.000  
E26  23380176.880   122863622.426          50.000    23380182.000    91748795.559          50.000  
> 2020  7 17 23 14 17.0000000  0 14       0.000000000000
G10  21395841.760   112435857.648          50.000    21395841.840    83961841.145          50.000  
G13  24572707.040   129130483.012          50.000                                                  
G15  22246918.380   116908157.234          50.000                                                  
G16  23377844.480   122851396.301          50.000                                                  
G20  20161483.560   105949312.293          50.000                                                  
G21  21971630.580   115461718.168          50.000                                                  
G26  23900509.480   125597913.262          50.000    23900512.740    93790634.039          50.000  
G27  22820932.140   119924759.203          50.000    22820933.480    89554203.492          50.000  
G29  23662762.340   124348619.883          50.000                                                  
E 7  24119985.220   126751346.578          50.000    24119990.420    94651967.410          50.000  
E 8  22656434.500   119060368.980          50.000    22656437.240    88908710.043          50.000  
E13  23797569.400   125057051.422          50.000    23797573.120    93386747.844          50.000  
E15  27303401.140   143480277.098          50.000    27303408.440   107144341.164          50.000  
E26  23379897.320   122862153.301          50.000    23379902.420    91747698.484          50.000  
> 2020  7 17 23 14 18.0000000  0 14       0.000000000000
G10  21395539.700   112434270.328          50.000    21395539.780    83960655.809          50.000  
G13  24573207.340   129133112.055          50.000                                                  
G15  22247291.920   116910120.148          50.000                                                  
G16  23378052.700   122852490.496          50.000                                                  
G20  20161510.560   105949454.180          50.000                                                  
G21  21971348.160   115460234.090          50.000                                                  
G26  23900975.000   125600359.523          50.000    23900978.240    93792460.793          50.000  
G27  22820396.740   119921945.656          50.000    22820398.080    89552102.469          50.000  
G29  23663443.960   124352201.844          50.000                                                  
E 7  24119660.360   126749639.441          50.000    24119665.560    94650692.598          50.000  
E 8  22656638.520   119061441.066          50.000    22656641.240    88909510.625          50.000  
E13  23797699.740   125057736.410          50.000    23797703.480    93387259.359          50.000  
E15  27303802.240   143482384.816          50.000    27303809.540   107145915.105          50.000  
E26  23379617.760   122860684.273          50.000    23379622.880    91746601.484          50.000  
> 2020  7 17 23 14 19.0000000  0 14       0.000000000000
G10  21395237.720   112432683.379          50.000    21395237.800    83959470.750          50.000  
G13  24573707.700   129135741.531          50.000                                                  
G15  22247665.560   116912083.652          50.000                                                  
G16  23378261.020   122853585.246          50.000                                                  
G20  20161537.640   105949596.449          50.000                                                  
G21  21971065.780   115458750.117          50.000                                                  
G26  23901440.540   125602805.984          50.000    23901443.800    93794287.691          50.000  
G27  22819861.400   119919132.473          50.000    22819862.740    89550001.715          50.000  
G29  23664125.640   124355784.023          50.000                                                  
E 7  24119335.580   126747932.688          50.000    24119340.780    94649418.074          50.000  
E 8  22656842.600   119062513.566          50.000    22656845.340    88910311.516          50.000  
E13  23797830.120   125058421.609          50.000    23797833.860    93387771.035          50.000  
E15  27304203.340   143484492.652          50.000    27304210.640   107147489.141          50.000  
E26  23379338.240   122859215.352          50.000    23379343.360    91745504.563          50.000  
> 2020  7 17 23 14 20.0000000  0 14       0.000000000000
G10  21394935.800   112431096.816          50.000    21394935.880    83958285.977          50.000  
G13  24574208.160   129138371.445          50.000                                                  
G15  22248039.320   116914047.754          50.000                                                  
G16  23378469.440   122854680.531          50.000                                                  
G20  20161564.780   105949739.109          50.000                                                  
G21  21970783.400   115457266.227          50.000                                                  
G26  23901906.120   125605252.637          50.000    23901909.380    93796114.734          50.000  
G27  22819326.140   119916319.648          50.000    22819327.480    89547901.227          50.000  
G29  23664807.340   124359366.406          50.000                                                  
E 7  24119010.860   126746226.313          50.000    24119016.060    94648143.836          50.000  
E 8  22657046.760   119063586.473          50.000    22657049.500    88911112.715          50.000  
E13  23797960.560   125059107.043          50.000    23797964.300    93388282.883          50.000  
E15  27304604.480   143486600.637          50.000    27304611.780   107149063.281          50.000  
E26  23379058.740   122857746.531          50.000    23379063.840    91744407.715          50.000  
> 2020  7 17 23 14 21.0000000  0 14       0.000000000000
G10  21394633.960   112429510.641          50.000    21394634.040    83957101.496          50.000  
G13  24574708.700   129141001.801          50.000                                                  
G15  22248413.180   116916012.445          50.000                                                  
G16  23378677.980   122855776.371          50.000                                                  
G20  20161592.000   105949882.160          50.000                                                  
G21  21970501.040   115455782.438          50.000                                                  
G26  23902371.740   125607699.469          50.000    23902375.000    93797941.914          50.000  
G27  22818790.960   119913507.191          50.000    22818792.280    89545801.020          50.000  
G29  23665489.080   124362949.008          50.000                                                  
E 7  24118686.220   126744520.332          50.000    24118691.420    94646869.887          50.000  
E 8  22657251.020   119064659.805          50.000    22657253.740    88911914.227          50.000  
E13  23798091.040   125059792.695          50.000    23798094.780    93388794.898          50.000  
E15  27305005.640   143488708.746          50.000    27305012.940   107150637.520          50.000  
E26  23378779.240   122856277.828          50.000    23378784.360    91743310.957          50.000  
> 2020  7 17 23 14 22.0000000  0 14       0.000000000000
G10  21394332.200   112427924.836          50.000    21394332.280    83955917.293          50.000  
G13  24575209.320   129143632.602          50.000                                                  
G15  22248787.160   116917977.738          50.000                                                  
G16  23378886.620   122856872.758          50.000                                                  
G20  20161619.300   105950025.594          50.000                                                  
G21  21970218.700   115454298.742          50.000                                                  
G26  23902837.400   125610146.496          50.000    23902840.640    93799769.238          50.000  
G27  22818255.820   119910695.070          50.000    22818257.160    89543701.059          50.000  
G29  23666170.880   124366531.813          50.000                                                  
E 7  24118361.660   126742814.727          50.000    24118366.860    94645596.223          50.000  
E 8  22657455.340   119065733.559          50.000    22657458.080    88912716.059          50.000  
E13  23798221.560   125060478.563          50.000    23798225.300    93389307.070          50.000  
E15  27305406.820   143490816.996          50.000    27305414.120   107152211.859          50.000  
E26  23378499.780   122854809.230          50.000    23378504.900    91742214.277          50.000  
> 2020  7 17 23 14 23.0000000  0 14       0.000000000000
G10  21394030.500   112426339.422          50.000    21394030.580    83954733.383          50.000  
G13  24575710.040   129146263.836          50.000                                                  
G15  22249161.260   116919943.621          50.000                                                  
G16  23379095.360   122857969.707          50.000                                                  
G20  20161646.660   105950169.414          50.000                                                  
G21  21969936.380   115452815.148          50.000                                                  
G26  23903303.080   125612593.703          50.000    23903306.340    93801596.695          50.000  
G27  22817720.760   119907883.328          50.000    22817722.100    89541601.383          50.000  
G29  23666852.700   124370114.836          50.000                                                  
E 7  24118037.160   126741109.508          50.000    24118042.360    94644322.844          50.000  
E 8  22657659.760   119066807.723          50.000    22657662.480    88913518.191          50.000  
E13  23798352.120   125061164.656          50.000    23798355.860    93389819.414          50.000  
E15  27305808.040   143492925.375          50.000    27305815.340   107153786.297          50.000  
E26  23378220.340   122853340.742          50.000    23378225.460    91741117.680          50.000  
> 2020  7 17 23 14 24.0000000  0 14       0.000000000000
G10  21393728.880   112424754.375          50.000    21393728.960    83953549.742          50.000  
G13  24576210.820   129148895.512          50.000                                                  
G15  22249535.460   116921910.098          50.000                                                  
G16  23379304.200   122859067.180          50.000                                                  
G20  20161674.100   105950313.621          50.000                                                  
G21  21969654.080   115451331.633          50.000                                                  
G26  23903768.820   125615041.109          50.000    23903772.060    93803424.309          50.000  
G27  22817185.780   119905071.938          50.000    22817187.100    89539501.969          50.000  
G29  23667534.560   124373698.059          50.000                                                  
E 7  24117712.740   126739404.664          50.000    24117717.940    94643049.750          50.000  
E 8  22657864.240   119067882.305          50.000    22657866.960    88914320.641          50.000  
E13  23798482.720   125061850.969          50.000    23798486.460    93390331.918          50.000  
E15  27306209.280   143495033.883          50.000    27306216.580   107155360.832          50.000  
E26  23377940.920   122851872.352          50.000    23377946.020    91740021.152          50.000  
> 2020  7 17 23 14 25.0000000  0 14       0.000000000000
G10  21393427.320   112423169.727          50.000    21393427.400    83952366.402          50.000  
G13  24576711.700   129151527.633          50.000                                                  
G15  22249909.780   116923877.168          50.000                                                  
G16  23379513.140   122860165.207          50.000                                                  
G20  20161701.620   105950458.215          50.000                                                  
G21  21969371.800   115449848.227          50.000                                                  
G26  23904234.580   125617488.691          50.000    23904237.820    93805252.047          50.000  
G27  22816650.860   119902260.906          50.000    22816652.180    89537402.824          50.000  
G29  23668216.480   124377281.500          50.000                                                  
E 7  24117388.400   126737700.203          50.000    24117393.600    94641776.938          50.000  
E 8  22658068.800   119068957.289          50.000    22658071.540    88915123.391          50.000  
E13  23798613.360   125062537.500          50.000    23798617.100    93390844.590          50.000  
E15  27306610.540   143497142.531          50.000    27306617.840   107156935.469          50.000  
E26  23377661.520   122850404.074          50.000    23377666.620    91738924.715          50.000  
> 2020  7 17 23 14 26.0000000  0 14       0.000000000000
G10  21393125.840   112421585.445          50.000    21393125.920    83951183.336          50.000  
G13  24577212.660   129154160.188          50.000                                                  
G15  22250284.220   116925844.828          50.000                                                  
G16  23379722.200   122861263.781          50.000                                                  
G20  20161729.200   105950603.191          50.000                                                  
G21  21969089.540   115448364.914          50.000                                                  
G26  23904700.360   125619936.469          50.000    23904703.620    93807079.930          50.000  
G27  22816116.000   119899450.227          50.000    22816117.340    89535303.941          50.000  
G29  23668898.420   124380865.156          50.000                                                  
E 7  24117064.120   126735996.133          50.000    24117069.320    94640504.418          50.000  
E 8  22658273.440   119070032.703          50.000    22658276.180    88915926.457          50.000  
E13  23798744.040   125063224.254          50.000    23798747.780    93391357.422          50.000  
E15  27307011.820   143499251.324          50.000    27307019.140   107158510.215          50.000  
E26  23377382.120   122848935.898          50.000    23377387.240    91737828.352          50.000  
> 2020  7 17 23 14 27.0000000  0 14       0.000000000000
G10  21392824.440   112420001.563          50.000    21392824.520    83950000.566          50.000  
G13  24577713.700   129156793.184          50.000                                                  
G15  22250658.760   116927813.082          50.000                                                  
G16  23379931.360   122862362.906          50.000                                                  
G20  20161756.880   105950748.563          50.000                                                  
G21  21968807.300   115446881.711          50.000                                                  
G26  23905166.200   125622384.430          50.000    23905169.460    93808907.949          50.000  
G27  22815581.220   119896639.914          50.000    22815582.540    89533205.332          50.000  
G29  23669580.420   124384449.023          50.000                                                  
E 7  24116739.920   126734292.438          50.000    24116745.120    94639232.180          50.000  
E 8  22658478.160   119071108.535          50.000    22658480.900    88916729.836          50.000  
E13  23798874.760   125063911.227          50.000    23798878.500    93391870.422          50.000  
E15  27307413.140   143501360.223          50.000    27307420.440   107160085.043          50.000  
E26  23377102.760   122847467.844          50.000    23377107.880    91736732.074          50.000  
> 2020  7 17 23 14 28.0000000  0 14       0.000000000000
G10  21392523.120   112418418.039          50.000    21392523.200    83948818.066          50.000  
G13  24578214.840   129159426.613          50.000                                                  
G15  22251033.420   116929781.938          50.000                                                  
G16  23380140.620   122863462.590          50.000                                                  
G20  20161784.600   105950894.313          50.000                                                  
G21  21968525.060   115445398.594          50.000                                                  
G26  23905632.060   125624832.578          50.000    23905635.320    93810736.113          50.000  
G27  22815046.500   119893829.965          50.000    22815047.820    89531106.992          50.000  
G29  23670262.440   124388033.098          50.000                                                  
E 7  24116415.780   126732589.129          50.000    24116420.980    94637960.230          50.000  
E 8  22658682.980   119072184.777          50.000    22658685.700    88917533.523          50.000  
E13  23799005.540   125064598.430          50.000    23799009.280    93392383.594          50.000  
E15  27307814.480   143503469.289          50.000    27307821.780   107161659.992          50.000  
E26  23376823.420   122845999.887          50.000    23376828.540    91735635.871          50.000  
> 2020  7 17 23 14 29.0000000  0 14       0.000000000000
G10  21392221.860   112416834.914          50.000    21392221.940    83947635.863          50.000  
G13  24578716.040   129162060.480          50.000                                                  
G15  22251408.200   116931751.379          50.000                                                  
G16  23380349.980   122864562.797          50.000                                                  
G20  20161812.420   105951040.457          50.000                                                  
G21  21968242.860   115443915.586          50.000                                                  
G26  23906097.980   125627280.914          50.000    23906101.220    93812564.414          50.000  
G27  22814511.840   119891020.371          50.000    22814513.180    89529008.922          50.000  
G29  23670944.500   124391617.387          50.000                                                  
E 7  24116091.740   126730886.203          50.000    24116096.920    94636688.566          50.000  
E 8  22658887.860   119073261.438          50.000    22658890.580    88918337.523          50.000  
E13  23799136.360   125065285.852          50.000    23799140.100    93392896.926          50.000  
E15  27308215.840   143505578.469          50.000    27308223.160   107163235.031          50.000  
E26  23376544.100   122844532.023          50.000    23376549.200    91734539.742          50.000  
> 2020  7 17 23 14 30.0000000  0 14       0.000000000000
G10  21391920.660   112415252.168          50.000    21391920.740    83946453.945          50.000  
G13  24579217.340   129164694.789          50.000                                                  
G15  22251783.080   116933721.414          50.000                                                  
G16  23380559.460   122865663.563          50.000                                                  
G20  20161840.300   105951186.984          50.000                                                  
G21  21967960.660   115442432.676          50.000                                                  
G26  23906563.920   125629729.441          50.000    23906567.160    93814392.859          50.000  
G27  22813977.260   119888211.137          50.000    22813978.600    89526911.117          50.000  
G29  23671626.620   124395201.887          50.000                                                  
E 7  24115767.740   126729183.660          50.000    24115772.940    94635417.184          50.000  
E 8  22659092.820   119074338.504          50.000    22659095.540    88919141.828          50.000  
E13  23799267.200   125065973.484          50.000    23799270.940    93393410.418          50.000  
E15  27308617.240   143507687.770          50.000    27308624.540   107164810.156          50.000  
E26  23376264.800   122843064.285          50.000    23376269.900    91733443.707          50.000  
> 2020  7 17 23 14 31.0000000  0 14       0.000000000000
G10  21391619.560   112413669.805          50.000    21391619.640    83945272.309          50.000  
G13  24579718.700   129167329.539          50.000                                                  
G15  22252158.080   116935692.051          50.000                                                  
G16  23380769.020   122866764.883          50.000                                                  
G20  20161868.260   105951333.898          50.000                                                  
G21  21967678.500   115440949.871          50.000                                                  
G26  23907029.880   125632178.137          50.000    23907033.140    93816221.426          50.000  
G27  22813442.760   119885402.262          50.000    22813444.080    89524813.582          50.000  
G29  23672308.760   124398786.602          50.000                                                  
E 7  24115443.840   126727481.504          50.000    24115449.040    94634146.094          50.000  
E 8  22659297.860   119075416.000          50.000    22659300.580    88919946.453          50.000  
E13  23799398.100   125066661.348          50.000    23799401.840    93393924.082          50.000  
E15  27309018.660   143509797.238          50.000    27309025.960   107166385.406          50.000  
E26  23375985.520   122841596.656          50.000    23375990.620    91732347.750          50.000  
> 2020  7 17 23 14 32.0000000  0 14       0.000000000000
G10  21391318.500   112412087.816          50.000    21391318.580    83944090.953          50.000  
G13  24580220.160   129169964.719          50.000                                                  
G15  22252533.200   116937663.273          50.000                                                  
G16  23380978.700   122867866.750          50.000                                                  
G20  20161896.280   105951481.203          50.000                                                  
G21  21967396.340   115439467.141          50.000                                                  
G26  23907495.900   125634627.047          50.000    23907499.160    93818050.156          50.000  
G27  22812908.320   119882593.746          50.000    22812909.640    89522716.316          50.000  
G29  23672990.960   124402371.523          50.000                                                  
E 7  24115120.000   126725779.727          50.000    24115125.200    94632875.285          50.000  
E 8  22659502.980   119076493.918          50.000    22659505.700    88920751.391          50.000  
E13  23799529.040   125067349.434          50.000    23799532.780    93394437.910          50.000  
E15  27309420.100   143511906.824          50.000    27309427.400   107167960.746          50.000  
E26  23375706.260   122840129.137          50.000    23375711.360    91731251.875          50.000  
> 2020  7 17 23 14 33.0000000  0 14       0.000000000000
G10  21391017.540   112410506.211          50.000    21391017.620    83942909.887          50.000  
G13  24580721.720   129172600.344          50.000                                                  
G15  22252908.420   116939635.090          50.000                                                  
G16  23381188.480   122868969.152          50.000                                                  
G20  20161924.400   105951628.875          50.000                                                  
G21  21967114.220   115437984.516          50.000                                                  
G26  23907961.940   125637076.129          50.000    23907965.200    93819879.016          50.000  
G27  22812373.940   119879785.582          50.000    22812375.260    89520619.313          50.000  
G29  23673673.180   124405956.660          50.000                                                  
E 7  24114796.240   126724078.336          50.000    24114801.440    94631604.770          50.000  
E 8  22659708.180   119077572.234          50.000    22659710.900    88921556.625          50.000  
E13  23799660.020   125068037.734          50.000    23799663.760    93394951.906          50.000  
E15  27309821.560   143514016.531          50.000    27309828.860   107169536.176          50.000  
E26  23375427.020   122838661.715          50.000    23375432.120    91730156.074          50.000  
> 2020  7 17 23 14 34.0000000  0 14       0.000000000000
G10  21390716.640   112408924.980          50.000    21390716.720    83941729.098          50.000  
G13  24581223.340   129175236.414          50.000                                                  
G15  22253283.760   116941607.504          50.000                                                  
G16  23381398.380   122870072.113          50.000                                                  
G20  20161952.560   105951776.922          50.000                                                  
G21  21966832.100   115436501.980          50.000                                                  
G26  23908428.020   125639525.391          50.000    23908431.280    93821708.008          50.000  
G27  22811839.620   119876977.785          50.000    22811840.960    89518522.582          50.000  
G29  23674355.460   124409542.000          50.000                                                  
E 7  24114472.540   126722377.324          50.000    24114477.740    94630334.535          50.000  
E 8  22659913.460   119078650.984          50.000    22659916.180    88922362.188          50.000  
E13  23799791.040   125068726.273          50.000    23799794.780    93395466.074          50.000  
E15  27310223.060   143516126.398          50.000    27310230.360   107171111.727          50.000  
E26  23375147.800   122837194.414          50.000    23375152.900    91729060.359          50.000  
> 2020  7 17 23 14 35.0000000  0 14       0.000000000000
G10  21390415.820   112407344.156          50.000    21390415.900    83940548.609          50.000  
G13  24581725.040   129177872.914          50.000                                                  
G15  22253659.220   116943580.512          50.000                                                  
G16  23381608.360   122871175.609          50.000                                                  
G20  20161980.800   105951925.355          50.000                                                  
G21  21966550.000   115435019.543          50.000                                                  
G26  23908894.140   125641974.852          50.000    23908897.400    93823537.152          50.000  
G27  22811305.380   119874170.348          50.000    22811306.720    89516426.121          50.000  
G29  23675037.760   124413127.559          50.000                                                  
E 7  24114148.920   126720676.695          50.000    24114154.120    94629064.586          50.000  
E 8  22660118.800   119079730.141          50.000    22660121.540    88923168.047          50.000  
E13  23799922.100   125069415.023          50.000    23799925.840    93395980.398          50.000  
E15  27310624.580   143518236.395          50.000    27310631.880   107172687.371          50.000  
E26  23374868.600   122835727.203          50.000    23374873.700    91727964.719          50.000  
> 2020  7 17 23 14 36.0000000  0 14       0.000000000000
G10  21390115.060   112405763.695          50.000    21390115.140    83939368.398          50.000  
G13  24582226.840   129180509.844          50.000                                                  
G15  22254034.780   116945554.102          50.000                                                  
G16  23381818.460   122872279.656          50.000                                                  
G20  20162009.120   105952074.180          50.000                                                  
G21  21966267.920   115433537.199          50.000                                                  
G26  23909360.300   125644424.508          50.000    23909363.560    93825366.438          50.000  
G27  22810771.220   119871363.270          50.000    22810772.560    89514329.926          50.000  
G29  23675720.120   124416713.316          50.000                                                  
E 7  24113825.380   126718976.453          50.000    24113830.580    94627794.922          50.000  
E 8  22660324.240   119080809.703          50.000    22660326.980    88923974.215          50.000  
E13  23800053.220   125070103.992          50.000    23800056.960    93396494.887          50.000  
E15  27311026.120   143520346.508          50.000    27311033.420   107174263.105          50.000  
E26  23374589.420   122834260.113          50.000    23374594.520    91726869.160          50.000  
> 2020  7 17 23 14 37.0000000  0 14       0.000000000000
G10  21389814.380   112404183.613          50.000    21389814.460    83938188.465          50.000  
G13  24582728.720   129183147.223          50.000                                                  
G15  22254410.460   116947528.301          50.000                                                  
G16  23382028.660   122873384.262          50.000                                                  
G20  20162037.520   105952223.398          50.000                                                  
G21  21965985.860   115432054.949          50.000                                                  
G26  23909826.480   125646874.344          50.000    23909829.740    93827195.859          50.000  
G27  22810237.120   119868556.566          50.000    22810238.460    89512234.012          50.000  
G29  23676402.500   124420299.289          50.000                                                  
E 7  24113501.900   126717276.590          50.000    24113507.100    94626525.547          50.000  
E 8  22660529.760   119081889.695          50.000    22660532.480    88924780.703          50.000  
E13  23800184.360   125070793.180          50.000    23800188.100    93397009.543          50.000  
E15  27311427.680   143522456.770          50.000    27311435.000   107175838.945          50.000  
E26  23374310.260   122832793.125          50.000    23374315.360    91725773.684          50.000  
> 2020  7 17 23 14 38.0000000  0 14       0.000000000000
G10  21389513.780   112402603.918          50.000    21389513.860    83937008.824          50.000  
G13  24583230.680   129185785.039          50.000                                                  
G15  22254786.240   116949503.082          50.000                                                  
G16  23382238.960   122874489.398          50.000                                                  
G20  20162066.000   105952372.992          50.000                                                  
G21  21965703.800   115430572.801          50.000                                                  
G26  23910292.700   125649324.355          50.000    23910295.960    93829025.414          50.000  
G27  22809703.080   119865750.211          50.000    22809704.420    89510138.359          50.000  
G29  23677084.940   124423885.473          50.000                                                  
E 7  24113178.500   126715577.109          50.000    24113183.700    94625256.453          50.000  
E 8  22660735.360   119082970.094          50.000    22660738.080    88925587.496          50.000  
E13  23800315.560   125071482.590          50.000    23800319.300    93397524.359          50.000  
E15  27311829.280   143524567.152          50.000    27311836.580   107177414.883          50.000  
E26  23374031.120   122831326.242          50.000    23374036.240    91724678.285          50.000  
> 2020  7 17 23 14 39.0000000  0 14       0.000000000000
G10  21389213.240   112401024.582          50.000    21389213.320    83935829.449          50.000  
G13  24583732.720   129188423.293          50.000                                                  
G15  22255162.140   116951478.457          50.000                                                  
G16  23382449.360   122875595.070          50.000                                                  
G20  20162094.540   105952522.977          50.000                                                  
G21  21965421.780   115429090.746          50.000                                                  
G26  23910758.960   125651774.559          50.000    23910762.220    93830855.109          50.000  
G27  22809169.120   119862944.219          50.000    22809170.460    89508042.973          50.000  
G29  23677767.400   124427471.859          50.000                                                  
E 7  24112855.180   126713878.012          50.000    24112860.380    94623987.645          50.000  
E 8  22660941.020   119084050.922          50.000    22660943.760    88926394.605          50.000  
E13  23800446.780   125072172.223          50.000    23800450.520    93398039.344          50.000  
E15  27312230.900   143526677.680          50.000    27312238.200   107178990.926          50.000  
E26  23373752.000   122829859.477          50.000    23373757.120    91723582.973          50.000  
> 2020  7 17 23 14 40.0000000  0 14       0.000000000000
G10  21388912.780   112399445.645          50.000    21388912.860    83934650.375          50.000  
G13  24584234.840   129191061.980          50.000                                                  
G15  22255538.160   116953454.422          50.000                                                  
G16  23382659.860   122876701.305          50.000                                                  
G20  20162123.140   105952673.348          50.000                                                  
G21  21965139.780   115427608.781          50.000                                                  
G26  23911225.260   125654224.945          50.000    23911228.520    93832684.945          50.000  
G27  22808635.220   119860138.578          50.000    22808636.560    89505947.855          50.000  
G29  23678449.900   124431058.453          50.000                                                  
E 7  24112531.920   126712179.305          50.000    24112537.120    94622719.133          50.000  
E 8  22661146.780   119085132.156          50.000    22661149.500    88927202.020          50.000  
E13  23800578.060   125072862.078          50.000    23800581.800    93398554.496          50.000  
E15  27312632.540   143528788.344          50.000    27312639.860   107180567.066          50.000  
E26  23373472.900   122828392.809          50.000    23373478.020    91722487.734          50.000  
> 2020  7 17 23 14 41.0000000  0 14       0.000000000000
G10  21388612.400   112397867.094          50.000    21388612.460    83933471.586          50.000  
G13  24584737.060   129193701.102          50.000                                                  
G15  22255914.280   116955430.984          50.000                                                  
G16  23382870.480   122877808.082          50.000                                                  
G20  20162151.840   105952824.102          50.000                                                  
G21  21964857.780   115426126.922          50.000                                                  
G26  23911691.600   125656675.520          50.000    23911694.840    93834514.918          50.000  
G27  22808101.400   119857333.313          50.000    22808102.740    89503853.016          50.000  
G29  23679132.460   124434645.266          50.000                                                  
E 7  24112208.740   126710480.973          50.000    24112213.940    94621450.898          50.000  
E 8  22661352.600   119086213.809          50.000    22661355.340    88928009.746          50.000  
E13  23800709.380   125073552.156          50.000    23800713.120    93399069.813          50.000  
E15  27313034.220   143530899.121          50.000    27313041.520   107182143.297          50.000  
E26  23373193.820   122826926.254          50.000    23373198.940    91721392.582          50.000  
> 2020  7 17 23 14 42.0000000  0 14       0.000000000000
G10  21388312.080   112396288.914          50.000    21388312.160    83932293.078          50.000  
G13  24585239.340   129196340.672          50.000                                                  
G15  22256290.520   116957408.117          50.000                                                  
G16  23383081.200   122878915.391          50.000                                                  
G20  20162180.600   105952975.246          50.000                                                  
G21  21964575.820   115424645.148          50.000                                                  
G26  23912157.960   125659126.293          50.000    23912161.220    93836345.035          50.000  
G27  22807567.640   119854528.391          50.000    22807568.980    89501758.430          50.000  
G29  23679815.040   124438232.270          50.000                                                  
E 7  24111885.640   126708783.020          50.000    24111890.820    94620182.949          50.000  
E 8  22661558.520   119087295.871          50.000    22661561.260    88928817.781          50.000  
E13  23800840.740   125074242.453          50.000    23800844.480    93399585.293          50.000  
E15  27313435.920   143533010.051          50.000    27313443.220   107183719.641          50.000  
E26  23372914.780   122825459.805          50.000    23372919.880    91720297.504          50.000  
> 2020  7 17 23 14 43.0000000  0 14       0.000000000000
G10  21388011.840   112394711.125          50.000    21388011.900    83931114.859          50.000  
G13  24585741.720   129198980.676          50.000                                                  
G15  22256666.880   116959385.863          50.000                                                  
G16  23383292.020   122880023.258          50.000                                                  
G20  20162209.440   105953126.781          50.000                                                  
G21  21964293.860   115423163.480          50.000                                                  
G26  23912624.360   125661577.242          50.000    23912627.620    93838175.289          50.000  
G27  22807033.960   119851723.840          50.000    22807035.280    89499664.125          50.000  
G29  23680497.660   124441819.500          50.000                                                  
E 7  24111562.600   126707085.469          50.000    24111567.800    94618915.297          50.000  
E 8  22661764.500   119088378.355          50.000    22661767.240    88929626.129          50.000  
E13  23800972.140   125074932.984          50.000    23800975.880    93400100.949          50.000  
E15  27313837.640   143535121.109          50.000    27313844.940   107185296.078          50.000  
E26  23372635.740   122823993.469          50.000    23372640.840    91719202.516          50.000  
> 2020  7 17 23 14 44.0000000  0 14       0.000000000000
G10  21387711.660   112393133.719          50.000    21387711.740    83929936.926          50.000  
G13  24586244.180   129201621.121          50.000                                                  
G15  22257043.340   116961364.191          50.000                                                  
G16  23383502.940   122881131.672          50.000                                                  
G20  20162238.340   105953278.703          50.000                                                  
G21  21964011.920   115421681.906          50.000                                                  
G26  23913090.800   125664028.375          50.000    23913094.060    93840005.680          50.000  
G27  22806500.340   119848919.656          50.000    22806501.660    89497570.094          50.000  
G29  23681180.340   124445406.930          50.000                                                  
E 7  24111239.640   126705388.285          50.000    24111244.820    94617647.918          50.000  
E 8  22661970.580   119089461.242          50.000    22661973.300    88930434.777          50.000  
E13  23801103.580   125075623.719          50.000    23801107.320    93400616.758          50.000  
E15  27314239.380   143537232.297          50.000    27314246.680   107186872.613          50.000  
E26  23372356.720   122822527.238          50.000    23372361.840    91718107.602          50.000  
> 2020  7 17 23 14 45.0000000  0 14       0.000000000000
G10  21387411.560   112391556.684          50.000    21387411.640    83928759.273          50.000  
G13  24586746.720   129204262.000          50.000                                                  
G15  22257419.920   116963343.121          50.000                                                  
G16  23383713.960   122882240.633          50.000                                                  
G20  20162267.320   105953431.008          50.000                                                  
G21  21963730.000   115420200.426          50.000                                                  
G26  23913557.260   125666479.691          50.000    23913560.520    93841836.207          50.000  
G27  22805966.780   119846115.813          50.000    22805968.120    89495476.316          50.000  
G29  23681863.040   124448994.574          50.000                                                  
E 7  24110916.740   126703691.488          50.000    24110921.940    94616380.832          50.000  
E 8  22662176.720   119090544.559          50.000    22662179.460    88931243.750          50.000  
E13  23801235.060   125076314.680          50.000    23801238.800    93401132.734          50.000  
E15  27314641.160   143539343.613          50.000    27314648.460   107188449.242          50.000  
E26  23372077.720   122821061.113          50.000    23372082.840    91717012.770          50.000  
> 2020  7 17 23 14 46.0000000  0 14       0.000000000000
G10  21387111.540   112389980.039          50.000    21387111.600    83927581.906          50.000  
G13  24587249.360   129206903.320          50.000                                                  
G15  22257796.600   116965322.645          50.000                                                  
G16  23383925.100   122883350.137          50.000                                                  
G20  20162296.380   105953583.699          50.000                                                  
G21  21963448.100   115418719.043          50.000                                                  
G26  23914023.760   125668931.188          50.000    23914027.020    93843666.871          50.000  
G27  22805433.300   119843312.344          50.000    22805434.620    89493382.816          50.000  
G29  23682545.780   124452582.426          50.000                                                  
E 7  24110593.920   126701995.074          50.000    24110599.120    94615114.027          50.000  
E 8  22662382.940   119091628.289          50.000    22662385.680    88932053.027          50.000  
E13  23801366.600   125077005.863          50.000    23801370.340    93401648.879          50.000  
E15  27315042.960   143541455.086          50.000    27315050.260   107190025.992          50.000  
E26  23371798.760   122819595.098          50.000    23371803.860    91715918.020          50.000  
> 2020  7 17 23 14 47.0000000  0 14       0.000000000000
G10  21386811.580   112388403.770          50.000    21386811.660    83926404.824          50.000  
G13  24587752.060   129209545.063          50.000                                                  
G15  22258173.400   116967302.758          50.000                                                  
G16  23384136.340   122884460.199          50.000                                                  
G20  20162325.520   105953736.789          50.000                                                  
G21  21963166.220   115417237.734          50.000                                                  
G26  23914490.320   125671382.883          50.000    23914493.580    93845497.680          50.000  
G27  22804899.880   119840509.234          50.000    22804901.220    89491289.586          50.000  
G29  23683228.580   124456170.488          50.000                                                  
E 7  24110271.180   126700299.047          50.000    24110276.380    94613847.516          50.000  
E 8  22662589.260   119092712.426          50.000    22662591.980    88932862.609          50.000  
E13  23801498.160   125077697.273          50.000    23801501.900    93402165.195          50.000  
E15  27315444.780   143543566.676          50.000    27315452.080   107191602.828          50.000  
E26  23371519.800   122818129.195          50.000    23371524.920    91714823.348          50.000  
> 2020  7 17 23 14 48.0000000  0 14       0.000000000000
G10  21386511.700   112386827.887          50.000    21386511.780    83925228.027          50.000  
G13  24588254.860   129212187.254          50.000                                                  
G15  22258550.320   116969283.461          50.000                                                  
G16  23384347.680   122885570.797          50.000                                                  
G20  20162354.720   105953890.258          50.000                                                  
G21  21962884.360   115415756.535          50.000                                                  
G26  23914956.900   125673834.762          50.000    23914960.160    93847328.629          50.000  
G27  22804366.540   119837706.484          50.000    22804367.860    89489196.625          50.000  
G29  23683911.400   124459758.754          50.000                                                  
E 7  24109948.520   126698603.406          50.000    24109953.700    94612581.289          50.000  
E 8  22662795.640   119093796.984          50.000    22662798.380    88933672.508          50.000  
E13  23801629.780   125078388.906          50.000    23801633.520    93402681.672          50.000  
E15  27315846.620   143545678.398          50.000    27315853.940   107193179.762          50.000  
E26  23371240.860   122816663.395          50.000    23371245.980    91713728.762          50.000  
> 2020  7 17 23 14 49.0000000  0 14       0.000000000000
G10  21386211.880   112385252.387          50.000    21386211.960    83924051.520          50.000  
G13  24588757.720   129214829.875          50.000                                                  
G15  22258927.360   116971264.754          50.000                                                  
G16  23384559.120   122886681.934          50.000                                                  
G20  20162384.000   105954044.105          50.000                                                  
G21  21962602.520   115414275.434          50.000                                                  
G26  23915423.500   125676286.820          50.000    23915426.760    93849159.707          50.000  
G27  22803833.260   119834904.098          50.000    22803834.580    89487103.938          50.000  
G29  23684594.260   124463347.230          50.000                                                  
E 7  24109625.920   126696908.145          50.000    24109631.100    94611315.348          50.000  
E 8  22663002.100   119094881.957          50.000    22663004.840    88934482.715          50.000  
E13  23801761.440   125079080.742          50.000    23801765.180    93403198.305          50.000  
E15  27316248.500   143547790.250          50.000    27316255.800   107194756.793          50.000  
E26  23370961.960   122815197.703          50.000    23370967.060    91712634.250          50.000  
> 2020  7 17 23 14 50.0000000  0 14       0.000000000000
G10  21385912.160   112383677.262          50.000    21385912.220    83922875.289          50.000  
G13  24589260.680   129217472.941          50.000                                                  
G15  22259304.500   116973246.648          50.000                                                  
G16  23384770.680   122887793.629          50.000                                                  
G20  20162413.340   105954198.348          50.000                                                  
G21  21962320.700   115412794.430          50.000                                                  
G26  23915890.140   125678739.066          50.000    23915893.420    93850990.930          50.000  
G27  22803300.060   119832102.078          50.000    22803301.380    89485011.520          50.000  
G29  23685277.180   124466935.918          50.000                                                  
E 7  24109303.400   126695213.266          50.000    24109308.580    94610049.695          50.000  
E 8  22663208.640   119095967.340          50.000    22663211.380    88935293.230          50.000  
E13  23801893.140   125079772.816          50.000    23801896.880    93403715.113          50.000  
E15  27316650.400   143549902.246          50.000    27316657.700   107196333.934          50.000  
E26  23370683.060   122813732.121          50.000    23370688.180    91711539.824          50.000  
> 2020  7 17 23 14 51.0000000  0 14       0.000000000000
G10  21385612.480   112382102.512          50.000    21385612.560    83921699.344          50.000  
G13  24589763.720   129220116.434          50.000                                                  
G15  22259681.740   116975229.121          50.000                                                  
G16  23384982.320   122888905.855          50.000                                                  
G20  20162442.760   105954352.969          50.000                                                  
G21  21962038.880   115411313.520          50.000                                                  
G26  23916356.840   125681191.492          50.000    23916360.100    93852822.285          50.000  
G27  22802766.920   119829300.414          50.000    22802768.240    89482919.371          50.000  
G29  23685960.120   124470524.809          50.000                                                  
E 7  24108980.940   126693518.766          50.000    24108986.140    94608784.320          50.000  
E 8  22663415.260   119097053.141          50.000    22663418.000    88936104.055          50.000  
E13  23802024.880   125080465.113          50.000    23802028.620    93404232.086          50.000  
E15  27317052.320   143552014.371          50.000    27317059.640   107197911.168          50.000  
E26  23370404.200   122812266.645          50.000    23370409.300    91710445.473          50.000  
> 2020  7 17 23 14 52.0000000  0 14       0.000000000000
G10  21385312.900   112380528.152          50.000    21385312.980    83920523.684          50.000  
G13  24590266.860   129222760.371          50.000                                                  
G15  22260059.120   116977212.191          50.000                                                  
G16  23385194.080   122890018.629          50.000                                                  
G20  20162472.260   105954507.980          50.000                                                  
G21  21961757.100   115409832.707          50.000                                                  
G26  23916823.560   125683644.117          50.000    23916826.820    93854653.789          50.000  
G27  22802233.840   119826499.113          50.000    22802235.160    89480827.488          50.000  
G29  23686643.100   124474113.902          50.000                                                  
E 7  24108658.560   126691824.660          50.000    24108663.760    94607519.242          50.000  
E 8  22663621.960   119098139.355          50.000    22663624.700    88936915.188          50.000  
E13  23802156.660   125081157.625          50.000    23802160.400    93404749.223          50.000  
E15  27317454.280   143554126.633          50.000    27317461.580   107199488.504          50.000  
E26  23370125.340   122810801.266          50.000    23370130.460    91709351.195          50.000  
> 2020  7 17 23 14 53.0000000  0 14       0.000000000000
G10  21385013.380   112378954.176          50.000    21385013.460    83919348.313          50.000  
G13  24590770.060   129225404.738          50.000                                                  
G15  22260436.600   116979195.859          50.000                                                  
G16  23385405.940   122891131.961          50.000                                                  
G20  20162501.840   105954663.383          50.000                                                  
G21  21961475.320   115408351.988          50.000                                                  
G26  23917290.300   125686096.914          50.000    23917293.560    93856485.422          50.000  
G27  22801700.840   119823698.180          50.000    22801702.160    89478735.883          50.000  
G29  23687326.120   124477703.223          50.000                                                  
E 7  24108336.260   126690130.930          50.000    24108341.440    94606254.445          50.000  
E 8  22663828.740   119099225.992          50.000    22663831.480    88937726.637          50.000  
E13  23802288.480   125081850.367          50.000    23802292.220    93405266.527          50.000  
E15  27317856.260   143556239.039          50.000    27317863.560   107201065.949          50.000  
E26  23369846.520   122809336.016          50.000    23369851.620    91708257.016          50.000  
> 2020  7 17 23 14 54.0000000  0 14       0.000000000000
G10  21384713.940   112377380.578          50.000    21384714.000    83918173.227          50.000  
G13  24591273.360   129228049.555          50.000                                                  
G15  22260814.180   116981180.113          50.000                                                  
G16  23385617.900   122892245.828          50.000                                                  
G20  20162531.480   105954819.168          50.000                                                  
G21  21961193.560   115406871.367          50.000                                                  
G26  23917757.100   125688549.891          50.000    23917760.360    93858317.191          50.000  
G27  22801167.900   119820897.598          50.000    22801169.240    89476644.543          50.000  
G29  23688009.200   124481292.738          50.000                                                  
E 7  24108014.020   126688437.590          50.000    24108019.220    94604989.938          50.000  
E 8  22664035.600   119100313.047          50.000    22664038.340    88938538.398          50.000  
E13  23802420.340   125082543.336          50.000    23802424.080    93405784.004          50.000  
E15  27318258.260   143558351.570          50.000    27318265.560   107202643.484          50.000  
E26  23369567.700   122807870.867          50.000    23369572.820    91707162.914          50.000  
> 2020  7 17 23 14 55.0000000  0 14       0.000000000000
G10  21384414.560   112375807.363          50.000    21384414.640    83916998.422          50.000  
G13  24591776.720   129230694.805          50.000                                                  
G15  22261191.880   116983164.961          50.000                                                  
G16  23385829.960   122893360.254          50.000                                                  
G20  20162561.200   105954975.348          50.000                                                  
G21  21960911.840   115405390.848          50.000                                                  
G26  23918223.920   125691003.059          50.000    23918227.180    93860149.102          50.000  
G27  22800635.040   119818097.383          50.000    22800636.380    89474553.473          50.000  
G29  23688692.300   124484882.473          50.000                                                  
E 7  24107691.860   126686744.629          50.000    24107697.060    94603725.715          50.000  
E 8  22664242.540   119101400.512          50.000    22664245.280    88939350.465          50.000  
E13  23802552.260   125083236.520          50.000    23802556.000    93406301.641          50.000  
E15  27318660.280   143560464.234          50.000    27318667.600   107204221.125          50.000  
E26  23369288.920   122806405.832          50.000    23369294.020    91706068.895          50.000  
> 2020  7 17 23 14 56.0000000  0 14       0.000000000000
G10  21384115.260   112374234.523          50.000    21384115.340    83915823.898          50.000  
G13  24592280.180   129233340.480          50.000                                                  
G15  22261569.700   116985150.395          50.000                                                  
G16  23386042.140   122894475.211          50.000                                                  
G20  20162591.000   105955131.898          50.000                                                  
G21  21960630.120   115403910.418          50.000                                                  
G26  23918690.780   125693456.426          50.000    23918694.040    93861981.156          50.000  
G27  22800102.240   119815297.527          50.000    22800103.580    89472462.672          50.000  
G29  23689375.440   124488472.395          50.000                                                  
E 7  24107369.780   126685052.055          50.000    24107374.960    94602461.781          50.000  
E 8  22664449.560   119102488.387          50.000    22664452.300    88940162.840          50.000  
E13  23802684.200   125083929.918          50.000    23802687.940    93406819.441          50.000  
E15  27319062.340   143562577.031          50.000    27319069.640   107205798.859          50.000  
E26  23369010.160   122804940.902          50.000    23369015.260    91704974.953          50.000  
> 2020  7 17 23 14 57.0000000  0 14       0.000000000000
G10  21383816.020   112372662.066          50.000    21383816.100    83914649.660          50.000  
G13  24592783.720   129235986.602          50.000                                                  
G15  22261947.640   116987136.418          50.000                                                  
G16  23386254.420   122895590.707          50.000                                                  
G20  20162620.860   105955288.848          50.000                                                  
G21  21960348.420   115402430.078          50.000                                                  
G26  23919157.660   125695909.961          50.000    23919160.940    93863813.340          50.000  
G27  22799569.520   119812498.023          50.000    22799570.840    89470372.137          50.000  
G29  23690058.620   124492062.539          50.000                                                  
E 7  24107047.760   126683359.867          50.000    24107052.960    94601198.133          50.000  
E 8  22664656.660   119103576.680          50.000    22664659.380    88940975.527          50.000  
E13  23802816.200   125084623.555          50.000    23802819.940    93407337.414          50.000  
E15  27319464.420   143564689.973          50.000    27319471.720   107207376.703          50.000  
E26  23368731.400   122803476.074          50.000    23368736.520    91703881.090          50.000  
> 2020  7 17 23 14 58.0000000  0 14       0.000000000000
G10  21383516.880   112371089.988          50.000    21383516.940    83913475.707          50.000  
G13  24593287.340   129238633.160          50.000                                                  
G15  22262325.680   116989123.035          50.000                                                  
G16  23386466.780   122896706.758          50.000                                                  
G20  20162650.800   105955446.176          50.000                                                  
G21  21960066.740   115400949.836          50.000                                                  
G26  23919624.600   125698363.668          50.000    23919627.860    93865645.656          50.000  
G27  22799036.860   119809698.891          50.000    22799038.180    89468281.875          50.000  
G29  23690741.840   124495652.891          50.000                                                  
E 7  24106725.820   126681668.055          50.000    24106731.020    94599934.766          50.000  
E 8  22664863.820   119104665.387          50.000    22664866.560    88941788.523          50.000  
E13  23802948.240   125085317.395          50.000    23802951.980    93407855.539          50.000  
E15  27319866.520   143566803.023          50.000    27319873.820   107208954.633          50.000  
E26  23368452.680   122802011.355          50.000    23368457.780    91702787.305          50.000  
> 2020  7 17 23 14 59.0000000  0 14       0.000000000000
G10  21383217.780   112369518.293          50.000    21383217.860    83912302.039          50.000  
G13  24593791.060   129241280.152          50.000                                                  
G15  22262703.820   116991110.242          50.000                                                  
G16  23386679.280   122897823.363          50.000                                                  
G20  20162680.820   105955603.898          50.000                                                  
G21  21959785.080   115399469.707          50.000                                                  
G26  23920091.560   125700817.578          50.000    23920094.820    93867478.117          50.000  
G27  22798504.280   119806900.129          50.000    22798505.600    89466191.891          50.000  
G29  23691425.100   124499243.449          50.000                                                  
E 7  24106403.960   126679976.633          50.000    24106409.140    94598671.691          50.000  
E 8  22665071.080   119105754.516          50.000    22665073.820    88942601.832          50.000  
E13  23803080.300   125086011.461          50.000    23803084.040    93408373.840          50.000  
E15  27320268.640   143568916.230          50.000    27320275.960   107210532.676          50.000  
E26  23368173.960   122800546.742          50.000    23368179.080    91701693.602          50.000  
> 2020  7 17 23 15  0.0000000  0 14       0.000000000000
G10  21382918.780   112367946.988          50.000    21382918.860    83911128.664          50.000  
G13  24594294.840   129243927.566          50.000                                                  
G15  22263082.100   116993098.035          50.000                                                  
G16  23386891.860   122898940.500          50.000                                                  
G20  20162710.900   105955761.996          50.000                                                  
G21  21959503.440   115397989.660          50.000                                                  
G26  23920558.560   125703271.672          50.000    23920561.820    93869310.719          50.000  
G27  22797971.760   119804101.719          50.000    22797973.080    89464102.168          50.000  
G29  23692108.400   124502834.215          50.000                                                  
E 7  24106082.160   126678285.590          50.000    24106087.340    94597408.902          50.000  
E 8  22665278.420   119106844.043          50.000    22665281.140    88943415.438          50.000  
E13  23803212.420   125086705.754          50.000    23803216.160    93408892.305          50.000  
E15  27320670.800   143571029.555          50.000    27320678.100   107212110.805          50.000  
E26  23367895.280   122799082.238          50.000    23367900.400    91700599.980          50.000  
> 2020  7 17 23 15  1.0000000  0 14       0.000000000000
G10  21382619.840   112366376.047          50.000    21382619.920    83909955.559          50.000  
G13  24594798.720   129246575.438          50.000                                                  
G15  22263460.480   116995086.430          50.000                                                  
G16  23387104.540   122900058.191          50.000                                                  
G20  20162741.060   105955920.492          50.000                                                  
G21  21959221.820   115396509.719          50.000                                                  
G26  23921025.580   125705725.930          50.000    23921028.860    93871143.445          50.000  
G27  22797439.300   119801303.680          50.000    22797440.620    89462012.727          50.000  
G29  23692791.760   124506425.203          50.000                                                  
E 7  24105760.440   126676594.930          50.000    24105765.620    94596146.395          50.000  
E 8  22665485.820   119107933.996          50.000    22665488.560    88944229.367          50.000  
E13  23803344.580   125087400.266          50.000    23803348.320    93409410.934          50.000  
E15  27321072.980   143573143.027          50.000    27321080.300   107213689.047          50.000  
E26  23367616.620   122797617.848          50.000    23367621.720    91699506.438          50.000  
> 2020  7 17 23 15  2.0000000  0 14       0.000000000000
G10  21382320.980   112364805.496          50.000    21382321.040    83908782.746          50.000  
G13  24595302.660   129249223.734          50.000                                                  
G15  22263838.960   116997075.414          50.000                                                  
G16  23387317.340   122901176.426          50.000                                                  
G20  20162771.300   105956079.367          50.000                                                  
G21  21958940.200   115395029.867          50.000                                                  
G26  23921492.660   125708180.395          50.000    23921495.920    93872976.324          50.000  
G27  22796906.920   119798506.000          50.000    22796908.240    89459923.551          50.000  
G29  23693475.140   124510016.395          50.000                                                  
E 7  24105438.780   126674904.656          50.000    24105443.980    94594884.180          50.000  
E 8  22665693.320   119109024.367          50.000    22665696.040    88945043.602          50.000  
E13  23803476.800   125088094.992          50.000    23803480.540    93409929.723          50.000  
E15  27321475.180   143575256.629          50.000    27321482.500   107215267.387          50.000  
E26  23367337.980   122796153.563          50.000    23367343.080    91698412.980          50.000  
> 2020  7 17 23 15  3.0000000  0 14       0.000000000000
G10  21382022.180   112363235.320          50.000    21382022.260    83907610.211          50.000  
G13  24595806.700   129251872.453          50.000                                                  
G15  22264217.560   116999064.992          50.000                                                  
G16  23387530.240   122902295.191          50.000                                                  
G20  20162801.600   105956238.629          50.000                                                  
G21  21958658.620   115393550.117          50.000                                                  
G26  23921959.760   125710635.031          50.000    23921963.020    93874809.328          50.000  
G27  22796374.600   119795708.676          50.000    22796375.940    89457834.641          50.000  
G29  23694158.560   124513607.793          50.000                                                  
E 7  24105117.220   126673214.766          50.000    24105122.400    94593622.250          50.000  
E 8  22665900.880   119110115.141          50.000    22665903.620    88945858.145          50.000  
E13  23803609.040   125088789.961          50.000    23803612.780    93410448.691          50.000  
E15  27321877.420   143577370.363          50.000    27321884.720   107216845.820          50.000  
E26  23367059.360   122794689.387          50.000    23367064.460    91697319.602          50.000  
> 2020  7 17 23 15  4.0000000  0 14       0.000000000000
G10  21381723.460   112361665.539          50.000    21381723.540    83906437.973          50.000  
G13  24596310.820   129254521.625          50.000                                                  
G15  22264596.280   117001055.160          50.000                                                  
G16  23387743.240   122903414.523          50.000                                                  
G20  20162831.980   105956398.277          50.000                                                  
G21  21958377.040   115392070.453          50.000                                                  
G26  23922426.900   125713089.848          50.000    23922430.160    93876642.469          50.000  
G27  22795842.360   119792911.719          50.000    22795843.680    89455746.004          50.000  
G29  23694842.020   124517199.398          50.000                                                  
E 7  24104795.700   126671525.266          50.000    24104800.900    94592360.609          50.000  
E 8  22666108.540   119111206.340          50.000    22666111.260    88946673.000          50.000  
E13  23803741.320   125089485.133          50.000    23803745.060    93410967.813          50.000  
E15  27322279.680   143579484.238          50.000    27322286.980   107218424.363          50.000  
E26  23366780.740   122793225.324          50.000    23366785.860    91696226.309          50.000  
> 2020  7 17 23 15  5.0000000  0 15       0.000000000000
G10  21381424.800   112360096.148          50.000    21381424.860    83905266.117          50.000  
G13  24596815.040   129257171.152          50.000                                                  
G15  22264975.120   117003045.910          50.000                                                  
G16  23387956.340   122904534.395          50.000                                                  
G20  20162862.440   105956558.301          50.000                                                  
G21  21958095.500   115390590.891          50.000                                                  
G26  23922894.120   125715544.648          50.000    23922897.400    93878475.551          50.000  
G27  22795310.200   119790115.059          50.000    22795311.520    89453657.633          50.000  
G29  23695525.520   124520791.137          50.000                                                  
E 1  27958164.900   146921085.504          50.000    27958170.740   109713773.773          50.000  
E 7  24104474.280   126669836.180          50.000    24104479.460    94591099.305          50.000  
E 8  22666316.260   119112297.965          50.000    22666318.980    88947488.184          50.000  
E13  23803873.660   125090180.551          50.000    23803877.400    93411487.125          50.000  
E15  27322681.960   143581598.230          50.000    27322689.260   107220002.992          50.000  
E26  23366502.160   122791761.367          50.000    23366507.280    91695133.098          50.000  
> 2020  7 17 23 15  6.0000000  0 15       0.000000000000
G10  21381126.240   112358527.121          50.000    21381126.280    83904094.441          50.000  
G13  24597319.320   129259821.184          50.000                                                  
G15  22265354.060   117005037.250          50.000                                                  
G16  23388169.540   122905654.797          50.000                                                  
G20  20162892.960   105956718.723          50.000                                                  
G21  21957813.960   115389111.426          50.000                                                  
G26  23923361.320   125717999.832          50.000    23923364.600    93880308.965          50.000  
G27  22794778.100   119787318.828          50.000    22794779.420    89451569.543          50.000  
G29  23696209.060   124524383.145          50.000                                                  
E 1  27958530.540   146923006.953          50.000    27958536.380   109715208.621          50.000  
E 7  24104152.920   126668147.453          50.000    24104158.100    94589838.242          50.000  
E 8  22666524.060   119113390.000          50.000    22666526.780    88948303.664          50.000  
E13  23804006.020   125090876.184          50.000    23804009.760    93412006.590          50.000  
E15  27323084.260   143583712.387          50.000    27323091.580   107221581.746          50.000  
E26  23366223.600   122790297.531          50.000    23366228.720    91694039.973          50.000  
> 2020  7 17 23 15  7.0000000  0 15       0.000000000000
G10  21380827.740   112356958.484          50.000    21380827.780    83902923.059          50.000  
G13  24597823.700   129262471.648          50.000                                                  
G15  22265733.120   117007029.188          50.000                                                  
G16  23388382.860   122906775.750          50.000                                                  
G20  20162923.560   105956879.520          50.000                                                  
G21  21957532.440   115387632.047          50.000                                                  
G26  23923828.560   125720455.199          50.000    23923831.840    93882142.520          50.000  
G27  22794246.060   119784522.953          50.000    22794247.380    89449481.715          50.000  
G29  23696892.640   124527975.363          50.000                                                  
E 1  27958896.220   146924928.645          50.000    27958902.060   109716643.648          50.000  
E 7  24103831.640   126666459.109          50.000    24103836.820    94588577.465          50.000  
E 8  22666731.940   119114482.453          50.000    22666734.680    88949119.457          50.000  
E13  23804138.440   125091572.035          50.000    23804142.180    93412526.219          50.000  
E15  27323486.600   143585826.652          50.000    27323493.900   107223160.578          50.000  
E26  23365945.060   122788833.789          50.000    23365950.180    91692946.918          50.000  
> 2020  7 17 23 15  8.0000000  0 15       0.000000000000
G10  21380529.300   112355390.211          50.000    21380529.360    83901751.945          50.000  
G13  24598328.140   129265122.555          50.000                                                  
G15  22266112.280   117009021.719          50.000                                                  
G16  23388596.280   122907897.246          50.000                                                  
G20  20162954.240   105957040.711          50.000                                                  
G21  21957250.940   115386152.766          50.000                                                  
G26  23924295.840   125722910.750          50.000    23924299.120    93883976.207          50.000  
G27  22793714.100   119781727.449          50.000    22793715.420    89447394.164          50.000  
G29  23697576.260   124531567.785          50.000                                                  
E 1  27959261.960   146926850.566          50.000    27959267.800   109718078.848          50.000  
E 7  24103510.420   126664771.148          50.000    24103515.600    94587316.977          50.000  
E 8  22666939.900   119115575.309          50.000    22666942.640    88949935.551          50.000  
E13  23804270.900   125092268.109          50.000    23804274.640    93413046.016          50.000  
E15  27323888.940   143587941.070          50.000    27323896.260   107224739.527          50.000  
E26  23365666.540   122787370.172          50.000    23365671.660    91691853.957          50.000  
> 2020  7 17 23 15  9.0000000  0 15       0.000000000000
G10  21380230.940   112353822.324          50.000    21380231.000    83900581.121          50.000  
G13  24598832.680   129267773.883          50.000                                                  
G15  22266491.560   117011014.832          50.000                                                  
G16  23388809.800   122909019.277          50.000                                                  
G20  20162984.980   105957202.277          50.000                                                  
G21  21956969.460   115384673.570          50.000                                                  
G26  23924763.160   125725366.484          50.000    23924766.440    93885810.035          50.000  
G27  22793182.200   119778932.301          50.000    22793183.520    89445306.879          50.000  
G29  23698259.920   124535160.418          50.000                                                  
E 1  27959627.720   146928772.707          50.000    27959633.560   109719514.215          50.000  
E 7  24103189.280   126663083.570          50.000    24103194.460    94586056.773          50.000  
E 8  22667147.940   119116668.574          50.000    22667150.680    88950751.949          50.000  
E13  23804403.400   125092964.395          50.000    23804407.140    93413565.969          50.000  
E15  27324291.340   143590055.602          50.000    27324298.640   107226318.559          50.000  
E26  23365388.040   122785906.660          50.000    23365393.160    91690761.074          50.000  
> 2020  7 17 23 15 10.0000000  0 15       0.000000000000
G10  21379932.660   112352254.816          50.000    21379932.700    83899410.582          50.000  
G13  24599337.300   129270425.652          50.000                                                  
G15  22266870.960   117013008.543          50.000                                                  
G16  23389023.420   122910141.867          50.000                                                  
G20  20163015.800   105957364.238          50.000                                                  
G21  21956688.020   115383194.484          50.000                                                  
G26  23925230.500   125727822.395          50.000    23925233.780    93887643.992          50.000  
G27  22792650.380   119776137.523          50.000    22792651.680    89443219.871          50.000  
G29  23698943.620   124538753.246          50.000                                                  
E 1  27959993.540   146930695.082          50.000    27959999.380   109720949.754          50.000  
E 7  24102868.220   126661396.371          50.000    24102873.400    94584796.852          50.000  
E 8  22667356.060   119117762.262          50.000    22667358.800    88951568.664          50.000  
E13  23804535.940   125093660.910          50.000    23804539.680    93414086.094          50.000  
E15  27324693.740   143592170.281          50.000    27324701.060   107227897.703          50.000  
E26  23365109.560   122784443.234          50.000    23365114.660    91689668.258          50.000  
> 2020  7 17 23 15 11.0000000  0 15       0.000000000000
G10  21379634.440   112350687.680          50.000    21379634.500    83898240.316          50.000  
G13  24599842.000   129273077.848          50.000                                                  
G15  22267250.460   117015002.836          50.000                                                  
G16  23389237.140   122911264.984          50.000                                                  
G20  20163046.700   105957526.570          50.000                                                  
G21  21956406.560   115381715.480          50.000                                                  
G26  23925697.900   125730278.500          50.000    23925701.180    93889478.094          50.000  
G27  22792118.620   119773343.102          50.000    22792119.920    89441133.129          50.000  
G29  23699627.360   124542346.285          50.000                                                  
E 1  27960359.400   146932617.680          50.000    27960365.240   109722385.457          50.000  
E 7  24102547.220   126659709.555          50.000    24102552.400    94583537.215          50.000  
E 8  22667564.260   119118856.359          50.000    22667567.000    88952385.684          50.000  
E13  23804668.520   125094357.652          50.000    23804672.260    93414606.387          50.000  
E15  27325096.180   143594285.094          50.000    27325103.480   107229476.941          50.000  
E26  23364831.100   122782979.934          50.000    23364836.220    91688575.535          50.000  
> 2020  7 17 23 15 12.0000000  0 15       0.000000000000
G10  21379336.300   112349120.945          50.000    21379336.360    83897070.355          50.000  
G13  24600346.780   129275730.492          50.000                                                  
G15  22267630.080   117016997.719          50.000                                                  
G16  23389450.960   122912388.641          50.000                                                  
G20  20163077.660   105957689.297          50.000                                                  
G21  21956125.140   115380236.574          50.000                                                  
G26  23926165.300   125732734.777          50.000    23926168.580    93891312.328          50.000  
G27  22791586.920   119770549.043          50.000    22791588.240    89439046.656          50.000  
G29  23700311.140   124545939.531          50.000                                                  
E 1  27960725.300   146934540.508          50.000    27960731.140   109723821.336          50.000  
E 7  24102226.300   126658023.129          50.000    24102231.500    94582277.875          50.000  
E 8  22667772.540   119119950.871          50.000    22667775.260    88953203.016          50.000  
E13  23804801.140   125095054.613          50.000    23804804.880    93415126.844          50.000  
E15  27325498.620   143596400.020          50.000    27325505.940   107231056.270          50.000  
E26  23364552.660   122781516.750          50.000    23364557.780    91687482.898          50.000  
> 2020  7 17 23 15 13.0000000  0 15       0.000000000000
G10  21379038.240   112347554.586          50.000    21379038.280    83895900.672          50.000  
G13  24600851.640   129278383.566          50.000                                                  
G15  22268009.800   117018993.191          50.000                                                  
G16  23389664.900   122913512.852          50.000                                                  
G20  20163108.700   105957852.406          50.000                                                  
G21  21955843.740   115378757.773          50.000                                                  
G26  23926632.760   125735191.250          50.000    23926636.040    93893146.703          50.000  
G27  22791055.300   119767755.348          50.000    22791056.620    89436960.457          50.000  
G29  23700994.940   124549532.977          50.000                                                  
E 1  27961091.240   146936463.574          50.000    27961097.080   109725257.391          50.000  
E 7  24101905.460   126656337.090          50.000    24101910.640    94581018.816          50.000  
E 8  22667980.900   119121045.805          50.000    22667983.620    88954020.660          50.000  
E13  23804933.800   125095751.793          50.000    23804937.540    93415647.469          50.000  
E15  27325901.120   143598515.109          50.000    27325908.440   107232635.719          50.000  
E26  23364274.240   122780053.652          50.000    23364279.360    91686390.324          50.000  
> 2020  7 17 23 15 14.0000000  0 15       0.000000000000
G10  21378740.240   112345988.613          50.000    21378740.300    83894731.277          50.000  
G13  24601356.600   129281037.078          50.000                                                  
G15  22268389.640   117020989.258          50.000                                                  
G16  23389878.940   122914637.605          50.000                                                  
G20  20163139.820   105958015.910          50.000                                                  
G21  21955562.360   115377279.078          50.000                                                  
G26  23927100.240   125737647.887          50.000    23927103.520    93894981.203          50.000  
G27  22790523.760   119764962.023          50.000    22790525.060    89434874.535          50.000  
G29  23701678.800   124553126.641          50.000                                                  
E 1  27961457.220   146938386.855          50.000    27961463.080   109726693.609          50.000  
E 7  24101584.680   126654651.438          50.000    24101589.880    94579760.055          50.000  
E 8  22668189.320   119122141.148          50.000    22668192.060    88954838.613          50.000  
E13  23805066.520   125096449.203          50.000    23805070.260    93416168.258          50.000  
E15  27326303.620   143600630.324          50.000    27326310.940   107234215.262          50.000  
E26  23363995.840   122778590.695          50.000    23364000.960    91685297.855          50.000  
> 2020  7 17 23 15 15.0000000  0 15       0.000000000000
G10  21378442.320   112344423.008          50.000    21378442.380    83893562.156          50.000  
G13  24601861.620   129283691.020          50.000                                                  
G15  22268769.600   117022985.902          50.000                                                  
G16  23390093.080   122915762.902          50.000                                                  
G20  20163171.020   105958179.793          50.000                                                  
G21  21955280.980   115375800.457          50.000                                                  
G26  23927567.760   125740104.719          50.000    23927571.060    93896815.852          50.000  
G27  22789992.260   119762169.055          50.000    22789993.580    89432788.875          50.000  
G29  23702362.700   124556720.492          50.000                                                  
E 1  27961823.260   146940310.371          50.000    27961829.100   109728130.000          50.000  
E 7  24101263.980   126652966.160          50.000    24101269.180    94578501.566          50.000  
E 8  22668397.840   119123236.898          50.000    22668400.580    88955656.867          50.000  
E13  23805199.280   125097146.824          50.000    23805203.020    93416689.211          50.000  
E15  27326706.160   143602745.660          50.000    27326713.480   107235794.895          50.000  
E26  23363717.480   122777127.824          50.000    23363722.580    91684205.449          50.000  
> 2020  7 17 23 15 16.0000000  0 15       0.000000000000
G10  21378144.480   112342857.797          50.000    21378144.520    83892393.332          50.000  
G13  24602366.740   129286345.410          50.000                                                  
G15  22269149.660   117024983.152          50.000                                                  
G16  23390307.320   122916888.746          50.000                                                  
G20  20163202.280   105958344.059          50.000                                                  
G21  21954999.640   115374321.949          50.000                                                  
G26  23928035.320   125742561.730          50.000    23928038.600    93898650.629          50.000  
G27  22789460.860   119759376.457          50.000    22789462.160    89430703.496          50.000  
G29  23703046.620   124560314.563          50.000                                                  
E 1  27962189.340   146942234.117          50.000    27962195.180   109729566.563          50.000  
E 7  24100943.360   126651281.277          50.000    24100948.540    94577243.375          50.000  
E 8  22668606.440   119124333.078          50.000    22668609.160    88956475.441          50.000  
E13  23805332.060   125097844.672          50.000    23805335.800    93417210.332          50.000  
E15  27327108.720   143604861.141          50.000    27327116.040   107237374.637          50.000  
E26  23363439.120   122775665.074          50.000    23363444.220    91683113.137          50.000  
> 2020  7 17 23 15 17.0000000  0 15       0.000000000000
G10  21377846.700   112341292.961          50.000    21377846.740    83891224.785          50.000  
G13  24602871.940   129289000.223          50.000                                                  
G15  22269529.840   117026980.984          50.000                                                  
G16  23390521.660   122918015.141          50.000                                                  
G20  20163233.600   105958508.711          50.000                                                  
G21  21954718.300   115372843.531          50.000                                                  
G26  23928502.920   125745018.914          50.000    23928506.200    93900485.539          50.000  
G27  22788929.520   119756584.215          50.000    22788930.820    89428618.383          50.000  
G29  23703730.600   124563908.852          50.000                                                  
E 1  27962555.460   146944158.098          50.000    27962561.300   109731003.301          50.000  
E 7  24100622.820   126649596.770          50.000    24100628.000    94575985.465          50.000  
E 8  22668815.100   119125429.664          50.000    22668817.840    88957294.320          50.000  
E13  23805464.900   125098542.750          50.000    23805468.640    93417731.625          50.000  
E15  27327511.300   143606976.754          50.000    27327518.620   107238954.477          50.000  
E26  23363160.780   122774202.410          50.000    23363165.880    91682020.891          50.000  
> 2020  7 17 23 15 18.0000000  0 15       0.000000000000
G10  21377549.000   112339728.504          50.000    21377549.040    83890056.523          50.000  
G13  24603377.220   129291655.480          50.000                                                  
G15  22269910.120   117028979.410          50.000                                                  
G16  23390736.120   122919142.074          50.000                                                  
G20  20163265.020   105958673.758          50.000                                                  
G21  21954436.980   115371365.211          50.000                                                  
G26  23928970.540   125747476.285          50.000    23928973.820    93902320.590          50.000  
G27  22788398.240   119753792.344          50.000    22788399.540    89426533.543          50.000  
G29  23704414.600   124567503.332          50.000                                                  
E 1  27962921.620   146946082.305          50.000    27962927.460   109732440.207          50.000  
E 7  24100302.340   126647912.652          50.000    24100307.520    94574727.844          50.000  
E 8  22669023.860   119126526.672          50.000    22669026.580    88958113.516          50.000  
E13  23805597.780   125099241.055          50.000    23805601.520    93418253.082          50.000  
E15  27327913.920   143609092.504          50.000    27327921.240   107240534.418          50.000  
E26  23362882.460   122772739.887          50.000    23362887.580    91680928.746          50.000  
> 2020  7 17 23 15 19.0000000  0 14       0.000000000000
G10  21377251.360   112338164.438          50.000    21377251.420    83888888.551          50.000  
G15  22270290.520   117030978.418          50.000                                                  
G16  23390950.660   122920269.539          50.000                                                  
G20  20163296.500   105958839.176          50.000                                                  
G21  21954155.700   115369886.992          50.000                                                  
G26  23929438.200   125749933.844          50.000    23929441.480    93904155.777          50.000  
G27  22787867.040   119751000.836          50.000    22787868.340    89424448.977          50.000  
G29  23705098.660   124571098.016          50.000                                                  
E 1  27963287.820   146948006.730          50.000    27963293.660   109733877.277          50.000  
E 7  24099981.920   126646228.918          50.000    24099987.100    94573470.512          50.000  
E 8  22669232.680   119127624.082          50.000    22669235.420    88958933.012          50.000  
E13  23805730.700   125099939.566          50.000    23805734.440    93418774.699          50.000  
E15  27328316.560   143611208.379          50.000    27328323.880   107242114.453          50.000  
E26  23362604.180   122771277.449          50.000    23362609.280    91679836.668          50.000  
> 2020  7 17 23 15 20.0000000  0 14       0.000000000000
G10  21376953.800   112336600.742          50.000    21376953.860    83887720.859          50.000  
G15  22270671.040   117032978.020          50.000                                                  
G16  23391165.320   122921397.563          50.000                                                  
G20  20163328.040   105959004.988          50.000                                                  
G21  21953874.420   115368408.859          50.000                                                  
G26  23929905.900   125752391.578          50.000    23929909.180    93905991.094          50.000  
G27  22787335.900   119748209.691          50.000    22787337.200    89422364.684          50.000  
G29  23705782.740   124574692.918          50.000                                                  
E 1  27963654.060   146949931.395          50.000    27963659.920   109735314.527          50.000  
E 7  24099661.600   126644545.566          50.000    24099666.780    94572213.465          50.000  
E 8  22669441.600   119128721.898          50.000    22669444.320    88959752.809          50.000  
E13  23805863.660   125100638.301          50.000    23805867.400    93419296.480          50.000  
E15  27328719.220   143613324.402          50.000    27328726.540   107243694.598          50.000  
E26  23362325.900   122769815.133          50.000    23362331.020    91678744.676          50.000  
> 2020  7 17 23 15 21.0000000  0 14       0.000000000000
G10  21376656.320   112335037.438          50.000    21376656.360    83886553.453          50.000  
G15  22271051.660   117034978.211          50.000                                                  
G16  23391380.080   122922526.117          50.000                                                  
G20  20163359.680   105959171.184          50.000                                                  
G21  21953593.160   115366930.832          50.000                                                  
G26  23930373.620   125754849.496          50.000    23930376.900    93907826.555          50.000  
G27  22786804.840   119745418.918          50.000    22786806.140    89420280.664          50.000  
G29  23706466.880   124578288.020          50.000                                                  
E 1  27964020.360   146951856.281          50.000    27964026.200   109736751.941          50.000  
E 7  24099341.340   126642862.609          50.000    24099346.520    94570956.711          50.000  
E 8  22669650.580   119129820.145          50.000    22669653.320    88960572.926          50.000  
E13  23805996.680   125101337.270          50.000    23806000.420    93419818.438          50.000  
E15  27329121.900   143615440.543          50.000    27329129.220   107245274.836          50.000  
E26  23362047.660   122768352.934          50.000    23362052.760    91677652.777          50.000  
> 2020  7 17 23 15 22.0000000  0 14       0.000000000000
G10  21376358.900   112333474.512          50.000    21376358.960    83885386.336          50.000  
G15  22271432.400   117036978.988          50.000                                                  
G16  23391594.940   122923655.215          50.000                                                  
G20  20163391.380   105959337.758          50.000                                                  
G21  21953311.920   115365452.891          50.000                                                  
G26  23930841.380   125757307.605          50.000    23930844.680    93909662.152          50.000  
G27  22786273.840   119742628.500          50.000    22786275.140    89418196.910          50.000  
G29  23707151.040   124581883.336          50.000                                                  
E 1  27964386.700   146953781.398          50.000    27964392.540   109738189.527          50.000  
E 7  24099021.140   126641180.020          50.000    24099026.320    94569700.234          50.000  
E 8  22669859.640   119130918.801          50.000    22669862.380    88961393.352          50.000  
E13  23806129.720   125102036.445          50.000    23806133.460    93420340.551          50.000  
E15  27329524.620   143617556.820          50.000    27329531.940   107246855.168          50.000  
E26  23361769.420   122766890.824          50.000    23361774.520    91676560.941          50.000  
> 2020  7 17 23 15 23.0000000  0 14       0.000000000000
G10  21376061.560   112331911.965          50.000    21376061.620    83884219.500          50.000  
G15  22271813.260   117038980.359          50.000                                                  
G16  23391809.920   122924784.871          50.000                                                  
G20  20163423.160   105959504.715          50.000                                                  
G21  21953030.700   115363975.055          50.000                                                  
G26  23931309.180   125759765.887          50.000    23931312.480    93911497.883          50.000  
G27  22785742.900   119739838.453          50.000    22785744.220    89416113.438          50.000  
G29  23707835.260   124585478.852          50.000                                                  
E 1  27964753.080   146955706.738          50.000    27964758.920   109739627.277          50.000  
E 7  24098701.040   126639497.828          50.000    24098706.220    94568444.051          50.000  
E 8  22670068.800   119132017.883          50.000    22670071.520    88962214.094          50.000  
E13  23806262.820   125102735.859          50.000    23806266.560    93420862.840          50.000  
E15  27329927.360   143619673.238          50.000    27329934.680   107248435.609          50.000  
E26  23361491.220   122765428.836          50.000    23361496.320    91675469.199          50.000  
> 2020  7 17 23 15 24.0000000  0 14       0.000000000000
G10  21375764.300   112330349.789          50.000    21375764.340    83883052.941          50.000  
G15  22272194.220   117040982.301          50.000                                                  
G16  23392024.980   122925915.063          50.000                                                  
G20  20163455.000   105959672.063          50.000                                                  
G21  21952749.500   115362497.305          50.000                                                  
G26  23931777.020   125762224.336          50.000    23931780.300    93913333.734          50.000  
G27  22785212.060   119737048.770          50.000    22785213.360    89414030.230          50.000  
G29  23708519.500   124589074.563          50.000                                                  
E 1  27965119.500   146957632.313          50.000    27965125.340   109741065.207          50.000  
E 7  24098381.000   126637816.012          50.000    24098386.180    94567188.148          50.000  
E 8  22670278.020   119133117.355          50.000    22670280.740    88963035.129          50.000  
E13  23806395.940   125103435.484          50.000    23806399.680    93421385.285          50.000  
E15  27330330.120   143621789.770          50.000    27330337.440   107250016.137          50.000  
E26  23361213.020   122763966.965          50.000    23361218.140    91674377.543          50.000  
> 2020  7 17 23 15 25.0000000  0 14       0.000000000000
G10  21375467.100   112328788.008          50.000    21375467.140    83881886.676          50.000  
G15  22272575.280   117042984.844          50.000                                                  
G16  23392240.160   122927045.793          50.000                                                  
G20  20163486.920   105959839.797          50.000                                                  
G21  21952468.300   115361019.656          50.000                                                  
G26  23932244.880   125764682.988          50.000    23932248.180    93915169.742          50.000  
G27  22784681.260   119734259.441          50.000    22784682.560    89411947.293          50.000  
G29  23709203.780   124592670.480          50.000                                                  
E 1  27965485.960   146959558.113          50.000    27965491.820   109742503.305          50.000  
E 7  24098061.020   126636134.586          50.000    24098066.200    94565932.539          50.000  
E 8  22670487.320   119134217.254          50.000    22670490.040    88963856.480          50.000  
E13  23806529.120   125104135.344          50.000    23806532.860    93421907.906          50.000  
E15  27330732.920   143623906.469          50.000    27330740.240   107251596.785          50.000  
E26  23360934.860   122762505.191          50.000    23360939.960    91673285.957          50.000  
> 2020  7 17 23 15 26.0000000  0 14       0.000000000000
G10  21375169.980   112327226.605          50.000    21375170.020    83880720.691          50.000  
G15  22272956.480   117044987.977          50.000                                                  
G16  23392455.440   122928177.070          50.000                                                  
G20  20163518.920   105960007.922          50.000                                                  
G21  21952187.140   115359542.102          50.000                                                  
G26  23932712.780   125767141.813          50.000    23932716.080    93917005.875          50.000  
G27  22784150.540   119731470.484          50.000    22784151.840    89409864.633          50.000  
G29  23709888.100   124596266.617          50.000                                                  
E 1  27965852.480   146961484.137          50.000    27965858.320   109743941.566          50.000  
E 7  24097741.120   126634453.547          50.000    24097746.320    94564677.219          50.000  
E 8  22670696.700   119135317.566          50.000    22670699.420    88964678.145          50.000  
E13  23806662.340   125104835.422          50.000    23806666.080    93422430.691          50.000  
E15  27331135.740   143626023.289          50.000    27331143.040   107253177.527          50.000  
E26  23360656.700   122761043.520          50.000    23360661.820    91672194.449          50.000  
> 2020  7 17 23 15 27.0000000  0 14       0.000000000000
G10  21374872.920   112325665.582          50.000    21374872.960    83879554.992          50.000  
G15  22273337.760   117046991.695          50.000                                                  
G16  23392670.820   122929308.883          50.000                                                  
G20  20163550.980   105960176.422          50.000                                                  
G21  21951906.000   115358064.652          50.000                                                  
G26  23933180.720   125769600.824          50.000    23933184.020    93918842.145          50.000  
G27  22783619.880   119728681.891          50.000    22783621.200    89407782.242          50.000  
G29  23710572.460   124599862.957          50.000                                                  
E 1  27966219.020   146963410.391          50.000    27966224.880   109745380.004          50.000  
E 7  24097421.300   126632772.895          50.000    24097426.500    94563422.188          50.000  
E 8  22670906.160   119136418.281          50.000    22670908.880    88965500.105          50.000  
E13  23806795.600   125105535.719          50.000    23806799.340    93422953.645          50.000  
E15  27331538.580   143628140.230          50.000    27331545.880   107254758.359          50.000  
E26  23360378.580   122759581.969          50.000    23360383.680    91671103.031          50.000  
> 2020  7 17 23 15 28.0000000  0 14       0.000000000000
G10  21374575.940   112324104.934          50.000    21374575.980    83878389.578          50.000  
G15  22273719.180   117048996.000          50.000                                                  
G16  23392886.300   122930441.254          50.000                                                  
G20  20163583.120   105960345.309          50.000                                                  
G21  21951624.860   115356587.289          50.000                                                  
G26  23933648.700   125772060.008          50.000    23933651.980    93920678.547          50.000  
G27  22783089.300   119725893.668          50.000    22783090.620    89405700.129          50.000  
G29  23711256.880   124603459.492          50.000                                                  
E 1  27966585.620   146965336.875          50.000    27966591.480   109746818.613          50.000  
E 7  24097101.560   126631092.621          50.000    24097106.740    94562167.438          50.000  
E 8  22671115.700   119137519.418          50.000    22671118.420    88966322.383          50.000  
E13  23806928.900   125106236.230          50.000    23806932.640    93423476.754          50.000  
E15  27331941.440   143630257.316          50.000    27331948.760   107256339.297          50.000  
E26  23360100.480   122758120.516          50.000    23360105.580    91670011.688          50.000  
> 2020  7 17 23 15 29.0000000  0 14       0.000000000000
G10  21374279.040   112322544.688          50.000    21374279.080    83877224.453          50.000  
G15  22274100.700   117051000.910          50.000                                                  
G16  23393101.900   122931574.168          50.000                                                  
G20  20163615.340   105960514.602          50.000                                                  
G21  21951343.760   115355110.039          50.000                                                  
G26  23934116.700   125774519.371          50.000    23934119.980    93922515.086          50.000  
G27  22782558.800   119723105.820          50.000    22782560.100    89403618.293          50.000  
G29  23711941.320   124607056.250          50.000                                                  
E 1  27966952.260   146967263.590          50.000    27966958.120   109748257.391          50.000  
E 7  24096781.880   126629412.742          50.000    24096787.080    94560912.980          50.000  
E 8  22671325.300   119138620.977          50.000    22671328.040    88967144.973          50.000  
E13  23807062.260   125106936.984          50.000    23807066.000    93424000.043          50.000  
E15  27332344.320   143632374.531          50.000    27332351.640   107257920.336          50.000  
E26  23359822.400   122756659.207          50.000    23359827.500    91668920.449          50.000  
> 2020  7 17 23 15 30.0000000  0 14       0.000000000000
G10  21373982.200   112320984.813          50.000    21373982.260    83876059.609          50.000  
G15  22274482.340   117053006.391          50.000                                                  
G16  23393317.580   122932707.613          50.000                                                  
G20  20163647.620   105960684.262          50.000                                                  
G21  21951062.660   115353632.883          50.000                                                  
G26  23934584.740   125776978.934          50.000    23934588.020    93924351.762          50.000  
G27  22782028.360   119720318.324          50.000    22782029.660    89401536.719          50.000  
G29  23712625.800   124610653.199          50.000                                                  
E 1  27967318.940   146969190.527          50.000    27967324.800   109749696.340          50.000  
E 7  24096462.280   126627733.234          50.000    24096467.460    94559658.809          50.000  
E 8  22671535.000   119139722.938          50.000    22671537.740    88967967.867          50.000  
E13  23807195.640   125107637.945          50.000    23807199.380    93424523.488          50.000  
E15  27332747.240   143634491.898          50.000    27332754.560   107259501.484          50.000  
E26  23359544.320   122755197.984          50.000    23359549.440    91667829.277          50.000  
> 2020  7 17 23 15 31.0000000  0 14       0.000000000000
G10  21373685.440   112319425.320          50.000    21373685.480    83874895.051          50.000  
G15  22274864.080   117055012.477          50.000                                                  
G16  23393533.380   122933841.613          50.000                                                  
G20  20163679.980   105960854.316          50.000                                                  
G21  21950781.580   115352155.824          50.000                                                  
G26  23935052.820   125779438.672          50.000    23935056.100    93926188.574          50.000  
G27  22781497.980   119717531.203          50.000    22781499.300    89399455.422          50.000  
G29  23713310.300   124614250.367          50.000                                                  
E 1  27967685.660   146971117.691          50.000    27967691.520   109751135.453          50.000  
E 7  24096142.760   126626054.125          50.000    24096147.940    94558404.926          50.000  
E 8  22671744.780   119140825.316          50.000    22671747.500    88968791.070          50.000  
E13  23807329.060   125108339.137          50.000    23807332.800    93425047.105          50.000  
E15  27333150.200   143636609.387          50.000    27333157.520   107261082.723          50.000  
E26  23359266.280   122753736.867          50.000    23359271.400    91666738.184          50.000  
> 2020  7 17 23 15 32.0000000  0 14       0.000000000000
G10  21373388.760   112317866.211          50.000    21373388.800    83873730.777          50.000  
G15  22275245.940   117057019.145          50.000                                                  
G16  23393749.260   122934976.141          50.000                                                  
G20  20163712.420   105961024.754          50.000                                                  
G21  21950500.520   115350678.855          50.000                                                  
G26  23935520.920   125781898.586          50.000    23935524.200    93928025.520          50.000  
G27  22780967.680   119714744.445          50.000    22780968.980    89397374.398          50.000  
G29  23713994.860   124617847.742          50.000                                                  
E 1  27968052.440   146973045.078          50.000    27968058.280   109752574.734          50.000  
E 7  24095823.300   126624375.387          50.000    24095828.480    94557151.324          50.000  
E 8  22671954.620   119141928.102          50.000    22671957.360    88969614.582          50.000  
E13  23807462.540   125109040.539          50.000    23807466.280    93425570.879          50.000  
E15  27333553.160   143638726.992          50.000    27333560.480   107262664.055          50.000  
E26  23358988.260   122752275.855          50.000    23358993.380    91665647.172          50.000  
> 2020  7 17 23 15 33.0000000  0 14       0.000000000000
G10  21373092.140   112316307.480          50.000    21373092.180    83872566.789          50.000  
G15  22275627.900   117059026.406          50.000                                                  
G16  23393965.260   122936111.227          50.000                                                  
G20  20163744.920   105961195.566          50.000                                                  
G21  21950219.480   115349201.984          50.000                                                  
G26  23935989.060   125784358.668          50.000    23935992.340    93929862.590          50.000  
G27  22780437.440   119711958.043          50.000    22780438.760    89395293.641          50.000  
G29  23714679.460   124621445.320          50.000                                                  
E 1  27968419.260   146974972.703          50.000    27968425.100   109754014.191          50.000  
E 7  24095503.920   126622697.039          50.000    24095509.100    94555898.012          50.000  
E 8  22672164.560   119143031.305          50.000    22672167.280    88970438.402          50.000  
E13  23807596.060   125109742.176          50.000    23807599.800    93426094.828          50.000  
E15  27333956.160   143640844.746          50.000    27333963.480   107264245.492          50.000  
E26  23358710.260   122750814.961          50.000    23358715.360    91664556.242          50.000  
> 2020  7 17 23 15 34.0000000  0 14       0.000000000000
G10  21372795.600   112314749.137          50.000    21372795.640    83871403.086          50.000  
G15  22276009.980   117061034.262          50.000                                                  
G16  23394181.380   122937246.855          50.000                                                  
G20  20163777.500   105961366.766          50.000                                                  
G21  21949938.460   115347725.219          50.000                                                  
G26  23936457.240   125786818.945          50.000    23936460.520    93931699.805          50.000  
G27  22779907.280   119709172.016          50.000    22779908.600    89393213.164          50.000  
G29  23715364.100   124625043.098          50.000                                                  
E 1  27968786.100   146976900.547          50.000    27968791.960   109755453.820          50.000  
E 7  24095184.620   126621019.066          50.000    24095189.800    94554644.988          50.000  
E 8  22672374.560   119144134.910          50.000    22672377.300    88971262.527          50.000  
E13  23807729.620   125110444.031          50.000    23807733.360    93426618.945          50.000  
E15  27334359.180   143642962.633          50.000    27334366.500   107265827.035          50.000  
E26  23358432.280   122749354.156          50.000    23358437.380    91663465.387          50.000  
> 2020  7 17 23 15 35.0000000  0 14       0.000000000000
G10  21372499.120   112313191.168          50.000    21372499.180    83870239.664          50.000  
G15  22276392.180   117063042.699          50.000                                                  
G16  23394397.580   122938383.023          50.000                                                  
G20  20163810.140   105961538.348          50.000                                                  
G21  21949657.460   115346248.551          50.000                                                  
G26  23936925.440   125789279.395          50.000    23936928.740    93933537.148          50.000  
G27  22779377.180   119706386.359          50.000    22779378.500    89391132.965          50.000  
G29  23716048.780   124628641.086          50.000                                                  
E 1  27969153.000   146978828.617          50.000    27969158.860   109756893.617          50.000  
E 7  24094865.380   126619341.488          50.000    24094870.560    94553392.254          50.000  
E 8  22672584.660   119145238.945          50.000    22672587.380    88972086.973          50.000  
E13  23807863.220   125111146.109          50.000    23807866.960    93427143.227          50.000  
E15  27334762.220   143645080.648          50.000    27334769.540   107267408.672          50.000  
E26  23358154.320   122747893.492          50.000    23358159.420    91662374.633          50.000  
> 2020  7 17 23 15 36.0000000  0 14       0.000000000000
G10  21372202.720   112311633.582          50.000    21372202.780    83869076.531          50.000  
G15  22276774.480   117065051.723          50.000                                                  
G16  23394613.880   122939519.738          50.000                                                  
G20  20163842.880   105961710.313          50.000                                                  
G21  21949376.480   115344771.980          50.000                                                  
G26  23937393.680   125791740.027          50.000    23937396.980    93935374.629          50.000  
G27  22778847.160   119703601.063          50.000    22778848.480    89389053.031          50.000  
G29  23716733.500   124632239.285          50.000                                                  
E 1  27969519.960   146980756.910          50.000    27969525.800   109758333.578          50.000  
E 7  24094546.220   126617664.297          50.000    24094551.400    94552139.809          50.000  
E 8  22672794.820   119146343.383          50.000    22672797.560    88972911.719          50.000  
E13  23807996.860   125111848.398          50.000    23808000.600    93427667.668          50.000  
E15  27335165.280   143647198.793          50.000    27335172.600   107268990.406          50.000  
E26  23357876.380   122746432.926          50.000    23357881.500    91661283.957          50.000  
> 2020  7 17 23 15 37.0000000  0 14       0.000000000000
G10  21371906.400   112310076.363          50.000    21371906.440    83867913.668          50.000  
G15  22277156.900   117067061.340          50.000                                                  
G16  23394830.300   122940656.980          50.000                                                  
G20  20163875.660   105961882.660          50.000                                                  
G21  21949095.520   115343295.504          50.000                                                  
G26  23937861.960   125794200.840          50.000    23937865.260    93937212.242          50.000  
G27  22778317.200   119700816.129          50.000    22778318.520    89386973.371          50.000  
G29  23717418.240   124635837.684          50.000                                                  
E 1  27969886.940   146982685.434          50.000    27969892.780   109759773.715          50.000  
E 7  24094227.140   126615987.480          50.000    24094232.320    94550887.645          50.000  
E 8  22673005.080   119147448.230          50.000    22673007.800    88973736.770          50.000  
E13  23808130.540   125112550.910          50.000    23808134.280    93428192.277          50.000  
E15  27335568.380   143649317.082          50.000    27335575.700   107270572.246          50.000  
E26  23357598.460   122744972.449          50.000    23357603.580    91660193.348          50.000  
> 2020  7 17 23 15 38.0000000  0 14       0.000000000000
G10  21371610.140   112308519.547          50.000    21371610.200    83866751.105          50.000  
G15  22277539.440   117069071.539          50.000                                                  
G16  23395046.820   122941794.793          50.000                                                  
G20  20163908.540   105962055.395          50.000                                                  
G21  21948814.580   115341819.125          50.000                                                  
G26  23938330.280   125796661.836          50.000    23938333.580    93939049.996          50.000  
G27  22777787.320   119698031.563          50.000    22777788.640    89384893.984          50.000  
G29  23718103.040   124639436.285          50.000                                                  
E 1  27970253.960   146984614.188          50.000    27970259.820   109761214.020          50.000  
E 7  24093908.120   126614311.059          50.000    24093913.300    94549635.777          50.000  
E 8  22673215.400   119148553.500          50.000    22673218.120    88974562.137          50.000  
E13  23808264.260   125113253.664          50.000    23808268.000    93428717.063          50.000  
E15  27335971.500   143651435.500          50.000    27335978.820   107272154.184          50.000  
E26  23357320.580   122743512.102          50.000    23357325.680    91659102.828          50.000  
> 2020  7 17 23 15 39.0000000  0 14       0.000000000000
G10  21371313.960   112306963.102          50.000    21371314.020    83865588.820          50.000  
G15  22277922.080   117071082.332          50.000                                                  
G16  23395263.440   122942933.117          50.000                                                  
G20  20163941.480   105962228.512          50.000                                                  
G21  21948533.640   115340342.840          50.000                                                  
G26  23938798.620   125799123.004          50.000    23938801.920    93940887.875          50.000  
G27  22777257.500   119695247.363          50.000    22777258.820    89382814.871          50.000  
G29  23718787.880   124643035.102          50.000                                                  
E 1  27970621.040   146986543.156          50.000    27970626.880   109762654.488          50.000  
E 7  24093589.180   126612635.020          50.000    24093594.360    94548384.191          50.000  
E 8  22673425.800   119149659.164          50.000    22673428.520    88975387.801          50.000  
E13  23808398.040   125113956.633          50.000    23808401.780    93429242.008          50.000  
E15  27336374.660   143653554.043          50.000    27336381.980   107273736.215          50.000  
E26  23357042.700   122742051.859          50.000    23357047.800    91658012.395          50.000  
> 2020  7 17 23 15 40.0000000  0 14       0.000000000000
G10  21371017.840   112305407.039          50.000    21371017.900    83864426.824          50.000  
G15  22278304.820   117073093.711          50.000                                                  
G16  23395480.160   122944072.000          50.000                                                  
G20  20163974.500   105962402.008          50.000                                                  
G21  21948252.740   115338866.652          50.000                                                  
G26  23939267.000   125801584.355          50.000    23939270.300    93942725.891          50.000  
G27  22776727.760   119692463.527          50.000    22776729.080    89380736.027          50.000  
G29  23719472.740   124646634.113          50.000                                                  
E 1  27970988.160   146988472.367          50.000    27970994.000   109764095.133          50.000  
E 7  24093270.320   126610959.352          50.000    24093275.480    94547132.891          50.000  
E 8  22673636.280   119150765.258          50.000    22673639.000    88976213.781          50.000  
E13  23808531.840   125114659.809          50.000    23808535.580    93429767.113          50.000  
E15  27336777.820   143655672.719          50.000    27336785.140   107275318.348          50.000  
E26  23356764.840   122740591.723          50.000    23356769.940    91656922.035          50.000  
> 2020  7 17 23 15 41.0000000  0 14       0.000000000000
G10  21370721.820   112303851.363          50.000    21370721.860    83863265.117          50.000  
G15  22278687.700   117075105.680          50.000                                                  
G16  23395696.980   122945211.445          50.000                                                  
G20  20164007.580   105962575.902          50.000                                                  
G21  21947971.840   115337390.578          50.000                                                  
G26  23939735.420   125804045.891          50.000    23939738.720    93944564.047          50.000  
G27  22776198.080   119689680.059          50.000    22776199.400    89378657.465          50.000  
G29  23720157.660   124650233.336          50.000                                                  
E 1  27971355.320   146990401.805          50.000    27971361.160   109765535.949          50.000  
E 7  24092951.520   126609284.090          50.000    24092956.700    94545881.887          50.000  
E 8  22673846.840   119151871.766          50.000    22673849.560    88977040.074          50.000  
E13  23808665.700   125115363.234          50.000    23808669.440    93430292.402          50.000  
E15  27337181.020   143657791.547          50.000    27337188.340   107276900.594          50.000  
E26  23356487.020   122739131.707          50.000    23356492.100    91655831.770          50.000  
> 2020  7 17 23 15 42.0000000  0 14       0.000000000000
G10  21370425.840   112302296.074          50.000    21370425.900    83862103.695          50.000  
G15  22279070.660   117077118.227          50.000                                                  
G16  23395913.920   122946351.434          50.000                                                  
G20  20164040.760   105962750.176          50.000                                                  
G21  21947690.980   115335914.586          50.000                                                  
G26  23940203.860   125806507.609          50.000    23940207.180    93946402.336          50.000  
G27  22775668.480   119686896.961          50.000    22775669.780    89376579.172          50.000  
G29  23720842.600   124653832.766          50.000                                                  
E 1  27971722.520   146992331.461          50.000    27971728.360   109766976.934          50.000  
E 7  24092632.800   126607609.211          50.000    24092637.980    94544631.168          50.000  
E 8  22674057.480   119152978.691          50.000    22674060.200    88977866.680          50.000  
E13  23808799.600   125116066.867          50.000    23808803.340    93430817.844          50.000  
E15  27337584.260   143659910.500          50.000    27337591.560   107278482.930          50.000  
E26  23356209.200   122737671.793          50.000    23356214.300    91654741.574          50.000  
> 2020  7 17 23 15 43.0000000  0 14       0.000000000000
G10  21370129.960   112300741.141          50.000    21370130.020    83860942.539          50.000  
G15  22279453.760   117079131.367          50.000                                                  
G16  23396130.960   122947491.949          50.000                                                  
G20  20164073.980   105962924.824          50.000                                                  
G21  21947410.120   115334438.691          50.000                                                  
G26  23940672.360   125808969.508          50.000    23940675.660    93948240.762          50.000  
G27  22775138.940   119684114.230          50.000    22775140.260    89374501.156          50.000  
G29  23721527.580   124657432.383          50.000                                                  
E 1  27972089.760   146994261.359          50.000    27972095.600   109768418.094          50.000  
E 7  24092314.160   126605934.711          50.000    24092319.320    94543380.734          50.000  
E 8  22674268.200   119154086.008          50.000    22674270.920    88978693.574          50.000  
E13  23808933.540   125116770.727          50.000    23808937.280    93431343.457          50.000  
E15  27337987.500   143662029.582          50.000    27337994.820   107280065.367          50.000  
E26  23355931.400   122736211.996          50.000    23355936.500    91653651.473          50.000  
> 2020  7 17 23 15 44.0000000  0 14       0.000000000000
G10  21369834.140   112299186.609          50.000    21369834.200    83859781.684          50.000  
G15  22279836.960   117081145.098          50.000                                                  
G16  23396348.100   122948633.027          50.000                                                  
G20  20164107.300   105963099.867          50.000                                                  
G21  21947129.280   115332962.895          50.000                                                  
G26  23941140.860   125811431.566          50.000    23941144.180    93950079.309          50.000  
G27  22774609.480   119681331.863          50.000    22774610.780    89372423.414          50.000  
G29  23722212.620   124661032.227          50.000                                                  
E 1  27972457.060   146996191.453          50.000    27972462.900   109769859.398          50.000  
E 7  24091995.580   126604260.590          50.000    24092000.760    94542130.586          50.000  
E 8  22674479.000   119155193.750          50.000    22674481.720    88979520.789          50.000  
E13  23809067.520   125117474.809          50.000    23809071.260    93431869.238          50.000  
E15  27338390.780   143664148.805          50.000    27338398.080   107281647.906          50.000  
E26  23355653.640   122734752.297          50.000    23355658.740    91652561.441          50.000  
> 2020  7 17 23 15 45.0000000  0 14       0.000000000000
G10  21369538.400   112297632.449          50.000    21369538.460    83858621.105          50.000  
G15  22280220.260   117083159.406          50.000                                                  
G16  23396565.340   122949774.629          50.000                                                  
G20  20164140.680   105963275.293          50.000                                                  
G21  21946848.460   115331487.195          50.000                                                  
G26  23941609.420   125813893.813          50.000    23941612.720    93951917.992          50.000  
G27  22774080.080   119678549.855          50.000    22774081.380    89370345.938          50.000  
G29  23722897.680   124664632.262          50.000                                                  
E 1  27972824.380   146998121.797          50.000    27972830.220   109771300.895          50.000  
E 7  24091677.080   126602586.863          50.000    24091682.240    94540880.730          50.000  
E 8  22674689.880   119156301.906          50.000    22674692.580    88980348.313          50.000  
E13  23809201.560   125118179.113          50.000    23809205.280    93432395.184          50.000  
E15  27338794.080   143666268.152          50.000    27338801.380   107283230.539          50.000  
E26  23355375.880   122733292.727          50.000    23355380.980    91651471.508          50.000  
> 2020  7 17 23 15 46.0000000  0 14       0.000000000000
G10  21369242.720   112296078.680          50.000    21369242.780    83857460.820          50.000  
G15  22280603.680   117085174.313          50.000                                                  
G16  23396782.680   122950916.781          50.000                                                  
G20  20164174.140   105963451.094          50.000                                                  
G21  21946567.680   115330011.594          50.000                                                  
G26  23942078.000   125816356.254          50.000    23942081.320    93953756.820          50.000  
G27  22773550.740   119675768.223          50.000    22773552.060    89368268.742          50.000  
G29  23723582.780   124668232.500          50.000                                                  
E 1  27973191.760   147000052.359          50.000    27973197.600   109772742.547          50.000  
E 7  24091358.660   126600913.520          50.000    24091363.820    94539631.156          50.000  
E 8  22674900.820   119157410.473          50.000    22674903.540    88981176.141          50.000  
E13  23809335.620   125118883.637          50.000    23809339.340    93432921.289          50.000  
E15  27339197.400   143668387.652          50.000    27339204.720   107284813.285          50.000  
E26  23355098.160   122731833.234          50.000    23355103.240    91650381.633          50.000  
> 2020  7 17 23 15 47.0000000  0 14       0.000000000000
G10  21368947.120   112294525.285          50.000    21368947.180    83856300.816          50.000  
G15  22280987.220   117087189.809          50.000                                                  
G16  23397000.120   122952059.469          50.000                                                  
G20  20164207.660   105963627.289          50.000                                                  
G21  21946286.900   115328536.086          50.000                                                  
G26  23942546.620   125818818.852          50.000    23942549.940    93955595.770          50.000  
G27  22773021.480   119672986.973          50.000    22773022.800    89366191.832          50.000  
G29  23724267.940   124671832.945          50.000                                                  
E 1  27973559.180   147001983.152          50.000    27973565.020   109774184.379          50.000  
E 7  24091040.300   126599240.570          50.000    24091045.460    94538381.883          50.000  
E 8  22675111.860   119158519.457          50.000    22675114.580    88982004.281          50.000  
E13  23809469.720   125119588.391          50.000    23809473.460    93433447.574          50.000  
E15  27339600.760   143670507.266          50.000    27339608.060   107286396.113          50.000  
E26  23354820.460   122730373.891          50.000    23354825.540    91649291.867          50.000  
> 2020  7 17 23 15 48.0000000  0 14       0.000000000000
G10  21368651.580   112292972.273          50.000    21368651.660    83855141.098          50.000  
G15  22281370.880   117089205.891          50.000                                                  
G16  23397217.680   122953202.691          50.000                                                  
G20  20164241.260   105963803.867          50.000                                                  
G21  21946006.140   115327060.684          50.000                                                  
G26  23943015.280   125821281.633          50.000    23943018.580    93957434.855          50.000  
G27  22772492.300   119670206.074          50.000    22772493.620    89364115.184          50.000  
G29  23724953.120   124675433.602          50.000                                                  
E 1  27973926.640   147003914.168          50.000    27973932.480   109775626.375          50.000  
E 7  24090722.020   126597567.996          50.000    24090727.180    94537132.883          50.000  
E 8  22675322.960   119159628.852          50.000    22675325.680    88982832.730          50.000  
E13  23809603.880   125120293.359          50.000    23809607.600    93433974.016          50.000  
E15  27340004.120   143672627.027          50.000    27340011.440   107287979.055          50.000  
E26  23354542.760   122728914.633          50.000    23354547.860    91648202.164          50.000  
> 2020  7 17 23 15 49.0000000  0 14       0.000000000000
G10  21368356.140   112291419.652          50.000    21368356.200    83853981.668          50.000  
G15  22281754.640   117091222.566          50.000                                                  
G16  23397435.320   122954346.461          50.000                                                  
G20  20164274.940   105963980.832          50.000                                                  
G21  21945725.380   115325585.371          50.000                                                  
G26  23943483.960   125823744.602          50.000    23943487.280    93959274.078          50.000  
G27  22771963.180   119667425.543          50.000    22771964.500    89362038.809          50.000  
G29  23725638.340   124679034.453          50.000                                                  
E 1  27974294.140   147005845.410          50.000    27974299.980   109777068.539          50.000  
E 7  24090403.820   126595895.816          50.000    24090408.980    94535884.184          50.000  
E 8  22675534.160   119160738.660          50.000    22675536.880    88983661.488          50.000  
E13  23809738.080   125120998.563          50.000    23809741.800    93434500.629          50.000  
E15  27340407.540   143674746.941          50.000    27340414.840   107289562.109          50.000  
E26  23354265.100   122727455.504          50.000    23354270.200    91647112.563          50.000  
> 2020  7 17 23 15 50.0000000  0 14       0.000000000000
G10  21368060.740   112289867.402          50.000    21368060.820    83852822.516          50.000  
G15  22282138.500   117093239.824          50.000                                                  
G16  23397653.080   122955490.766          50.000                                                  
G20  20164308.680   105964158.180          50.000                                                  
G21  21945444.660   115324110.152          50.000                                                  
G26  23943952.680   125826207.746          50.000    23943956.000    93961113.434          50.000  
G27  22771434.140   119664645.375          50.000    22771435.460    89359962.703          50.000  
G29  23726323.600   124682635.527          50.000                                                  
E 1  27974661.680   147007776.891          50.000    27974667.520   109778510.883          50.000  
E 7  24090085.680   126594224.012          50.000    24090090.840    94534635.766          50.000  
E 8  22675745.420   119161848.883          50.000    22675748.140    88984490.555          50.000  
E13  23809872.320   125121703.992          50.000    23809876.040    93435027.414          50.000  
E15  27340810.960   143676866.945          50.000    27340818.260   107291145.234          50.000  
E26  23353987.460   122725996.477          50.000    23353992.540    91646023.031          50.000  
> 2020  7 17 23 15 51.0000000  0 14       0.000000000000
G10  21367765.440   112288315.543          50.000    21367765.500    83851663.656          50.000  
G15  22282522.500   117095257.676          50.000                                                  
G16  23397870.940   122956635.621          50.000                                                  
G20  20164342.500   105964335.898          50.000                                                  
G21  21945163.960   115322635.051          50.000                                                  
G26  23944421.440   125828671.059          50.000    23944424.760    93962952.918          50.000  
G27  22770905.160   119661865.574          50.000    22770906.480    89357886.879          50.000  
G29  23727008.900   124686236.824          50.000                                                  
E 1  27975029.280   147009708.574          50.000    27975035.120   109779953.375          50.000  
E 7  24089767.620   126592552.609          50.000    24089772.780    94533387.641          50.000  
E 8  22675956.780   119162959.512          50.000    22675959.480    88985319.922          50.000  
E13  23810006.600   125122409.637          50.000    23810010.320    93435554.363          50.000  
E15  27341214.420   143678987.105          50.000    27341221.720   107292728.473          50.000  
E26  23353709.840   122724537.543          50.000    23353714.920    91644933.574          50.000  
> 2020  7 17 23 15 52.0000000  0 14       0.000000000000
G10  21367470.200   112286764.055          50.000    21367470.260    83850505.074          50.000  
G15  22282906.580   117097276.109          50.000                                                  
G16  23398088.900   122957781.008          50.000                                                  
G20  20164376.400   105964514.004          50.000                                                  
G21  21944883.280   115321160.035          50.000                                                  
G26  23944890.240   125831134.563          50.000    23944893.540    93964792.543          50.000  
G27  22770376.240   119659086.145          50.000    22770377.560    89355811.324          50.000  
G29  23727694.240   124689838.316          50.000                                                  
E 1  27975396.900   147011640.492          50.000    27975402.740   109781396.043          50.000  
E 7  24089449.640   126590881.586          50.000    24089454.800    94532139.805          50.000  
E 8  22676168.200   119164070.559          50.000    22676170.900    88986149.605          50.000  
E13  23810140.920   125123115.496          50.000    23810144.640    93436081.469          50.000  
E15  27341617.900   143681107.391          50.000    27341625.200   107294311.805          50.000  
E26  23353432.220   122723078.730          50.000    23353437.320    91643844.203          50.000  
> 2020  7 17 23 15 53.0000000  0 14       0.000000000000
G10  21367175.040   112285212.938          50.000    21367175.100    83849346.770          50.000  
G15  22283290.800   117099295.129          50.000                                                  
G16  23398306.960   122958926.926          50.000                                                  
G20  20164410.360   105964692.492          50.000                                                  
G21  21944602.600   115319685.105          50.000                                                  
G26  23945359.060   125833598.250          50.000    23945362.380    93966632.301          50.000  
G27  22769847.400   119656307.070          50.000    22769848.720    89353736.043          50.000  
G29  23728379.620   124693440.012          50.000                                                  
E 1  27975764.580   147013572.652          50.000    27975770.420   109782838.895          50.000  
E 7  24089131.720   126589210.938          50.000    24089136.880    94530892.246          50.000  
E 8  22676379.700   119165182.016          50.000    22676382.420    88986979.590          50.000  
E13  23810275.280   125123821.586          50.000    23810279.000    93436608.746          50.000  
E15  27342021.400   143683227.820          50.000    27342028.700   107295895.246          50.000  
E26  23353154.640   122721620.035          50.000    23353159.740    91642754.922          50.000  
> 2020  7 17 23 15 54.0000000  0 14       0.000000000000
G10  21366879.940   112283662.219          50.000    21366880.000    83848188.762          50.000  
G15  22283675.120   117101314.734          50.000                                                  
G16  23398525.120   122960073.391          50.000                                                  
G20  20164444.400   105964871.371          50.000                                                  
G21  21944321.960   115318210.289          50.000                                                  
G26  23945827.920   125836062.094          50.000    23945831.220    93968472.180          50.000  
G27  22769318.640   119653528.375          50.000    22769319.960    89351661.039          50.000  
G29  23729065.040   124697041.898          50.000                                                  
E 1  27976132.300   147015505.031          50.000    27976138.140   109784281.906          50.000  
E 7  24088813.880   126587540.680          50.000    24088819.040    94529644.980          50.000  
E 8  22676591.280   119166293.887          50.000    22676594.000    88987809.891          50.000  
E13  23810409.680   125124527.898          50.000    23810413.400    93437136.191          50.000  
E15  27342424.920   143685348.387          50.000    27342432.240   107297478.789          50.000  
E26  23352877.080   122720161.449          50.000    23352882.180    91641665.723          50.000  
> 2020  7 17 23 15 55.0000000  0 14       0.000000000000
G10  21366584.920   112282111.879          50.000    21366584.980    83847031.035          50.000  
G15  22284059.540   117103334.930          50.000                                                  
G16  23398743.400   122961220.398          50.000                                                  
G20  20164478.520   105965050.633          50.000                                                  
G21  21944041.320   115316735.574          50.000                                                  
G26  23946296.800   125838526.133          50.000    23946300.120    93970312.203          50.000  
G27  22768789.940   119650750.047          50.000    22768791.260    89349586.309          50.000  
G29  23729750.500   124700643.996          50.000                                                  
E 1  27976500.060   147017437.617          50.000    27976505.900   109785725.078          50.000  
E 7  24088496.120   126585870.813          50.000    24088501.280    94528398.004          50.000  
E 8  22676802.940   119167406.164          50.000    22676805.660    88988640.492          50.000  
E13  23810544.140   125125234.438          50.000    23810547.860    93437663.809          50.000  
E15  27342828.480   143687469.051          50.000    27342835.780   107299062.406          50.000  
E26  23352599.540   122718702.961          50.000    23352604.640    91640576.598          50.000  
> 2020  7 17 23 15 56.0000000  0 14       0.000000000000
G10  21366289.980   112280561.918          50.000    21366290.040    83845873.598          50.000  
G15  22284444.080   117105355.719          50.000                                                  
G16  23398961.760   122962367.941          50.000                                                  
G20  20164512.700   105965230.270          50.000                                                  
G21  21943760.720   115315260.941          50.000                                                  
G26  23946765.720   125840990.348          50.000    23946769.040    93972152.363          50.000  
G27  22768261.300   119647972.082          50.000    22768262.640    89347511.855          50.000  
G29  23730436.000   124704246.297          50.000                                                  
E 1  27976867.860   147019370.430          50.000    27976873.700   109787168.410          50.000  
E 7  24088178.420   126584201.332          50.000    24088183.580    94527151.320          50.000  
E 8  22677014.680   119168518.863          50.000    22677017.380    88989471.402          50.000  
E13  23810678.620   125125941.195          50.000    23810682.340    93438191.582          50.000  
E15  27343232.060   143689589.883          50.000    27343239.360   107300646.145          50.000  
E26  23352322.040   122717244.602          50.000    23352327.120    91639487.566          50.000  
