     3.03           OBSERVATION DATA    M: Mixed            RINEX VERSION / TYPE
sbp2rinex v2.2 (RTKL                    20210504 171525 UTC PGM / RUN BY / DATE 
log: 2020-05-29-US-MTV-1.sbp                                COMMENT             
format: Swift Navigation SBP, option: CONVBASE,EPHALL,OBSALLCOMMENT             
                                                            MARKER NAME         
                                                            MARKER NUMBER       
                                                            MARKER TYPE         
                                                            OBSERVER / AGENCY   
                                                            REC # / TYPE / VERS 
                                                            ANT # / TYPE        
 -2725591.3194 -4348373.9647  3774585.5270                  APPROX POSITION XYZ 
        0.0000        0.0000        0.0000                  ANTENNA: DELTA H/E/N
G    6 C1C L1C S1C C5I L5I S5I                              SYS / # / OBS TYPES 
E    6 C1B L1B S1B C5I L5I S5I                              SYS / # / OBS TYPES 
  2020     5    29    22    44    8.0000000     GPS         TIME OF FIRST OBS   
  2020     5    29    23    16   48.0000000     GPS         TIME OF LAST OBS    
G                                                           SYS / PHASE SHIFT   
E                                                           SYS / PHASE SHIFT   
  0                                                         GLONASS SLOT / FRQ #
 C1C    0.000 C1P    0.000 C2C    0.000 C2P    0.000        GLONASS COD/PHS/BIS 
                                                            END OF HEADER       
> 2020  5 29 22 44  8.0000000  0 13       0.000000000000
G 2  23213005.320   121985171.453          50.000                                                  
G 5  21044439.620   110589185.039          50.000                                                  
G12  21199664.440   111404978.598          50.000                                                  
G25  20394966.020   107176204.168          50.000    20394968.720    80034175.980          50.000  
G29  21252651.240   111683422.566          50.000                                                  
G31  24453552.780   128504205.559          50.000                                                  
E 2  23923193.680   125717221.289          50.000    23923197.400    93879733.344          50.000  
E 4  27630739.460   145200490.578          50.000    27630744.300   108428922.676          50.000  
E 9  25635761.220   134716766.039          50.000    25635768.900   100600157.750          50.000  
E11  24410749.360   128279368.703          50.000    24410749.940    95793026.688          50.000  
E25  25192561.360   132387756.871          50.000    25192567.620    98860969.742          50.000  
E30  25635194.460   134713816.223          50.000    25635200.000   100597962.777          50.000  
E36  23422248.640   123084709.867          50.000    23422253.880    91913892.891          50.000  
> 2020  5 29 22 44  9.0000000  0 13       0.000000000000
G 2  23213469.600   121987611.359          50.000                                                  
G 5  21044421.880   110589091.824          50.000                                                  
G12  21200147.280   111407515.992          50.000                                                  
G25  20395124.800   107177038.605          50.000    20395127.520    80034799.098          50.000  
G29  21252359.840   111681891.176          50.000                                                  
G31  24453574.320   128504318.695          50.000                                                  
E 2  23923215.800   125717337.547          50.000    23923219.520    93879820.160          50.000  
E 4  27630543.880   145199462.758          50.000    27630548.700   108428155.148          50.000  
E 9  25635299.480   134714339.555          50.000    25635307.140   100598345.766          50.000  
E11  24411097.600   128281198.754          50.000    24411098.180    95794393.285          50.000  
E25  25193058.380   132390368.766          50.000    25193064.660    98862920.180          50.000  
E30  25634761.680   134711541.980          50.000    25634767.220   100596264.480          50.000  
E36  23422263.480   123084787.777          50.000    23422268.700    91913951.070          50.000  
> 2020  5 29 22 44 10.0000000  0 13       0.000000000000
G 2  23213933.920   121990051.328          50.000                                                  
G 5  21044404.280   110588999.316          50.000                                                  
G12  21200630.220   111410053.855          50.000                                                  
G25  20395283.720   107177873.688          50.000    20395286.420    80035422.699          50.000  
G29  21252068.460   111680359.949          50.000                                                  
G31  24453595.940   128504432.371          50.000                                                  
E 2  23923238.020   125717454.281          50.000    23923241.740    93879907.332          50.000  
E 4  27630348.360   145198435.297          50.000    27630353.180   108427387.891          50.000  
E 9  25634837.740   134711913.121          50.000    25634845.420   100596533.820          50.000  
E11  24411445.860   128283028.828          50.000    24411446.440    95795759.898          50.000  
E25  25193555.460   132392980.914          50.000    25193561.740    98864870.813          50.000  
E30  25634328.960   134709268.031          50.000    25634334.500   100594566.402          50.000  
E36  23422278.340   123084865.863          50.000    23422283.560    91914009.379          50.000  
> 2020  5 29 22 44 11.0000000  0 13       0.000000000000
G 2  23214398.240   121992491.328          50.000                                                  
G 5  21044386.800   110588907.492          50.000                                                  
G12  21201113.260   111412592.203          50.000                                                  
G25  20395442.740   107178709.391          50.000    20395445.460    80036046.762          50.000  
G29  21251777.100   111678828.922          50.000                                                  
G31  24453617.680   128504546.602          50.000                                                  
E 2  23923260.320   125717571.496          50.000    23923264.040    93879994.863          50.000  
E 4  27630152.900   145197408.199          50.000    27630157.740   108426620.902          50.000  
E 9  25634376.020   134709486.742          50.000    25634383.680   100594721.914          50.000  
E11  24411794.100   128284858.914          50.000    24411794.700    95797126.520          50.000  
E25  25194052.580   132395593.305          50.000    25194058.860    98866821.621          50.000  
E30  25633896.300   134706994.363          50.000    25633901.840   100592868.535          50.000  
E36  23422293.220   123084944.102          50.000    23422298.460    91914067.805          50.000  
> 2020  5 29 22 44 12.0000000  0 13       0.000000000000
G 2  23214862.560   121994931.391          50.000                                                  
G 5  21044369.460   110588816.367          50.000                                                  
G12  21201596.380   111415131.031          50.000                                                  
G25  20395601.900   107179545.742          50.000    20395604.600    80036671.309          50.000  
G29  21251485.800   111677298.074          50.000                                                  
G31  24453639.520   128504661.391          50.000                                                  
E 2  23923282.720   125717689.207          50.000    23923286.440    93880082.762          50.000  
E 4  27629957.520   145196381.477          50.000    27629962.360   108425854.195          50.000  
E 9  25633914.300   134707060.406          50.000    25633921.960   100592910.043          50.000  
E11  24412142.360   128286689.027          50.000    24412142.960    95798493.160          50.000  
E25  25194549.760   132398205.984          50.000    25194556.020    98868772.648          50.000  
E30  25633463.680   134704720.977          50.000    25633469.220   100591170.879          50.000  
E36  23422308.140   123085022.516          50.000    23422313.380    91914126.363          50.000  
> 2020  5 29 22 44 13.0000000  0 13       0.000000000000
G 2  23215326.900   121997371.500          50.000                                                  
G 5  21044352.260   110588725.938          50.000                                                  
G12  21202079.600   111417670.328          50.000                                                  
G25  20395761.180   107180382.723          50.000    20395763.880    80037296.328          50.000  
G29  21251194.520   111675767.418          50.000                                                  
G31  24453661.480   128504776.723          50.000                                                  
E 2  23923305.220   125717807.391          50.000    23923308.940    93880171.016          50.000  
E 4  27629762.220   145195355.117          50.000    27629767.040   108425087.758          50.000  
E 9  25633452.600   134704634.129          50.000    25633460.260   100591098.215          50.000  
E11  24412490.640   128288519.180          50.000    24412491.220    95799859.832          50.000  
E25  25195046.980   132400818.930          50.000    25195053.260    98870723.871          50.000  
E30  25633031.140   134702447.879          50.000    25633036.660   100589473.438          50.000  
E36  23422323.100   123085101.098          50.000    23422328.320    91914185.043          50.000  
> 2020  5 29 22 44 14.0000000  0 13       0.000000000000
G 2  23215791.260   121999811.652          50.000                                                  
G 5  21044335.180   110588636.211          50.000                                                  
G12  21202562.900   111420210.102          50.000                                                  
G25  20395920.560   107181220.336          50.000    20395923.260    80037921.820          50.000  
G29  21250903.280   111674236.926          50.000                                                  
G31  24453683.520   128504892.609          50.000                                                  
E 2  23923327.800   125717926.063          50.000    23923331.520    93880259.637          50.000  
E 4  27629566.980   145194329.117          50.000    27629571.800   108424321.590          50.000  
E 9  25632990.900   134702207.895          50.000    25632998.560   100589286.418          50.000  
E11  24412838.900   128290349.359          50.000    24412839.500    95801226.523          50.000  
E25  25195544.260   132403432.125          50.000    25195550.540    98872675.285          50.000  
E30  25632598.620   134700175.059          50.000    25632604.160   100587776.203          50.000  
E36  23422338.080   123085179.836          50.000    23422343.320    91914243.840          50.000  
> 2020  5 29 22 44 15.0000000  0 13       0.000000000000
G 2  23216255.600   122002251.855          50.000                                                  
G 5  21044318.240   110588547.160          50.000                                                  
G12  21203046.280   111422750.352          50.000                                                  
G25  20396080.080   107182058.598          50.000    20396082.780    80038547.793          50.000  
G29  21250612.080   111672706.637          50.000                                                  
G31  24453705.680   128505009.043          50.000                                                  
E 2  23923350.480   125718045.227          50.000    23923354.200    93880348.621          50.000  
E 4  27629371.800   145193303.492          50.000    27629376.620   108423555.699          50.000  
E 9  25632529.200   134699781.703          50.000    25632536.860   100587474.656          50.000  
E11  24413187.180   128292179.559          50.000    24413187.780    95802593.230          50.000  
E25  25196041.580   132406045.586          50.000    25196047.860    98874626.891          50.000  
E30  25632166.180   134697902.520          50.000    25632171.700   100586079.176          50.000  
E36  23422353.100   123085258.742          50.000    23422358.320    91914302.766          50.000  
> 2020  5 29 22 44 16.0000000  0 13       0.000000000000
G 2  23216719.980   122004692.105          50.000                                                  
G 5  21044301.420   110588458.816          50.000                                                  
G12  21203529.780   111425291.066          50.000                                                  
G25  20396239.720   107182897.496          50.000    20396242.420    80039174.242          50.000  
G29  21250320.900   111671176.504          50.000                                                  
G31  24453727.940   128505126.027          50.000                                                  
E 2  23923373.240   125718164.855          50.000    23923376.960    93880437.953          50.000  
E 4  27629176.700   145192278.230          50.000    27629181.520   108422790.086          50.000  
E 9  25632067.520   134697355.570          50.000    25632075.180   100585662.938          50.000  
E11  24413535.460   128294009.789          50.000    24413536.060    95803959.961          50.000  
E25  25196538.960   132408659.313          50.000    25196545.240    98876578.699          50.000  
E30  25631733.780   134695630.270          50.000    25631739.300   100584382.367          50.000  
E36  23422368.140   123085337.820          50.000    23422373.380    91914361.816          50.000  
> 2020  5 29 22 44 17.0000000  0 13       0.000000000000
G 2  23217184.340   122007132.402          50.000                                                  
G 5  21044284.740   110588371.168          50.000                                                  
G12  21204013.340   111427832.266          50.000                                                  
G25  20396399.480   107183737.020          50.000    20396402.180    80039801.160          50.000  
G29  21250029.760   111669646.582          50.000                                                  
G31  24453750.320   128505243.566          50.000                                                  
E 2  23923396.100   125718284.977          50.000    23923399.820    93880527.656          50.000  
E 4  27628981.660   145191253.336          50.000    27628986.500   108422024.742          50.000  
E 9  25631605.860   134694929.496          50.000    25631613.520   100583851.258          50.000  
E11  24413883.740   128295840.039          50.000    24413884.340    95805326.703          50.000  
E25  25197036.380   132411273.316          50.000    25197042.660    98878530.715          50.000  
E30  25631301.440   134693358.301          50.000    25631306.960   100582685.770          50.000  
E36  23422383.220   123085417.066          50.000    23422388.460    91914420.996          50.000  
> 2020  5 29 22 44 18.0000000  0 13       0.000000000000
G 2  23217648.720   122009572.746          50.000                                                  
G 5  21044268.200   110588284.203          50.000                                                  
G12  21204497.000   111430373.934          50.000                                                  
G25  20396559.360   107184577.184          50.000    20396562.060    80040428.555          50.000  
G29  21249738.660   111668116.832          50.000                                                  
G31  24453772.780   128505361.660          50.000                                                  
E 2  23923419.040   125718405.578          50.000    23923422.760    93880617.715          50.000  
E 4  27628786.700   145190228.805          50.000    27628791.540   108421259.672          50.000  
E 9  25631144.200   134692503.461          50.000    25631151.860   100582039.609          50.000  
E11  24414232.040   128297670.309          50.000    24414232.620    95806693.465          50.000  
E25  25197533.860   132413887.566          50.000    25197540.140    98880482.914          50.000  
E30  25630869.140   134691086.617          50.000    25630874.680   100580989.383          50.000  
E36  23422398.340   123085496.473          50.000    23422403.560    91914480.293          50.000  
> 2020  5 29 22 44 19.0000000  0 13       0.000000000000
G 2  23218113.120   122012013.137          50.000                                                  
G 5  21044251.780   110588197.938          50.000                                                  
G12  21204980.760   111432916.094          50.000                                                  
G25  20396719.360   107185417.984          50.000    20396722.060    80041056.426          50.000  
G29  21249447.600   111666587.277          50.000                                                  
G31  24453795.360   128505480.293          50.000                                                  
E 2  23923442.100   125718526.684          50.000    23923445.820    93880708.152          50.000  
E 4  27628591.820   145189204.637          50.000    27628596.640   108420494.871          50.000  
E 9  25630682.540   134690077.465          50.000    25630690.200   100580227.992          50.000  
E11  24414580.340   128299500.605          50.000    24414580.920    95808060.242          50.000  
E25  25198031.400   132416502.086          50.000    25198037.660    98882435.313          50.000  
E30  25630436.920   134688815.227          50.000    25630442.440   100579293.215          50.000  
E36  23422413.480   123085576.043          50.000    23422418.700    91914539.711          50.000  
> 2020  5 29 22 44 20.0000000  0 13       0.000000000000
G 2  23218577.520   122014453.578          50.000                                                  
G 5  21044235.500   110588112.371          50.000                                                  
G12  21205464.620   111435458.719          50.000                                                  
G25  20396879.480   107186259.418          50.000    20396882.180    80041684.766          50.000  
G29  21249156.560   111665057.891          50.000                                                  
G31  24453818.040   128505599.484          50.000                                                  
E 2  23923465.220   125718648.242          50.000    23923468.940    93880798.926          50.000  
E 4  27628397.000   145188180.852          50.000    27628401.820   108419730.359          50.000  
E 9  25630220.900   134687651.527          50.000    25630228.560   100578416.418          50.000  
E11  24414928.640   128301330.934          50.000    24414929.220    95809427.047          50.000  
E25  25198528.960   132419116.863          50.000    25198535.240    98884387.906          50.000  
E30  25630004.740   134686544.121          50.000    25630010.260   100577597.262          50.000  
E36  23422428.640   123085655.785          50.000    23422433.880    91914599.258          50.000  
> 2020  5 29 22 44 21.0000000  0 13       0.000000000000
G 2  23219041.940   122016894.066          50.000                                                  
G 5  21044219.340   110588027.496          50.000                                                  
G12  21205948.560   111438001.828          50.000                                                  
G25  20397039.720   107187101.492          50.000    20397042.420    80042313.590          50.000  
G29  21248865.560   111663528.691          50.000                                                  
G31  24453840.820   128505719.230          50.000                                                  
E 2  23923488.460   125718770.309          50.000    23923492.180    93880890.078          50.000  
E 4  27628202.240   145187157.422          50.000    27628207.060   108418966.109          50.000  
E 9  25629759.260   134685225.648          50.000    25629766.940   100576604.887          50.000  
E11  24415276.940   128303161.297          50.000    24415277.520    95810793.879          50.000  
E25  25199026.600   132421731.910          50.000    25199032.880    98886340.699          50.000  
E30  25629572.620   134684273.301          50.000    25629578.140   100575901.523          50.000  
E36  23422443.860   123085735.688          50.000    23422449.080    91914658.926          50.000  
> 2020  5 29 22 44 22.0000000  0 13       0.000000000000
G 2  23219506.360   122019334.609          50.000                                                  
G 5  21044203.320   110587943.313          50.000                                                  
G12  21206432.580   111440545.406          50.000                                                  
G25  20397200.080   107187944.203          50.000    20397202.780    80042942.883          50.000  
G29  21248574.600   111661999.680          50.000                                                  
G31  24453863.720   128505839.520          50.000                                                  
E 2  23923511.760   125718892.840          50.000    23923515.480    93880981.578          50.000  
E 4  27628007.560   145186134.363          50.000    27628012.380   108418202.137          50.000  
E 9  25629297.640   134682799.828          50.000    25629305.320   100574793.398          50.000  
E11  24415625.240   128304991.676          50.000    24415625.840    95812160.715          50.000  
E25  25199524.280   132424347.211          50.000    25199530.540    98888293.684          50.000  
E30  25629140.540   134682002.758          50.000    25629146.080   100574205.988          50.000  
E36  23422459.100   123085815.766          50.000    23422464.320    91914718.727          50.000  
> 2020  5 29 22 44 23.0000000  0 13       0.000000000000
G 2  23219970.780   122021775.195          50.000                                                  
G 5  21044187.440   110587859.828          50.000                                                  
G12  21206916.700   111443089.453          50.000                                                  
G25  20397360.560   107188787.547          50.000    20397363.260    80043572.656          50.000  
G29  21248283.680   111660470.844          50.000                                                  
G31  24453886.720   128505960.367          50.000                                                  
E 2  23923535.180   125719015.867          50.000    23923538.900    93881073.449          50.000  
E 4  27627812.940   145185111.672          50.000    27627817.780   108417438.441          50.000  
E 9  25628836.040   134680374.027          50.000    25628843.700   100572981.926          50.000  
E11  24415973.560   128306822.074          50.000    24415974.160    95813527.574          50.000  
E25  25200022.000   132426962.773          50.000    25200028.280    98890246.859          50.000  
E30  25628708.520   134679732.504          50.000    25628714.060   100572510.672          50.000  
E36  23422474.360   123085896.004          50.000    23422479.600    91914778.645          50.000  
> 2020  5 29 22 44 24.0000000  0 13       0.000000000000
G 2  23220435.220   122024215.828          50.000                                                  
G 5  21044171.680   110587777.031          50.000                                                  
G12  21207400.900   111445633.984          50.000                                                  
G25  20397521.160   107189631.535          50.000    20397523.860    80044202.906          50.000  
G29  21247992.780   111658942.199          50.000                                                  
G31  24453909.820   128506081.766          50.000                                                  
E 2  23923558.680   125719139.379          50.000    23923562.400    93881165.684          50.000  
E 4  27627618.400   145184089.340          50.000    27627623.220   108416675.012          50.000  
E 9  25628374.440   134677948.301          50.000    25628382.100   100571170.508          50.000  
E11  24416321.880   128308652.500          50.000    24416322.480    95814894.445          50.000  
E25  25200519.780   132429578.617          50.000    25200526.060    98892200.250          50.000  
E30  25628276.560   134677462.547          50.000    25628282.100   100570815.570          50.000  
E36  23422489.660   123085976.410          50.000    23422494.900    91914838.688          50.000  
> 2020  5 29 22 44 25.0000000  0 13       0.000000000000
G 2  23220899.660   122026656.504          50.000                                                  
G 5  21044156.060   110587694.938          50.000                                                  
G12  21207885.200   111448178.973          50.000                                                  
G25  20397681.900   107190476.148          50.000    20397684.600    80044833.625          50.000  
G29  21247701.920   111657413.715          50.000                                                  
G31  24453933.020   128506203.703          50.000                                                  
E 2  23923582.280   125719263.355          50.000    23923586.000    93881258.262          50.000  
E 4  27627423.920   145183067.371          50.000    27627428.760   108415911.855          50.000  
E 9  25627912.840   134675522.613          50.000    25627920.500   100569359.121          50.000  
E11  24416670.200   128310482.965          50.000    24416670.800    95816261.352          50.000  
E25  25201017.600   132432194.711          50.000    25201023.880    98894153.824          50.000  
E30  25627844.660   134675192.855          50.000    25627850.180   100569120.676          50.000  
E36  23422505.000   123086056.969          50.000    23422510.220    91914898.844          50.000  
> 2020  5 29 22 44 26.0000000  0 13       0.000000000000
G 2  23221364.120   122029097.219          50.000                                                  
G 5  21044140.560   110587613.535          50.000                                                  
G12  21208369.580   111450724.434          50.000                                                  
G25  20397842.740   107191321.406          50.000    20397845.440    80045464.820          50.000  
G29  21247411.100   111655885.441          50.000                                                  
G31  24453956.340   128506326.203          50.000                                                  
E 2  23923605.960   125719387.840          50.000    23923609.680    93881351.223          50.000  
E 4  27627229.520   145182045.770          50.000    27627234.340   108415148.969          50.000  
E 9  25627451.240   134673096.961          50.000    25627458.920   100567547.758          50.000  
E11  24417018.540   128312313.426          50.000    24417019.120    95817628.258          50.000  
E25  25201515.480   132434811.043          50.000    25201521.760    98896107.578          50.000  
E30  25627412.800   134672923.457          50.000    25627418.340   100567425.996          50.000  
E36  23422520.360   123086137.695          50.000    23422525.580    91914959.129          50.000  
> 2020  5 29 22 44 27.0000000  0 13       0.000000000000
G 2  23221828.580   122031538.000          50.000                                                  
G 5  21044125.220   110587532.859          50.000                                                  
G12  21208854.060   111453270.375          50.000                                                  
G25  20398003.700   107192167.301          50.000    20398006.420    80046096.496          50.000  
G29  21247120.320   111654357.340          50.000                                                  
G31  24453979.740   128506449.246          50.000                                                  
E 2  23923629.740   125719512.785          50.000    23923633.460    93881444.523          50.000  
E 4  27627035.180   145181024.547          50.000    27627040.020   108414386.371          50.000  
E 9  25626989.680   134670671.402          50.000    25626997.340   100565736.469          50.000  
E11  24417366.880   128314143.953          50.000    24417367.460    95818995.207          50.000  
E25  25202013.400   132437427.668          50.000    25202019.680    98898061.551          50.000  
E30  25626981.000   134670654.344          50.000    25626986.540   100565731.531          50.000  
E36  23422535.740   123086218.598          50.000    23422540.980    91915019.539          50.000  
> 2020  5 29 22 44 28.0000000  0 13       0.000000000000
G 2  23222293.060   122033978.816          50.000                                                  
G 5  21044110.000   110587452.859          50.000                                                  
G12  21209338.620   111455816.777          50.000                                                  
G25  20398164.800   107193013.844          50.000    20398167.500    80046728.652          50.000  
G29  21246829.560   111652829.418          50.000                                                  
G31  24454003.260   128506572.840          50.000                                                  
E 2  23923653.620   125719638.238          50.000    23923657.340    93881538.207          50.000  
E 4  27626840.920   145180003.691          50.000    27626845.760   108413624.043          50.000  
E 9  25626528.120   134668245.848          50.000    25626535.780   100563925.176          50.000  
E11  24417715.220   128315974.488          50.000    24417715.800    95820362.164          50.000  
E25  25202511.380   132440044.547          50.000    25202517.660    98900015.715          50.000  
E30  25626549.260   134668385.523          50.000    25626554.800   100564037.281          50.000  
E36  23422551.180   123086299.660          50.000    23422556.400    91915080.074          50.000  
> 2020  5 29 22 44 29.0000000  0 13       0.000000000000
G 2  23222757.540   122036419.688          50.000                                                  
G 5  21044094.900   110587373.551          50.000                                                  
G12  21209823.280   111458363.672          50.000                                                  
G25  20398326.000   107193861.004          50.000    20398328.720    80047361.273          50.000  
G29  21246538.840   111651301.699          50.000                                                  
G31  24454026.900   128506696.992          50.000                                                  
E 2  23923677.580   125719764.152          50.000    23923681.300    93881632.234          50.000  
E 4  27626646.740   145178983.203          50.000    27626651.560   108412861.992          50.000  
E 9  25626066.560   134665820.387          50.000    25626074.220   100562113.961          50.000  
E11  24418063.560   128317805.055          50.000    24418064.140    95821729.145          50.000  
E25  25203009.400   132442661.691          50.000    25203015.680    98901970.074          50.000  
E30  25626117.580   134666116.980          50.000    25626123.100   100562343.242          50.000  
E36  23422566.640   123086380.902          50.000    23422571.860    91915140.742          50.000  
> 2020  5 29 22 44 30.0000000  0 13       0.000000000000
G 2  23223222.020   122038860.594          50.000                                                  
G 5  21044079.940   110587294.934          50.000                                                  
G12  21210308.040   111460911.039          50.000                                                  
G25  20398487.340   107194708.816          50.000    20398490.040    80047994.383          50.000  
G29  21246248.160   111649774.152          50.000                                                  
G31  24454050.620   128506821.691          50.000                                                  
E 2  23923701.640   125719890.578          50.000    23923705.360    93881726.645          50.000  
E 4  27626452.600   145177963.066          50.000    27626457.440   108412100.203          50.000  
E 9  25625605.020   134663394.949          50.000    25625612.680   100560302.758          50.000  
E11  24418411.900   128319635.625          50.000    24418412.500    95823096.129          50.000  
E25  25203507.480   132445279.102          50.000    25203513.760    98903924.633          50.000  
E30  25625685.940   134663848.727          50.000    25625691.460   100560649.418          50.000  
E36  23422582.120   123086462.289          50.000    23422587.360    91915201.520          50.000  
> 2020  5 29 22 44 31.0000000  0 13       0.000000000000
G 2  23223686.520   122041301.555          50.000                                                  
G 5  21044065.120   110587217.012          50.000                                                  
G12  21210792.880   111463458.867          50.000                                                  
G25  20398648.800   107195557.250          50.000    20398651.500    80048627.949          50.000  
G29  21245957.520   111648246.773          50.000                                                  
G31  24454074.460   128506946.938          50.000                                                  
E 2  23923725.780   125720017.449          50.000    23923729.500    93881821.387          50.000  
E 4  27626258.560   145176943.309          50.000    27626263.380   108411338.695          50.000  
E 9  25625143.480   134660969.559          50.000    25625151.140   100558491.594          50.000  
E11  24418760.260   128321466.234          50.000    24418760.840    95824463.141          50.000  
E25  25204005.600   132447896.758          50.000    25204011.880    98905879.375          50.000  
E30  25625254.360   134661580.758          50.000    25625259.880   100558955.805          50.000  
E36  23422597.640   123086543.852          50.000    23422602.880    91915262.426          50.000  
> 2020  5 29 22 44 32.0000000  0 13       0.000000000000
G 2  23224151.040   122043742.555          50.000                                                  
G 5  21044050.420   110587139.785          50.000                                                  
G12  21211277.800   111466007.176          50.000                                                  
G25  20398810.360   107196406.313          50.000    20398813.060    80049261.992          50.000  
G29  21245666.900   111646719.598          50.000                                                  
G31  24454098.400   128507072.734          50.000                                                  
E 2  23923750.020   125720144.828          50.000    23923753.740    93881916.504          50.000  
E 4  27626064.560   145175923.922          50.000    27626069.400   108410577.465          50.000  
E 9  25624681.960   134658544.234          50.000    25624689.600   100556680.477          50.000  
E11  24419108.620   128323296.871          50.000    24419109.200    95825830.176          50.000  
E25  25204503.780   132450514.684          50.000    25204510.060    98907834.316          50.000  
E30  25624822.840   134659313.078          50.000    25624828.360   100557262.410          50.000  
E36  23422613.200   123086625.578          50.000    23422618.420    91915323.457          50.000  
> 2020  5 29 22 44 33.0000000  0 13       0.000000000000
G 2  23224615.560   122046183.609          50.000                                                  
G 5  21044035.860   110587063.266          50.000                                                  
G12  21211762.820   111468555.969          50.000                                                  
G25  20398972.060   107197256.027          50.000    20398974.760    80049896.516          50.000  
G29  21245376.320   111645192.602          50.000                                                  
G31  24454122.440   128507199.082          50.000                                                  
E 2  23923774.340   125720272.699          50.000    23923778.060    93882011.992          50.000  
E 4  27625870.660   145174904.906          50.000    27625875.480   108409816.512          50.000  
E 9  25624220.440   134656118.957          50.000    25624228.100   100554869.395          50.000  
E11  24419456.980   128325127.539          50.000    24419457.580    95827197.230          50.000  
E25  25205002.020   132453132.879          50.000    25205008.300    98909789.465          50.000  
E30  25624391.360   134657045.680          50.000    25624396.880   100555569.223          50.000  
E36  23422628.780   123086707.469          50.000    23422634.000    91915384.605          50.000  
> 2020  5 29 22 44 34.0000000  0 13       0.000000000000
G 2  23225080.080   122048624.707          50.000                                                  
G 5  21044021.420   110586987.434          50.000                                                  
G12  21212247.920   111471105.227          50.000                                                  
G25  20399133.880   107198106.371          50.000    20399136.580    80050531.516          50.000  
G29  21245085.780   111643665.789          50.000                                                  
G31  24454146.580   128507325.984          50.000                                                  
E 2  23923798.760   125720401.027          50.000    23923802.480    93882107.824          50.000  
E 4  27625676.800   145173886.238          50.000    27625681.640   108409055.820          50.000  
E 9  25623758.920   134653693.730          50.000    25623766.580   100553058.348          50.000  
E11  24419805.340   128326958.230          50.000    24419805.940    95828564.305          50.000  
E25  25205500.280   132455751.328          50.000    25205506.560    98911744.797          50.000  
E30  25623959.940   134654778.566          50.000    25623965.460   100553876.250          50.000  
E36  23422644.400   123086789.523          50.000    23422649.620    91915445.883          50.000  
> 2020  5 29 22 44 35.0000000  0 13       0.000000000000
G 2  23225544.620   122051065.855          50.000                                                  
G 5  21044007.120   110586912.297          50.000                                                  
G12  21212733.120   111473654.957          50.000                                                  
G25  20399295.820   107198957.355          50.000    20399298.520    80051166.988          50.000  
G29  21244795.280   111642139.160          50.000                                                  
G31  24454170.840   128507453.441          50.000                                                  
E 2  23923823.280   125720529.855          50.000    23923827.000    93882204.023          50.000  
E 4  27625483.040   145172867.945          50.000    27625487.860   108408295.406          50.000  
E 9  25623297.420   134651268.547          50.000    25623305.080   100551247.340          50.000  
E11  24420153.720   128328788.930          50.000    24420154.320    95829931.387          50.000  
E25  25205998.620   132458370.039          50.000    25206004.900    98913700.328          50.000  
E30  25623528.580   134652511.742          50.000    25623534.100   100552183.492          50.000  
E36  23422660.040   123086871.746          50.000    23422665.260    91915507.281          50.000  
> 2020  5 29 22 44 36.0000000  0 13       0.000000000000
G 2  23226009.160   122053507.047          50.000                                                  
G 5  21043992.960   110586837.863          50.000                                                  
G12  21213218.420   111476205.164          50.000                                                  
G25  20399457.880   107199808.969          50.000    20399460.580    80051802.934          50.000  
G29  21244504.800   111640612.727          50.000                                                  
G31  24454195.200   128507581.465          50.000                                                  
E 2  23923847.880   125720659.164          50.000    23923851.600    93882300.586          50.000  
E 4  27625289.320   145171850.020          50.000    27625294.160   108407535.270          50.000  
E 9  25622835.940   134648843.422          50.000    25622843.600   100549436.371          50.000  
E11  24420502.100   128330619.664          50.000    24420502.680    95831298.492          50.000  
E25  25206496.980   132460989.020          50.000    25206503.260    98915656.059          50.000  
E30  25623097.280   134650245.199          50.000    25623102.800   100550490.949          50.000  
E36  23422675.720   123086954.133          50.000    23422680.940    91915568.805          50.000  
> 2020  5 29 22 44 37.0000000  0 13       0.000000000000
G 2  23226473.700   122055948.273          50.000                                                  
G 5  21043978.920   110586764.109          50.000                                                  
G12  21213703.800   111478755.852          50.000                                                  
G25  20399620.040   107200661.223          50.000    20399622.760    80052439.355          50.000  
G29  21244214.360   111639086.477          50.000                                                  
G31  24454219.660   128507710.039          50.000                                                  
E 2  23923872.580   125720788.953          50.000    23923876.300    93882397.508          50.000  
E 4  27625095.700   145170832.465          50.000    27625100.520   108406775.406          50.000  
E 9  25622374.460   134646418.352          50.000    25622382.120   100547625.445          50.000  
E11  24420850.480   128332450.418          50.000    24420851.080    95832665.613          50.000  
E25  25206995.400   132463608.242          50.000    25207001.680    98917611.969          50.000  
E30  25622666.020   134647978.934          50.000    25622671.540   100548798.605          50.000  
E36  23422691.420   123087036.684          50.000    23422696.660    91915630.449          50.000  
> 2020  5 29 22 44 38.0000000  0 13       0.000000000000
G 2  23226938.280   122058389.555          50.000                                                  
G 5  21043965.020   110586691.070          50.000                                                  
G12  21214189.260   111481307.012          50.000                                                  
G25  20399782.340   107201514.113          50.000    20399785.060    80053076.254          50.000  
G29  21243923.960   111637560.406          50.000                                                  
G31  24454244.240   128507839.160          50.000                                                  
E 2  23923897.380   125720919.227          50.000    23923901.100    93882494.789          50.000  
E 4  27624902.120   145169815.273          50.000    27624906.960   108406015.816          50.000  
E 9  25621913.000   134643993.320          50.000    25621920.660   100545814.547          50.000  
E11  24421198.880   128334281.223          50.000    24421199.460    95834032.770          50.000  
E25  25207493.880   132466227.730          50.000    25207500.160    98919568.078          50.000  
E30  25622234.820   134645712.965          50.000    25622240.340   100547106.488          50.000  
E36  23422707.160   123087119.395          50.000    23422712.400    91915692.215          50.000  
> 2020  5 29 22 44 39.0000000  0 13       0.000000000000
G 2  23227402.840   122060830.879          50.000                                                  
G 5  21043951.260   110586618.719          50.000                                                  
G12  21214674.820   111483858.645          50.000                                                  
G25  20399944.760   107202367.617          50.000    20399947.460    80053713.613          50.000  
G29  21243633.600   111636034.508          50.000                                                  
G31  24454268.920   128507968.832          50.000                                                  
E 2  23923922.260   125721049.977          50.000    23923925.980    93882592.426          50.000  
E 4  27624708.640   145168798.449          50.000    27624713.460   108405256.500          50.000  
E 9  25621451.540   134641568.340          50.000    25621459.200   100544003.684          50.000  
E11  24421547.260   128336112.027          50.000    24421547.860    95835399.930          50.000  
E25  25207992.400   132468847.484          50.000    25207998.680    98921524.387          50.000  
E30  25621803.660   134643447.277          50.000    25621809.180   100545414.582          50.000  
E36  23422722.940   123087202.266          50.000    23422728.160    91915754.098          50.000  
> 2020  5 29 22 44 40.0000000  0 13       0.000000000000
G 2  23227867.420   122063272.262          50.000                                                  
G 5  21043937.620   110586547.066          50.000                                                  
G12  21215160.480   111486410.738          50.000                                                  
G25  20400107.300   107203221.777          50.000    20400110.020    80054351.457          50.000  
G29  21243343.260   111634508.789          50.000                                                  
G31  24454293.700   128508099.039          50.000                                                  
E 2  23923947.240   125721181.219          50.000    23923950.960    93882690.434          50.000  
E 4  27624515.200   145167781.996          50.000    27624520.040   108404497.461          50.000  
E 9  25620990.080   134639143.414          50.000    25620997.740   100542192.867          50.000  
E11  24421895.660   128337942.867          50.000    24421896.260    95836767.113          50.000  
E25  25208490.980   132471467.516          50.000    25208497.260    98923480.902          50.000  
E30  25621372.580   134641181.875          50.000    25621378.100   100543722.883          50.000  
E36  23422738.740   123087285.320          50.000    23422743.960    91915816.121          50.000  
> 2020  5 29 22 44 41.0000000  0 13       0.000000000000
G 2  23228332.000   122065713.664          50.000                                                  
G 5  21043924.120   110586476.105          50.000                                                  
G12  21215646.220   111488963.313          50.000                                                  
G25  20400269.980   107204076.574          50.000    20400272.680    80054989.781          50.000  
G29  21243052.960   111632983.277          50.000                                                  
G31  24454318.580   128508229.809          50.000                                                  
E 2  23923972.300   125721312.945          50.000    23923976.020    93882788.801          50.000  
E 4  27624321.860   145166765.910          50.000    27624326.680   108403738.699          50.000  
E 9  25620528.640   134636718.539          50.000    25620536.300   100540382.086          50.000  
E11  24422244.060   128339773.719          50.000    24422244.660    95838134.309          50.000  
E25  25208989.600   132474087.789          50.000    25208995.880    98925437.602          50.000  
E30  25620941.540   134638916.758          50.000    25620947.060   100542031.402          50.000  
E36  23422754.580   123087368.523          50.000    23422759.800    91915878.254          50.000  
> 2020  5 29 22 44 42.0000000  0 13       0.000000000000
G 2  23228796.600   122068155.117          50.000                                                  
G 5  21043910.740   110586405.832          50.000                                                  
G12  21216132.040   111491516.363          50.000                                                  
G25  20400432.760   107204932.008          50.000    20400435.460    80055628.578          50.000  
G29  21242762.700   111631457.934          50.000                                                  
G31  24454343.560   128508361.121          50.000                                                  
E 2  23923997.460   125721445.152          50.000    23924001.180    93882887.527          50.000  
E 4  27624128.560   145165750.180          50.000    27624133.380   108402980.199          50.000  
E 9  25620067.220   134634293.727          50.000    25620074.880   100538571.352          50.000  
E11  24422592.460   128341604.602          50.000    24422593.060    95839501.527          50.000  
E25  25209488.280   132476708.340          50.000    25209494.560    98927394.504          50.000  
E30  25620510.560   134636651.938          50.000    25620516.080   100540340.145          50.000  
E36  23422770.440   123087451.898          50.000    23422775.660    91915940.512          50.000  
> 2020  5 29 22 44 43.0000000  0 13       0.000000000000
G 2  23229261.200   122070596.629          50.000                                                  
G 5  21043897.500   110586336.258          50.000                                                  
G12  21216617.960   111494069.895          50.000                                                  
G25  20400595.660   107205788.070          50.000    20400598.360    80056267.848          50.000  
G29  21242472.480   111629932.785          50.000                                                  
G31  24454368.660   128508492.988          50.000                                                  
E 2  23924022.700   125721577.844          50.000    23924026.420    93882986.613          50.000  
E 4  27623935.360   145164734.832          50.000    27623940.180   108402221.984          50.000  
E 9  25619605.800   134631868.961          50.000    25619613.460   100536760.652          50.000  
E11  24422940.880   128343435.512          50.000    24422941.460    95840868.766          50.000  
E25  25209987.000   132479329.133          50.000    25209993.280    98929351.590          50.000  
E30  25620079.620   134634387.395          50.000    25620085.140   100538649.090          50.000  
E36  23422786.340   123087535.438          50.000    23422791.560    91916002.898          50.000  
> 2020  5 29 22 44 44.0000000  0 13       0.000000000000
G 2  23229725.820   122073038.180          50.000                                                  
G 5  21043884.400   110586267.383          50.000                                                  
G12  21217103.980   111496623.883          50.000                                                  
G25  20400758.680   107206644.777          50.000    20400761.380    80056907.594          50.000  
G29  21242182.280   111628407.816          50.000                                                  
G31  24454393.860   128508625.402          50.000                                                  
E 2  23924048.060   125721711.027          50.000    23924051.780    93883086.066          50.000  
E 4  27623742.200   145163719.848          50.000    27623747.020   108401464.043          50.000  
E 9  25619144.400   134629444.246          50.000    25619152.040   100534949.988          50.000  
E11  24423289.300   128345266.445          50.000    24423289.880    95842236.020          50.000  
E25  25210485.780   132481950.195          50.000    25210492.060    98931308.875          50.000  
E30  25619648.740   134632123.137          50.000    25619654.280   100536958.250          50.000  
E36  23422802.260   123087619.145          50.000    23422807.500    91916065.406          50.000  
> 2020  5 29 22 44 45.0000000  0 13       0.000000000000
G 2  23230190.440   122075479.777          50.000                                                  
G 5  21043871.420   110586199.203          50.000                                                  
G12  21217590.080   111499178.355          50.000                                                  
G25  20400921.840   107207502.117          50.000    20400924.540    80057547.813          50.000  
G29  21241892.120   111626883.023          50.000                                                  
G31  24454419.160   128508758.367          50.000                                                  
E 2  23924073.480   125721844.684          50.000    23924077.200    93883185.879          50.000  
E 4  27623549.120   145162705.230          50.000    27623553.960   108400706.375          50.000  
E 9  25618683.000   134627019.578          50.000    25618690.640   100533139.363          50.000  
E11  24423637.720   128347097.410          50.000    24423638.300    95843603.297          50.000  
E25  25210984.600   132484571.520          50.000    25210990.880    98933266.355          50.000  
E30  25619217.940   134629859.172          50.000    25619223.460   100535267.629          50.000  
E36  23422818.220   123087703.016          50.000    23422823.460    91916128.035          50.000  
> 2020  5 29 22 44 46.0000000  0 13       0.000000000000
G 2  23230655.060   122077921.430          50.000                                                  
G 5  21043858.580   110586131.703          50.000                                                  
G12  21218076.260   111501733.293          50.000                                                  
G25  20401085.100   107208360.090          50.000    20401087.800    80058188.508          50.000  
G29  21241602.000   111625358.410          50.000                                                  
G31  24454444.560   128508891.875          50.000                                                  
E 2  23924099.020   125721978.820          50.000    23924102.740    93883286.043          50.000  
E 4  27623356.120   145161690.977          50.000    27623360.940   108399948.980          50.000  
E 9  25618221.600   134624594.965          50.000    25618229.260   100531328.777          50.000  
E11  24423986.140   128348928.395          50.000    24423986.740    95844970.590          50.000  
E25  25211483.460   132487193.113          50.000    25211489.760    98935224.039          50.000  
E30  25618787.160   134627595.492          50.000    25618792.680   100533577.215          50.000  
E36  23422834.220   123087787.051          50.000    23422839.440    91916190.789          50.000  
> 2020  5 29 22 44 47.0000000  0 13       0.000000000000
G 2  23231119.700   122080363.137          50.000                                                  
G 5  21043845.860   110586064.895          50.000                                                  
G12  21218562.540   111504288.723          50.000                                                  
G25  20401248.480   107209218.707          50.000    20401251.200    80058829.684          50.000  
G29  21241311.900   111623833.992          50.000                                                  
G31  24454470.080   128509025.938          50.000                                                  
E 2  23924124.640   125722113.449          50.000    23924128.360    93883386.578          50.000  
E 4  27623163.180   145160677.098          50.000    27623168.020   108399191.863          50.000  
E 9  25617760.220   134622170.402          50.000    25617767.880   100529518.230          50.000  
E11  24424334.560   128350759.406          50.000    24424335.160    95846337.902          50.000  
E25  25211982.380   132489814.949          50.000    25211988.680    98937181.902          50.000  
E30  25618356.460   134625332.094          50.000    25618361.980   100531887.020          50.000  
E36  23422850.240   123087871.246          50.000    23422855.460    91916253.664          50.000  
> 2020  5 29 22 44 48.0000000  0 13       0.000000000000
G 2  23231584.360   122082804.891          50.000                                                  
G 5  21043833.280   110585998.793          50.000                                                  
G12  21219048.920   111506844.605          50.000                                                  
G25  20401412.000   107210077.957          50.000    20401414.700    80059471.332          50.000  
G29  21241021.860   111622309.758          50.000                                                  
G31  24454495.700   128509160.555          50.000                                                  
E 2  23924150.340   125722248.559          50.000    23924154.060    93883487.469          50.000  
E 4  27622970.320   145159663.566          50.000    27622975.140   108398435.004          50.000  
E 9  25617298.860   134619745.898          50.000    25617306.500   100527707.723          50.000  
E11  24424683.000   128352590.441          50.000    24424683.600    95847705.234          50.000  
E25  25212481.360   132492437.059          50.000    25212487.640    98939139.969          50.000  
E30  25617925.800   134623068.992          50.000    25617931.320   100530197.039          50.000  
E36  23422866.300   123087955.613          50.000    23422871.520    91916316.664          50.000  
> 2020  5 29 22 44 49.0000000  0 13       0.000000000000
G 2  23232049.020   122085246.688          50.000                                                  
G 5  21043820.840   110585933.387          50.000                                                  
G12  21219535.380   111509400.980          50.000                                                  
G25  20401575.620   107210937.840          50.000    20401578.340    80060113.449          50.000  
G29  21240731.840   111620785.711          50.000                                                  
G31  24454521.420   128509295.727          50.000                                                  
E 2  23924176.140   125722384.152          50.000    23924179.860    93883588.727          50.000  
E 4  27622777.520   145158650.422          50.000    27622782.340   108397678.434          50.000  
E 9  25616837.480   134617321.434          50.000    25616845.140   100525897.250          50.000  
E11  24425031.440   128354421.500          50.000    24425032.040    95849072.582          50.000  
E25  25212980.380   132495059.438          50.000    25212986.660    98941098.238          50.000  
E30  25617495.200   134620806.168          50.000    25617500.720   100528507.273          50.000  
E36  23422882.380   123088040.145          50.000    23422887.600    91916379.789          50.000  
> 2020  5 29 22 44 50.0000000  0 13       0.000000000000
G 2  23232513.680   122087688.527          50.000                                                  
G 5  21043808.520   110585868.680          50.000                                                  
G12  21220021.920   111511957.816          50.000                                                  
G25  20401739.380   107211798.359          50.000    20401742.080    80060756.047          50.000  
G29  21240441.860   111619261.855          50.000                                                  
G31  24454547.240   128509431.441          50.000                                                  
E 2  23924202.040   125722520.227          50.000    23924205.760    93883690.340          50.000  
E 4  27622584.800   145157637.664          50.000    27622589.620   108396922.156          50.000  
E 9  25616376.140   134614897.020          50.000    25616383.780   100524086.816          50.000  
E11  24425379.880   128356252.590          50.000    24425380.480    95850439.957          50.000  
E25  25213479.460   132497682.066          50.000    25213485.740    98943056.691          50.000  
E30  25617064.660   134618543.641          50.000    25617070.180   100526817.723          50.000  
E36  23422898.500   123088124.840          50.000    23422903.720    91916443.035          50.000  
> 2020  5 29 22 44 51.0000000  0 13       0.000000000000
G 2  23232978.360   122090130.418          50.000                                                  
G 5  21043796.340   110585804.660          50.000                                                  
G12  21220508.560   111514515.133          50.000                                                  
G25  20401903.260   107212659.516          50.000    20401905.960    80061399.117          50.000  
G29  21240151.920   111617738.176          50.000                                                  
G31  24454573.180   128509567.715          50.000                                                  
E 2  23924228.020   125722656.793          50.000    23924231.740    93883792.320          50.000  
E 4  27622392.140   145156625.230          50.000    27622396.960   108396166.121          50.000  
E 9  25615914.800   134612472.680          50.000    25615922.440   100522276.430          50.000  
E11  24425728.340   128358083.703          50.000    24425728.940    95851807.344          50.000  
E25  25213978.580   132500304.965          50.000    25213984.860    98945015.352          50.000  
E30  25616634.160   134616281.391          50.000    25616639.680   100525128.383          50.000  
E36  23422914.640   123088209.699          50.000    23422919.880    91916506.402          50.000  
> 2020  5 29 22 44 52.0000000  0 13       0.000000000000
G 2  23233443.040   122092572.348          50.000                                                  
G 5  21043784.300   110585741.340          50.000                                                  
G12  21220995.300   111517072.914          50.000                                                  
G25  20402067.240   107213521.301          50.000    20402069.940    80062042.656          50.000  
G29  21239862.000   111616214.676          50.000                                                  
G31  24454599.200   128509704.535          50.000                                                  
E 2  23924254.100   125722793.832          50.000    23924257.820    93883894.656          50.000  
E 4  27622199.560   145155613.211          50.000    27622204.380   108395410.391          50.000  
E 9  25615453.460   134610048.367          50.000    25615461.120   100520466.070          50.000  
E11  24426076.800   128359914.852          50.000    24426077.380    95853174.758          50.000  
E25  25214477.740   132502928.109          50.000    25214484.020    98946974.191          50.000  
E30  25616203.720   134614019.434          50.000    25616209.240   100523439.258          50.000  
E36  23422930.820   123088294.730          50.000    23422936.060    91916569.902          50.000  
> 2020  5 29 22 44 53.0000000  0 13       0.000000000000
G 2  23233907.740   122095014.328          50.000                                                  
G 5  21043772.380   110585678.719          50.000                                                  
G12  21221482.120   111519631.184          50.000                                                  
G25  20402231.360   107214383.730          50.000    20402234.060    80062686.680          50.000  
G29  21239572.120   111614691.371          50.000                                                  
G31  24454625.340   128509841.898          50.000                                                  
E 2  23924280.280   125722931.367          50.000    23924284.000    93883997.363          50.000  
E 4  27622007.040   145154601.527          50.000    27622011.860   108394654.914          50.000  
E 9  25614992.140   134607624.121          50.000    25614999.800   100518655.758          50.000  
E11  24426425.260   128361746.016          50.000    24426425.840    95854542.188          50.000  
E25  25214976.960   132505551.523          50.000    25214983.240    98948933.234          50.000  
E30  25615773.340   134611757.750          50.000    25615778.860   100521750.344          50.000  
E36  23422947.040   123088379.918          50.000    23422952.260    91916633.516          50.000  
> 2020  5 29 22 44 54.0000000  0 13       0.000000000000
G 2  23234372.440   122097456.359          50.000                                                  
G 5  21043760.600   110585616.785          50.000                                                  
G12  21221969.040   111522189.918          50.000                                                  
G25  20402395.600   107215246.785          50.000    20402398.300    80063331.168          50.000  
G29  21239282.280   111613168.246          50.000                                                  
G31  24454651.600   128509979.813          50.000                                                  
E 2  23924306.540   125723069.375          50.000    23924310.260    93884100.418          50.000  
E 4  27621814.600   145153590.223          50.000    27621819.420   108393899.723          50.000  
E 9  25614530.840   134605199.926          50.000    25614538.480   100516845.484          50.000  
E11  24426773.720   128363577.188          50.000    24426774.300    95855909.617          50.000  
E25  25215476.220   132508175.191          50.000    25215482.520    98950892.465          50.000  
E30  25615343.000   134609496.363          50.000    25615348.520   100520061.645          50.000  
E36  23422963.280   123088465.266          50.000    23422968.500    91916697.250          50.000  
> 2020  5 29 22 44 55.0000000  0 13       0.000000000000
G 2  23234837.160   122099898.422          50.000                                                  
G 5  21043748.940   110585555.539          50.000                                                  
G12  21222456.040   111524749.121          50.000                                                  
G25  20402559.940   107216110.480          50.000    20402562.660    80063976.137          50.000  
G29  21238992.480   111611645.309          50.000                                                  
G31  24454677.940   128510118.285          50.000                                                  
E 2  23924332.900   125723207.863          50.000    23924336.620    93884203.836          50.000  
E 4  27621622.220   145152579.281          50.000    27621627.040   108393144.797          50.000  
E 9  25614069.540   134602775.766          50.000    25614077.180   100515035.238          50.000  
E11  24427122.180   128365408.395          50.000    24427122.780    95857277.078          50.000  
E25  25215975.540   132510799.125          50.000    25215981.840    98952851.895          50.000  
E30  25614912.740   134607235.266          50.000    25614918.260   100518373.164          50.000  
E36  23422979.540   123088550.789          50.000    23422984.780    91916761.117          50.000  
> 2020  5 29 22 44 56.0000000  0 13       0.000000000000
G 2  23235301.880   122102340.543          50.000                                                  
G 5  21043737.420   110585495.000          50.000                                                  
G12  21222943.120   111527308.797          50.000                                                  
G25  20402724.420   107216974.820          50.000    20402727.140    80064621.586          50.000  
G29  21238702.700   111610122.551          50.000                                                  
G31  24454704.400   128510257.305          50.000                                                  
E 2  23924359.340   125723346.859          50.000    23924363.060    93884307.629          50.000  
E 4  27621429.920   145151568.715          50.000    27621434.740   108392390.152          50.000  
E 9  25613608.240   134600351.684          50.000    25613615.900   100513225.051          50.000  
E11  24427470.660   128367239.629          50.000    24427471.240    95858644.559          50.000  
E25  25216474.920   132513423.316          50.000    25216481.200    98954811.520          50.000  
E30  25614482.520   134604974.457          50.000    25614488.040   100516684.902          50.000  
E36  23422995.860   123088636.473          50.000    23423001.080    91916825.098          50.000  
> 2020  5 29 22 44 57.0000000  0 13       0.000000000000
G 2  23235766.600   122104782.703          50.000                                                  
G 5  21043726.020   110585435.148          50.000                                                  
G12  21223430.300   111529868.945          50.000                                                  
G25  20402889.020   107217839.773          50.000    20402891.720    80065267.488          50.000  
G29  21238412.960   111608599.973          50.000                                                  
G31  24454730.960   128510396.875          50.000                                                  
E 2  23924385.880   125723486.305          50.000    23924389.600    93884411.762          50.000  
E 4  27621237.680   145150558.516          50.000    27621242.500   108391635.785          50.000  
E 9  25613146.960   134597927.656          50.000    25613154.620   100511414.902          50.000  
E11  24427819.140   128369070.902          50.000    24427819.720    95860012.070          50.000  
E25  25216974.340   132516047.770          50.000    25216980.620    98956771.336          50.000  
E30  25614052.360   134602713.934          50.000    25614057.860   100514996.848          50.000  
E36  23423012.180   123088722.313          50.000    23423017.420    91916889.203          50.000  
> 2020  5 29 22 44 58.0000000  0 13       0.000000000000
G 2  23236231.340   122107224.910          50.000                                                  
G 5  21043714.780   110585376.000          50.000                                                  
G12  21223917.580   111532429.570          50.000                                                  
G25  20403053.740   107218705.398          50.000    20403056.440    80065913.898          50.000  
G29  21238123.260   111607077.578          50.000                                                  
G31  24454757.620   128510536.988          50.000                                                  
E 2  23924412.520   125723626.262          50.000    23924416.240    93884516.277          50.000  
E 4  27621045.520   145149548.680          50.000    27621050.340   108390881.688          50.000  
E 9  25612685.700   134595503.672          50.000    25612693.340   100509604.785          50.000  
E11  24428167.620   128370902.207          50.000    24428168.220    95861379.598          50.000  
E25  25217473.800   132518672.480          50.000    25217480.080    98958731.348          50.000  
E30  25613622.240   134600453.691          50.000    25613627.760   100513309.008          50.000  
E36  23423028.560   123088808.324          50.000    23423033.780    91916953.430          50.000  
> 2020  5 29 22 44 59.0000000  0 13       0.000000000000
G 2  23236696.080   122109667.172          50.000                                                  
G 5  21043703.640   110585317.547          50.000                                                  
G12  21224404.940   111534990.668          50.000                                                  
G25  20403218.580   107219571.633          50.000    20403221.280    80066560.762          50.000  
G29  21237833.600   111605555.383          50.000                                                  
G31  24454784.380   128510677.656          50.000                                                  
E 2  23924439.240   125723766.688          50.000    23924442.960    93884621.137          50.000  
E 4  27620853.420   145148539.219          50.000    27620858.240   108390127.871          50.000  
E 9  25612224.440   134593079.742          50.000    25612232.080   100507794.707          50.000  
E11  24428516.100   128372733.516          50.000    24428516.700    95862747.137          50.000  
E25  25217973.320   132521297.461          50.000    25217979.600    98960691.555          50.000  
E30  25613192.180   134598193.738          50.000    25613197.700   100511621.379          50.000  
E36  23423044.960   123088894.512          50.000    23423050.180    91917017.789          50.000  
> 2020  5 29 22 45  0.0000000  0 13       0.000000000000
G 2  23237160.840   122112109.461          50.000                                                  
G 5  21043692.660   110585259.789          50.000                                                  
G12  21224892.380   111537552.238          50.000                                                  
G25  20403383.540   107220438.504          50.000    20403386.240    80067208.102          50.000  
G29  21237543.980   111604033.363          50.000                                                  
G31  24454811.260   128510818.863          50.000                                                  
E 2  23924466.040   125723907.598          50.000    23924469.760    93884726.363          50.000  
E 4  27620661.400   145147530.125          50.000    27620666.220   108389374.324          50.000  
E 9  25611763.180   134590655.863          50.000    25611770.820   100505984.672          50.000  
E11  24428864.600   128374564.855          50.000    24428865.200    95864114.691          50.000  
E25  25218472.880   132523922.695          50.000    25218479.180    98962651.961          50.000  
E30  25612762.180   134595934.078          50.000    25612767.700   100509933.973          50.000  
E36  23423061.380   123088980.852          50.000    23423066.620    91917082.266          50.000  
> 2020  5 29 22 45  1.0000000  0 13       0.000000000000
G 2  23237625.600   122114551.809          50.000                                                  
G 5  21043681.800   110585202.727          50.000                                                  
G12  21225379.920   111540114.273          50.000                                                  
G25  20403548.620   107221306.020          50.000    20403551.340    80067855.918          50.000  
G29  21237254.380   111602511.523          50.000                                                  
G31  24454838.240   128510960.625          50.000                                                  
E 2  23924492.960   125724048.992          50.000    23924496.680    93884831.949          50.000  
E 4  27620469.440   145146521.391          50.000    27620474.260   108388621.051          50.000  
E 9  25611301.940   134588232.035          50.000    25611309.580   100504174.672          50.000  
E11  24429213.100   128376396.207          50.000    24429213.680    95865482.258          50.000  
E25  25218972.500   132526548.199          50.000    25218978.780    98964612.559          50.000  
E30  25612332.240   134593674.691          50.000    25612337.760   100508246.770          50.000  
E36  23423077.840   123089067.355          50.000    23423083.080    91917146.863          50.000  
> 2020  5 29 22 45  2.0000000  0 13       0.000000000000
G 2  23238090.380   122116994.199          50.000                                                  
G 5  21043671.080   110585146.355          50.000                                                  
G12  21225867.560   111542676.789          50.000                                                  
G25  20403713.820   107222174.164          50.000    20403716.540    80068504.207          50.000  
G29  21236964.820   111600989.863          50.000                                                  
G31  24454865.320   128511102.930          50.000                                                  
E 2  23924519.960   125724190.871          50.000    23924523.680    93884937.898          50.000  
E 4  27620277.560   145145513.031          50.000    27620282.380   108387868.059          50.000  
E 9  25610840.720   134585808.262          50.000    25610848.360   100502364.715          50.000  
E11  24429561.600   128378227.598          50.000    24429562.200    95866849.855          50.000  
E25  25219472.160   132529173.953          50.000    25219478.460    98966573.348          50.000  
E30  25611902.340   134591415.602          50.000    25611907.860   100506559.789          50.000  
E36  23423094.340   123089154.027          50.000    23423099.580    91917211.586          50.000  
> 2020  5 29 22 45  3.0000000  0 13       0.000000000000
G 2  23238555.160   122119436.648          50.000                                                  
G 5  21043660.480   110585090.668          50.000                                                  
G12  21226355.280   111545239.785          50.000                                                  
G25  20403879.160   107223042.953          50.000    20403881.860    80069152.980          50.000  
G29  21236675.280   111599468.395          50.000                                                  
G31  24454892.500   128511245.801          50.000                                                  
E 2  23924547.040   125724333.234          50.000    23924550.760    93885044.207          50.000  
E 4  27620085.740   145144505.051          50.000    27620090.560   108387115.344          50.000  
E 9  25610379.500   134583384.547          50.000    25610387.140   100500554.801          50.000  
E11  24429910.100   128380059.016          50.000    24429910.700    95868217.473          50.000  
E25  25219971.880   132531799.965          50.000    25219978.160    98968534.332          50.000  
E30  25611472.520   134589156.801          50.000    25611478.020   100504873.023          50.000  
E36  23423110.860   123089240.867          50.000    23423116.100    91917276.434          50.000  
> 2020  5 29 22 45  4.0000000  0 13       0.000000000000
G 2  23239019.940   122121879.211          50.000                                                  
G 5  21043649.980   110585035.840          50.000                                                  
G12  21226843.100   111547803.254          50.000                                                  
G25  20404044.600   107223912.371          50.000    20404047.300    80069802.234          50.000  
G29  21236385.780   111597947.160          50.000                                                  
G31  24454919.820   128511389.082          50.000                                                  
E 2  23924574.240   125724476.039          50.000    23924577.960    93885150.820          50.000  
E 4  27619893.980   145143497.395          50.000    27619898.800   108386362.895          50.000  
E 9  25609918.280   134580960.977          50.000    25609925.900   100498745.047          50.000  
E11  24430258.620   128381890.445          50.000    24430259.220    95869585.098          50.000  
E25  25220471.680   132534426.078          50.000    25220477.980    98970495.297          50.000  
E30  25611042.740   134586898.191          50.000    25611048.280   100503186.352          50.000  
E36  23423127.420   123089327.863          50.000    23423132.660    91917341.398          50.000  
> 2020  5 29 22 45  5.0000000  0 13       0.000000000000
G 2  23239484.740   122124321.738          50.000                                                  
G 5  21043639.660   110584981.559          50.000                                                  
G12  21227331.000   111550367.195          50.000                                                  
G25  20404210.160   107224782.426          50.000    20404212.860    80070451.945          50.000  
G29  21236096.320   111596426.055          50.000                                                  
G31  24454947.200   128511533.047          50.000                                                  
E 2  23924601.520   125724619.367          50.000    23924605.240    93885257.852          50.000  
E 4  27619702.320   145142490.184          50.000    27619707.140   108385610.758          50.000  
E 9  25609457.060   134578537.344          50.000    25609464.700   100496935.195          50.000  
E11  24430607.140   128383721.902          50.000    24430607.720    95870952.742          50.000  
E25  25220971.480   132537052.605          50.000    25220977.800    98972456.664          50.000  
E30  25610613.020   134584639.957          50.000    25610618.540   100501500.008          50.000  
E36  23423144.000   123089415.016          50.000    23423149.240    91917406.480          50.000  
> 2020  5 29 22 45  6.0000000  0 13       0.000000000000
G 2  23239949.540   122126764.324          50.000                                                  
G 5  21043629.460   110584927.977          50.000                                                  
G12  21227818.980   111552931.602          50.000                                                  
G25  20404375.860   107225653.133          50.000    20404378.560    80071102.148          50.000  
G29  21235806.900   111594905.152          50.000                                                  
G31  24454974.700   128511677.566          50.000                                                  
E 2  23924628.880   125724763.180          50.000    23924632.600    93885365.242          50.000  
E 4  27619510.720   145141483.289          50.000    27619515.520   108384858.852          50.000  
E 9  25608995.880   134576113.785          50.000    25609003.500   100495125.395          50.000  
E11  24430955.660   128385553.383          50.000    24430956.240    95872320.406          50.000  
E25  25221471.360   132539679.395          50.000    25221477.660    98974418.227          50.000  
E30  25610183.340   134582382.016          50.000    25610188.880   100499813.887          50.000  
E36  23423160.620   123089502.344          50.000    23423165.860    91917471.691          50.000  
> 2020  5 29 22 45  7.0000000  0 13       0.000000000000
G 2  23240414.360   122129206.949          50.000                                                  
G 5  21043619.380   110584875.074          50.000                                                  
G12  21228307.060   111555496.488          50.000                                                  
G25  20404541.660   107226524.457          50.000    20404544.360    80071752.816          50.000  
G29  21235517.520   111593384.426          50.000                                                  
G31  24455002.300   128511822.621          50.000                                                  
E 2  23924656.340   125724907.461          50.000    23924660.060    93885472.988          50.000  
E 4  27619319.180   145140476.770          50.000    27619324.000   108384107.234          50.000  
E 9  25608534.700   134573690.270          50.000    25608542.320   100493315.629          50.000  
E11  24431304.180   128387384.875          50.000    24431304.780    95873688.078          50.000  
E25  25221971.260   132542306.453          50.000    25221977.580    98976379.992          50.000  
E30  25609753.740   134580124.367          50.000    25609759.260   100498127.980          50.000  
E36  23423177.280   123089589.824          50.000    23423182.500    91917537.020          50.000  
> 2020  5 29 22 45  8.0000000  0 13       0.000000000000
G 2  23240879.180   122131649.621          50.000                                                  
G 5  21043609.460   110584822.887          50.000                                                  
G12  21228795.240   111558061.848          50.000                                                  
G25  20404707.580   107227396.426          50.000    20404710.300    80072403.961          50.000  
G29  21235228.160   111591863.891          50.000                                                  
G31  24455030.020   128511968.234          50.000                                                  
E 2  23924683.900   125725052.250          50.000    23924687.620    93885581.109          50.000  
E 4  27619127.720   145139470.598          50.000    27619132.520   108383355.875          50.000  
E 9  25608073.540   134571266.813          50.000    25608081.160   100491505.910          50.000  
E11  24431652.720   128389216.414          50.000    24431653.300    95875055.789          50.000  
E25  25222471.240   132544933.766          50.000    25222477.540    98978341.945          50.000  
E30  25609324.180   134577866.996          50.000    25609329.700   100496442.281          50.000  
E36  23423193.960   123089677.484          50.000    23423199.200    91917602.480          50.000  
> 2020  5 29 22 45  9.0000000  0 13       0.000000000000
G 2  23241344.000   122134092.332          50.000                                                  
G 5  21043599.640   110584771.375          50.000                                                  
G12  21229283.480   111560627.668          50.000                                                  
G25  20404873.640   107228269.020          50.000    20404876.340    80073055.570          50.000  
G29  21234938.860   111590343.523          50.000                                                  
G31  24455057.820   128512114.398          50.000                                                  
E 2  23924711.540   125725197.504          50.000    23924715.260    93885689.578          50.000  
E 4  27618936.320   145138464.836          50.000    27618941.140   108382604.816          50.000  
E 9  25607612.380   134568843.402          50.000    25607620.000   100489696.223          50.000  
E11  24432001.240   128391047.961          50.000    24432001.840    95876423.500          50.000  
E25  25222971.240   132547561.324          50.000    25222977.560    98980304.082          50.000  
E30  25608894.660   134575609.922          50.000    25608900.180   100494756.805          50.000  
E36  23423210.680   123089765.285          50.000    23423215.900    91917668.047          50.000  
> 2020  5 29 22 45 10.0000000  0 13       0.000000000000
G 2  23241808.840   122136535.090          50.000                                                  
G 5  21043589.980   110584720.578          50.000                                                  
G12  21229771.840   111563193.965          50.000                                                  
G25  20405039.800   107229142.258          50.000    20405042.500    80073707.664          50.000  
G29  21234649.560   111588823.352          50.000                                                  
G31  24455085.740   128512261.102          50.000                                                  
E 2  23924739.280   125725343.250          50.000    23924743.000    93885798.414          50.000  
E 4  27618745.000   145137459.430          50.000    27618749.820   108381854.027          50.000  
E 9  25607151.220   134566420.059          50.000    25607158.860   100487886.582          50.000  
E11  24432349.780   128392879.543          50.000    24432350.380    95877791.242          50.000  
E25  25223471.300   132550189.168          50.000    25223477.620    98982266.430          50.000  
E30  25608465.220   134573353.121          50.000    25608470.740   100493071.535          50.000  
E36  23423227.420   123089853.273          50.000    23423232.640    91917733.750          50.000  
> 2020  5 29 22 45 11.0000000  0 13       0.000000000000
G 2  23242273.700   122138977.898          50.000                                                  
G 5  21043580.440   110584670.453          50.000                                                  
G12  21230260.280   111565760.727          50.000                                                  
G25  20405206.100   107230016.129          50.000    20405208.800    80074360.230          50.000  
G29  21234360.320   111587303.371          50.000                                                  
G31  24455113.760   128512408.367          50.000                                                  
E 2  23924767.100   125725489.477          50.000    23924770.820    93885907.609          50.000  
E 4  27618553.740   145136454.375          50.000    27618558.560   108381103.504          50.000  
E 9  25606690.100   134563996.758          50.000    25606697.720   100486076.977          50.000  
E11  24432698.320   128394711.141          50.000    24432698.920    95879158.992          50.000  
E25  25223971.420   132552817.246          50.000    25223977.720    98984228.953          50.000  
E30  25608035.820   134571096.621          50.000    25608041.340   100491386.484          50.000  
E36  23423244.200   123089941.414          50.000    23423249.420    91917799.570          50.000  
> 2020  5 29 22 45 12.0000000  0 13       0.000000000000
G 2  23242738.560   122141420.754          50.000                                                  
G 5  21043571.040   110584621.031          50.000                                                  
G12  21230748.800   111568327.969          50.000                                                  
G25  20405372.500   107230890.645          50.000    20405375.220    80075013.277          50.000  
G29  21234071.120   111585783.578          50.000                                                  
G31  24455141.880   128512556.184          50.000                                                  
E 2  23924795.020   125725636.199          50.000    23924798.760    93886017.172          50.000  
E 4  27618362.560   145135449.699          50.000    27618367.380   108380353.258          50.000  
E 9  25606228.960   134561573.520          50.000    25606236.580   100484267.418          50.000  
E11  24433046.880   128396542.766          50.000    24433047.480    95880526.766          50.000  
E25  25224471.580   132555445.594          50.000    25224477.900    98986191.680          50.000  
E30  25607606.480   134568840.406          50.000    25607612.000   100489701.652          50.000  
E36  23423261.000   123090029.730          50.000    23423266.220    91917865.523          50.000  
> 2020  5 29 22 45 13.0000000  0 13       0.000000000000
G 2  23243203.420   122143863.648          50.000                                                  
G 5  21043561.760   110584572.297          50.000                                                  
G12  21231237.420   111570895.676          50.000                                                  
G25  20405539.040   107231765.781          50.000    20405541.740    80075666.789          50.000  
G29  21233781.940   111584263.965          50.000                                                  
G31  24455170.120   128512704.547          50.000                                                  
E 2  23924823.040   125725783.391          50.000    23924826.760    93886127.090          50.000  
E 4  27618171.460   145134445.398          50.000    27618176.260   108379603.293          50.000  
E 9  25605767.840   134559150.328          50.000    25605775.460   100482457.895          50.000  
E11  24433395.440   128398374.414          50.000    24433396.020    95881894.551          50.000  
E25  25224971.780   132558074.203          50.000    25224978.100    98988154.602          50.000  
E30  25607177.180   134566584.477          50.000    25607182.700   100488017.031          50.000  
E36  23423277.840   123090118.195          50.000    23423283.060    91917931.582          50.000  
> 2020  5 29 22 45 14.0000000  0 13       0.000000000000
G 2  23243668.300   122146306.590          50.000                                                  
G 5  21043552.620   110584524.273          50.000                                                  
G12  21231726.120   111573463.859          50.000                                                  
G25  20405705.700   107232641.559          50.000    20405708.400    80076320.777          50.000  
G29  21233492.800   111582744.535          50.000                                                  
G31  24455198.460   128512853.453          50.000                                                  
E 2  23924851.140   125725931.070          50.000    23924854.860    93886237.367          50.000  
E 4  27617980.420   145133441.465          50.000    27617985.220   108378853.602          50.000  
E 9  25605306.740   134556727.195          50.000    25605314.360   100480648.414          50.000  
E11  24433744.000   128400206.090          50.000    24433744.580    95883262.359          50.000  
E25  25225472.040   132560703.066          50.000    25225478.360    98990117.711          50.000  
E30  25606747.960   134564328.844          50.000    25606753.480   100486332.629          50.000  
E36  23423294.700   123090206.836          50.000    23423299.940    91917997.777          50.000  
> 2020  5 29 22 45 15.0000000  0 13       0.000000000000
G 2  23244133.180   122148749.582          50.000                                                  
G 5  21043543.600   110584476.926          50.000                                                  
G12  21232214.920   111576032.512          50.000                                                  
G25  20405872.480   107233517.984          50.000    20405875.180    80076975.250          50.000  
G29  21233203.700   111581225.281          50.000                                                  
G31  24455226.900   128513002.926          50.000                                                  
E 2  23924879.340   125726079.238          50.000    23924883.060    93886348.016          50.000  
E 4  27617789.440   145132437.891          50.000    27617794.260   108378104.184          50.000  
E 9  25604845.640   134554304.113          50.000    25604853.260   100478838.973          50.000  
E11  24434092.560   128402037.797          50.000    24434093.160    95884630.191          50.000  
E25  25225972.360   132563332.195          50.000    25225978.680    98992081.023          50.000  
E30  25606318.780   134562073.488          50.000    25606324.300   100484648.438          50.000  
E36  23423311.600   123090295.633          50.000    23423316.840    91918064.086          50.000  
> 2020  5 29 22 45 16.0000000  0 13       0.000000000000
G 2  23244598.080   122151192.625          50.000                                                  
G 5  21043534.720   110584430.293          50.000                                                  
G12  21232703.820   111578601.633          50.000                                                  
G25  20406039.360   107234395.031          50.000    20406042.060    80077630.191          50.000  
G29  21232914.620   111579706.223          50.000                                                  
G31  24455255.440   128513152.930          50.000                                                  
E 2  23924907.620   125726227.887          50.000    23924911.360    93886459.020          50.000  
E 4  27617598.540   145131434.691          50.000    27617603.360   108377355.039          50.000  
E 9  25604384.560   134551881.090          50.000    25604392.180   100477029.574          50.000  
E11  24434441.120   128403869.527          50.000    24434441.720    95885998.043          50.000  
E25  25226472.720   132565961.582          50.000    25226479.020    98994044.523          50.000  
E30  25605889.660   134559818.438          50.000    25605895.180   100482964.473          50.000  
E36  23423328.540   123090384.605          50.000    23423333.760    91918130.523          50.000  
> 2020  5 29 22 45 17.0000000  0 13       0.000000000000
G 2  23245062.980   122153635.703          50.000                                                  
G 5  21043525.980   110584384.352          50.000                                                  
G12  21233192.780   111581171.227          50.000                                                  
G25  20406206.380   107235272.715          50.000    20406209.080    80078285.602          50.000  
G29  21232625.600   111578187.355          50.000                                                  
G31  24455284.080   128513303.492          50.000                                                  
E 2  23924936.000   125726377.016          50.000    23924939.740    93886570.383          50.000  
E 4  27617407.720   145130431.863          50.000    27617412.520   108376606.176          50.000  
E 9  25603923.480   134549458.121          50.000    25603931.100   100475220.215          50.000  
E11  24434789.700   128405701.277          50.000    24434790.300    95887365.910          50.000  
E25  25226973.120   132568591.230          50.000    25226979.440    98996008.223          50.000  
E30  25605460.580   134557563.656          50.000    25605466.100   100481280.711          50.000  
E36  23423345.500   123090473.738          50.000    23423350.740    91918197.086          50.000  
> 2020  5 29 22 45 18.0000000  0 13       0.000000000000
G 2  23245527.880   122156078.828          50.000                                                  
G 5  21043517.360   110584339.094          50.000                                                  
G12  21233681.860   111583741.285          50.000                                                  
G25  20406373.520   107236151.039          50.000    20406376.220    80078941.492          50.000  
G29  21232336.580   111576668.656          50.000                                                  
G31  24455312.840   128513454.598          50.000                                                  
E 2  23924964.480   125726526.629          50.000    23924968.200    93886682.105          50.000  
E 4  27617216.960   145129429.402          50.000    27617221.760   108375857.586          50.000  
E 9  25603462.420   134547035.207          50.000    25603470.040   100473410.898          50.000  
E11  24435138.280   128407533.043          50.000    24435138.880    95888733.785          50.000  
E25  25227473.580   132571221.133          50.000    25227479.900    98997972.109          50.000  
E30  25605031.560   134555309.168          50.000    25605037.100   100479597.164          50.000  
E36  23423362.500   123090563.031          50.000    23423367.720    91918263.766          50.000  
> 2020  5 29 22 45 19.0000000  0 13       0.000000000000
G 2  23245992.800   122158522.000          50.000                                                  
G 5  21043508.880   110584294.547          50.000                                                  
G12  21234171.000   111586311.828          50.000                                                  
G25  20406540.780   107237029.980          50.000    20406543.480    80079597.844          50.000  
G29  21232047.620   111575150.152          50.000                                                  
G31  24455341.700   128513606.262          50.000                                                  
E 2  23924993.040   125726676.727          50.000    23924996.780    93886794.191          50.000  
E 4  27617026.260   145128427.316          50.000    27617031.080   108375109.277          50.000  
E 9  25603001.360   134544612.340          50.000    25603008.980   100471601.621          50.000  
E11  24435486.860   128409364.844          50.000    24435487.460    95890101.688          50.000  
E25  25227974.080   132573851.293          50.000    25227980.400    98999936.188          50.000  
E30  25604602.620   134553054.973          50.000    25604608.140   100477913.840          50.000  
E36  23423379.520   123090652.484          50.000    23423384.740    91918330.566          50.000  
> 2020  5 29 22 45 20.0000000  0 13       0.000000000000
G 2  23246457.740   122160965.219          50.000                                                  
G 5  21043500.540   110584250.684          50.000                                                  
G12  21234660.260   111588882.840          50.000                                                  
G25  20406708.160   107237909.582          50.000    20406710.860    80080254.688          50.000  
G29  21231758.700   111573631.844          50.000                                                  
G31  24455370.660   128513758.469          50.000                                                  
E 2  23925021.700   125726827.313          50.000    23925025.440    93886906.641          50.000  
E 4  27616835.640   145127425.594          50.000    27616840.460   108374361.238          50.000  
E 9  25602540.320   134542189.520          50.000    25602547.940   100469792.371          50.000  
E11  24435835.440   128411196.664          50.000    24435836.040    95891469.605          50.000  
E25  25228474.640   132576481.711          50.000    25228480.960    99001900.461          50.000  
E30  25604173.700   134550801.066          50.000    25604179.220   100476230.727          50.000  
E36  23423396.580   123090742.105          50.000    23423401.800    91918397.488          50.000  
> 2020  5 29 22 45 21.0000000  0 13       0.000000000000
G 2  23246922.680   122163408.488          50.000                                                  
G 5  21043492.320   110584207.523          50.000                                                  
G12  21235149.580   111591454.316          50.000                                                  
G25  20406875.660   107238789.805          50.000    20406878.360    80080912.000          50.000  
G29  21231469.800   111572113.711          50.000                                                  
G31  24455399.720   128513911.227          50.000                                                  
E 2  23925050.460   125726978.383          50.000    23925054.180    93887019.453          50.000  
E 4  27616645.100   145126424.238          50.000    27616649.900   108373613.473          50.000  
E 9  25602079.280   134539766.785          50.000    25602086.900   100467983.188          50.000  
E11  24436184.040   128413028.516          50.000    24436184.640    95892837.547          50.000  
E25  25228975.240   132579112.391          50.000    25228981.560    99003864.926          50.000  
E30  25603744.860   134548547.445          50.000    25603750.380   100474547.832          50.000  
E36  23423413.660   123090831.898          50.000    23423418.900    91918464.543          50.000  
> 2020  5 29 22 45 22.0000000  0 13       0.000000000000
G 2  23247387.620   122165851.785          50.000                                                  
G 5  21043484.240   110584165.055          50.000                                                  
G12  21235639.020   111594026.262          50.000                                                  
G25  20407043.280   107239670.668          50.000    20407045.980    80081569.785          50.000  
G29  21231180.940   111570595.758          50.000                                                  
G31  24455428.900   128514064.531          50.000                                                  
E 2  23925079.300   125727129.930          50.000    23925083.020    93887132.621          50.000  
E 4  27616454.620   145125423.254          50.000    27616459.420   108372865.984          50.000  
E 9  25601618.260   134537344.074          50.000    25601625.880   100466174.023          50.000  
E11  24436532.640   128414860.391          50.000    24436533.220    95894205.504          50.000  
E25  25229475.900   132581743.336          50.000    25229482.220    99005829.594          50.000  
E30  25603316.060   134546294.117          50.000    25603321.580   100472865.152          50.000  
E36  23423430.780   123090921.840          50.000    23423436.020    91918531.707          50.000  
> 2020  5 29 22 45 23.0000000  0 13       0.000000000000
G 2  23247852.560   122168295.145          50.000                                                  
G 5  21043476.280   110584123.285          50.000                                                  
G12  21236128.520   111596598.680          50.000                                                  
G25  20407211.020   107240552.164          50.000    20407213.720    80082228.047          50.000  
G29  21230892.120   111569078.004          50.000                                                  
G31  24455458.180   128514218.379          50.000                                                  
E 2  23925108.220   125727281.957          50.000    23925111.960    93887246.148          50.000  
E 4  27616264.200   145124422.641          50.000    27616269.020   108372118.773          50.000  
E 9  25601157.240   134534921.434          50.000    25601164.860   100464364.910          50.000  
E11  24436881.240   128416692.289          50.000    24436881.820    95895573.477          50.000  
E25  25229976.600   132584374.539          50.000    25229982.920    99007794.453          50.000  
E30  25602887.320   134544041.082          50.000    25602892.840   100471182.691          50.000  
E36  23423447.940   123091011.961          50.000    23423453.160    91918599.004          50.000  
> 2020  5 29 22 45 24.0000000  0 13       0.000000000000
G 2  23248317.520   122170738.531          50.000                                                  
G 5  21043468.480   110584082.215          50.000                                                  
G12  21236618.120   111599171.559          50.000                                                  
G25  20407378.880   107241434.289          50.000    20407381.580    80082886.773          50.000  
G29  21230603.340   111567560.426          50.000                                                  
G31  24455487.560   128514372.789          50.000                                                  
E 2  23925137.240   125727434.473          50.000    23925140.980    93887360.039          50.000  
E 4  27616073.860   145123422.398          50.000    27616078.680   108371371.844          50.000  
E 9  25600696.240   134532498.848          50.000    25600703.860   100462555.840          50.000  
E11  24437229.840   128418524.207          50.000    24437230.440    95896941.469          50.000  
E25  25230477.360   132587005.996          50.000    25230483.680    99009759.500          50.000  
E30  25602458.640   134541788.332          50.000    25602464.160   100469500.445          50.000  
E36  23423465.120   123091102.230          50.000    23423470.340    91918666.414          50.000  
> 2020  5 29 22 45 25.0000000  0 13       0.000000000000
G 2  23248782.500   122173181.969          50.000                                                  
G 5  21043460.780   110584041.844          50.000                                                  
G12  21237107.820   111601744.914          50.000                                                  
G25  20407546.860   107242317.055          50.000    20407549.560    80083545.984          50.000  
G29  21230314.580   111566043.031          50.000                                                  
G31  24455517.040   128514527.730          50.000                                                  
E 2  23925166.360   125727587.477          50.000    23925170.100    93887474.297          50.000  
E 4  27615883.600   145122422.523          50.000    27615888.400   108370625.180          50.000  
E 9  25600235.260   134530076.305          50.000    25600242.860   100460746.801          50.000  
E11  24437578.440   128420356.137          50.000    24437579.040    95898309.469          50.000  
E25  25230978.160   132589637.699          50.000    25230984.480    99011724.734          50.000  
E30  25602030.020   134539535.867          50.000    25602035.540   100467818.410          50.000  
E36  23423482.320   123091192.676          50.000    23423487.560    91918733.957          50.000  
> 2020  5 29 22 45 26.0000000  0 13       0.000000000000
G 2  23249247.480   122175625.449          50.000                                                  
G 5  21043453.240   110584002.152          50.000                                                  
G12  21237597.600   111604318.746          50.000                                                  
G25  20407714.960   107243200.457          50.000    20407717.660    80084205.668          50.000  
G29  21230025.860   111564525.832          50.000                                                  
G31  24455546.620   128514683.234          50.000                                                  
E 2  23925195.580   125727740.961          50.000    23925199.300    93887588.910          50.000  
E 4  27615693.400   145121423.008          50.000    27615698.200   108369878.793          50.000  
E 9  25599774.280   134527653.832          50.000    25599781.880   100458937.813          50.000  
E11  24437927.060   128422188.113          50.000    24437927.660    95899677.504          50.000  
E25  25231479.000   132592269.672          50.000    25231485.320    99013690.164          50.000  
E30  25601601.440   134537283.688          50.000    25601606.960   100466136.590          50.000  
E36  23423499.560   123091283.277          50.000    23423504.800    91918801.613          50.000  
> 2020  5 29 22 45 27.0000000  0 13       0.000000000000
G 2  23249712.460   122178068.973          50.000                                                  
G 5  21043445.800   110583963.156          50.000                                                  
G12  21238087.480   111606893.043          50.000                                                  
G25  20407883.180   107244084.492          50.000    20407885.900    80084865.824          50.000  
G29  21229737.180   111563008.805          50.000                                                  
G31  24455576.320   128514839.277          50.000                                                  
E 2  23925224.880   125727894.930          50.000    23925228.600    93887703.887          50.000  
E 4  27615503.260   145120423.875          50.000    27615508.080   108369132.688          50.000  
E 9  25599313.300   134525231.406          50.000    25599320.920   100457128.859          50.000  
E11  24438275.680   128424020.109          50.000    24438276.280    95901045.551          50.000  
E25  25231979.900   132594901.902          50.000    25231986.220    99015655.793          50.000  
E30  25601172.920   134535031.805          50.000    25601178.440   100464454.988          50.000  
E36  23423516.840   123091374.043          50.000    23423522.080    91918869.395          50.000  
> 2020  5 29 22 45 28.0000000  0 13       0.000000000000
G 2  23250177.460   122180512.547          50.000                                                  
G 5  21043438.520   110583924.867          50.000                                                  
G12  21238577.440   111609467.813          50.000                                                  
G25  20408051.540   107244969.164          50.000    20408054.240    80085526.453          50.000  
G29  21229448.540   111561491.973          50.000                                                  
G31  24455606.120   128514995.875          50.000                                                  
E 2  23925254.280   125728049.383          50.000    23925258.000    93887819.227          50.000  
E 4  27615313.220   145119425.121          50.000    27615318.020   108368386.867          50.000  
E 9  25598852.340   134522809.039          50.000    25598859.960   100455319.949          50.000  
E11  24438624.300   128425852.137          50.000    24438624.900    95902413.621          50.000  
E25  25232480.860   132597534.398          50.000    25232487.180    99017621.613          50.000  
E30  25600744.460   134532780.211          50.000    25600749.980   100462773.605          50.000  
E36  23423534.140   123091464.980          50.000    23423539.380    91918937.301          50.000  
> 2020  5 29 22 45 29.0000000  0 13       0.000000000000
G 2  23250642.460   122182956.156          50.000                                                  
G 5  21043431.360   110583887.277          50.000                                                  
G12  21239067.480   111612043.051          50.000                                                  
G25  20408220.000   107245854.477          50.000    20408222.700    80086187.563          50.000  
G29  21229159.920   111559975.328          50.000                                                  
G31  24455636.020   128515153.023          50.000                                                  
E 2  23925283.760   125728204.320          50.000    23925287.480    93887934.926          50.000  
E 4  27615123.220   145118426.719          50.000    27615128.040   108367641.309          50.000  
E 9  25598391.400   134520386.734          50.000    25598399.000   100453511.090          50.000  
E11  24438972.940   128427684.184          50.000    24438973.540    95903781.707          50.000  
E25  25232981.860   132600167.148          50.000    25232988.180    99019587.629          50.000  
E30  25600316.060   134530528.902          50.000    25600321.580   100461092.438          50.000  
E36  23423551.480   123091556.074          50.000    23423556.720    91919005.324          50.000  
> 2020  5 29 22 45 30.0000000  0 13       0.000000000000
G 2  23251107.460   122185399.813          50.000                                                  
G 5  21043424.340   110583850.371          50.000                                                  
G12  21239557.620   111614618.758          50.000                                                  
G25  20408388.580   107246740.414          50.000    20408391.300    80086849.141          50.000  
G29  21228871.360   111558458.863          50.000                                                  
G31  24455666.020   128515310.719          50.000                                                  
E 2  23925313.340   125728359.738          50.000    23925317.060    93888050.984          50.000  
E 4  27614933.320   145117428.699          50.000    27614938.120   108366896.035          50.000  
E 9  25597930.440   134517964.465          50.000    25597938.060   100451702.254          50.000  
E11  24439321.560   128429516.242          50.000    24439322.160    95905149.805          50.000  
E25  25233482.900   132602800.152          50.000    25233489.220    99021553.832          50.000  
E30  25599887.700   134528277.887          50.000    25599893.220   100459411.484          50.000  
E36  23423568.860   123091647.336          50.000    23423574.080    91919073.473          50.000  
> 2020  5 29 22 45 31.0000000  0 13       0.000000000000
G 2  23251572.480   122187843.512          50.000                                                  
G 5  21043417.440   110583814.160          50.000                                                  
G12  21240047.860   111617194.934          50.000                                                  
G25  20408557.300   107247626.996          50.000    20408560.000    80087511.199          50.000  
G29  21228582.820   111556942.590          50.000                                                  
G31  24455696.140   128515468.957          50.000                                                  
E 2  23925343.000   125728515.641          50.000    23925346.740    93888167.406          50.000  
E 4  27614743.460   145116431.047          50.000    27614748.280   108366151.035          50.000  
E 9  25597469.520   134515542.254          50.000    25597477.140   100449893.461          50.000  
E11  24439670.200   128431348.332          50.000    24439670.800    95906517.922          50.000  
E25  25233984.000   132605433.414          50.000    25233990.320    99023520.227          50.000  
E30  25599459.400   134526027.164          50.000    25599464.920   100457730.750          50.000  
E36  23423586.260   123091738.754          50.000    23423591.480    91919141.742          50.000  
> 2020  5 29 22 45 32.0000000  0 13       0.000000000000
G 2  23252037.520   122190287.262          50.000                                                  
G 5  21043410.680   110583778.645          50.000                                                  
G12  21240538.180   111619771.594          50.000                                                  
G25  20408726.120   107248514.211          50.000    20408728.840    80088173.727          50.000  
G29  21228294.300   111555426.496          50.000                                                  
G31  24455726.340   128515627.754          50.000                                                  
E 2  23925372.760   125728672.031          50.000    23925376.500    93888284.188          50.000  
E 4  27614553.680   145115433.762          50.000    27614558.500   108365406.309          50.000  
E 9  25597008.600   134513120.117          50.000    25597016.220   100448084.727          50.000  
E11  24440018.840   128433180.441          50.000    24440019.440    95907886.055          50.000  
E25  25234485.140   132608066.945          50.000    25234491.460    99025486.824          50.000  
E30  25599031.160   134523776.727          50.000    25599036.680   100456050.230          50.000  
E36  23423603.680   123091830.352          50.000    23423608.920    91919210.145          50.000  
> 2020  5 29 22 45 33.0000000  0 13       0.000000000000
G 2  23252502.560   122192731.043          50.000                                                  
G 5  21043404.060   110583743.816          50.000                                                  
G12  21241028.580   111622348.703          50.000                                                  
G25  20408895.080   107249402.047          50.000    20408897.780    80088836.723          50.000  
G29  21228005.840   111553910.598          50.000                                                  
G31  24455756.660   128515787.098          50.000                                                  
E 2  23925402.620   125728828.898          50.000    23925406.340    93888401.332          50.000  
E 4  27614363.980   145114436.848          50.000    27614368.800   108364661.859          50.000  
E 9  25596547.700   134510698.023          50.000    25596555.300   100446276.020          50.000  
E11  24440367.500   128435012.582          50.000    24440368.100    95909254.211          50.000  
E25  25234986.340   132610700.727          50.000    25234992.660    99027453.609          50.000  
E30  25598602.980   134521526.570          50.000    25598608.480   100454369.922          50.000  
E36  23423621.140   123091922.102          50.000    23423626.380    91919278.656          50.000  
> 2020  5 29 22 45 34.0000000  0 13       0.000000000000
G 2  23252967.600   122195174.879          50.000                                                  
G 5  21043397.560   110583709.703          50.000                                                  
G12  21241519.080   111624926.281          50.000                                                  
G25  20409064.140   107250290.539          50.000    20409066.860    80089500.207          50.000  
G29  21227717.400   111552394.867          50.000                                                  
G31  24455787.100   128515946.988          50.000                                                  
E 2  23925432.560   125728986.258          50.000    23925436.300    93888518.840          50.000  
E 4  27614174.340   145113440.301          50.000    27614179.160   108363917.688          50.000  
E 9  25596086.800   134508275.977          50.000    25596094.400   100444467.352          50.000  
E11  24440716.140   128436844.754          50.000    24440716.740    95910622.391          50.000  
E25  25235487.580   132613334.777          50.000    25235493.900    99029420.590          50.000  
E30  25598174.840   134519276.711          50.000    25598180.360   100452689.832          50.000  
E36  23423638.640   123092014.008          50.000    23423643.860    91919347.289          50.000  
> 2020  5 29 22 45 35.0000000  0 13       0.000000000000
G 2  23253432.640   122197618.758          50.000                                                  
G 5  21043391.200   110583676.285          50.000                                                  
G12  21242009.660   111627504.336          50.000                                                  
G25  20409233.340   107251179.656          50.000    20409236.040    80090164.156          50.000  
G29  21227429.000   111550879.344          50.000                                                  
G31  24455817.620   128516107.430          50.000                                                  
E 2  23925462.600   125729144.094          50.000    23925466.320    93888636.707          50.000  
E 4  27613984.780   145112444.141          50.000    27613989.600   108363173.801          50.000  
E 9  25595625.900   134505854.000          50.000    25595633.520   100442658.734          50.000  
E11  24441064.800   128438676.949          50.000    24441065.400    95911990.586          50.000  
E25  25235988.880   132615969.074          50.000    25235995.200    99031387.762          50.000  
E30  25597746.760   134517027.156          50.000    25597752.280   100451009.973          50.000  
E36  23423656.160   123092106.094          50.000    23423661.400    91919416.055          50.000  
> 2020  5 29 22 45 36.0000000  0 13       0.000000000000
G 2  23253897.720   122200062.688          50.000                                                  
G 5  21043384.980   110583643.555          50.000                                                  
G12  21242500.340   111630082.855          50.000                                                  
G25  20409402.660   107252069.406          50.000    20409405.360    80090828.582          50.000  
G29  21227140.640   111549363.980          50.000                                                  
G31  24455848.260   128516268.426          50.000                                                  
E 2  23925492.740   125729302.426          50.000    23925496.460    93888754.938          50.000  
E 4  27613795.300   145111448.324          50.000    27613800.100   108362430.172          50.000  
E 9  25595165.040   134503432.074          50.000    25595172.640   100440850.156          50.000  
E11  24441413.460   128440509.152          50.000    24441414.060    95913358.789          50.000  
E25  25236490.220   132618603.621          50.000    25236496.540    99033355.113          50.000  
E30  25597318.740   134514777.871          50.000    25597324.260   100449330.313          50.000  
E36  23423673.720   123092198.336          50.000    23423678.940    91919484.938          50.000  
> 2020  5 29 22 45 37.0000000  0 13       0.000000000000
G 2  23254362.780   122202506.648          50.000                                                  
G 5  21043378.880   110583611.520          50.000                                                  
G12  21242991.100   111632661.836          50.000                                                  
G25  20409572.080   107252959.793          50.000    20409574.780    80091493.477          50.000  
G29  21226852.320   111547848.824          50.000                                                  
G31  24455879.000   128516429.961          50.000                                                  
E 2  23925522.960   125729461.227          50.000    23925526.680    93888873.523          50.000  
E 4  27613605.860   145110452.895          50.000    27613610.680   108361686.832          50.000  
E 9  25594704.160   134501010.191          50.000    25594711.780   100439041.609          50.000  
E11  24441762.120   128442341.387          50.000    24441762.720    95914727.016          50.000  
E25  25236991.600   132621238.434          50.000    25236997.920    99035322.668          50.000  
E30  25596890.780   134512528.879          50.000    25596896.280   100447650.871          50.000  
E36  23423691.300   123092290.734          50.000    23423696.540    91919553.938          50.000  
> 2020  5 29 22 45 38.0000000  0 13       0.000000000000
G 2  23254827.860   122204950.656          50.000                                                  
G 5  21043372.900   110583580.180          50.000                                                  
G12  21243481.960   111635241.301          50.000                                                  
G25  20409741.640   107253850.816          50.000    20409744.340    80092158.852          50.000  
G29  21226564.020   111546333.840          50.000                                                  
G31  24455909.840   128516592.047          50.000                                                  
E 2  23925553.260   125729620.523          50.000    23925557.000    93888992.480          50.000  
E 4  27613416.520   145109457.828          50.000    27613421.320   108360943.766          50.000  
E 9  25594243.300   134498588.387          50.000    25594250.920   100437233.121          50.000  
E11  24442110.800   128444173.648          50.000    24442111.400    95916095.266          50.000  
E25  25237493.040   132623873.520          50.000    25237499.360    99037290.430          50.000  
E30  25596462.860   134510280.180          50.000    25596468.380   100445971.648          50.000  
E36  23423708.920   123092383.313          50.000    23423714.160    91919623.066          50.000  
> 2020  5 29 22 45 39.0000000  0 13       0.000000000000
G 2  23255292.940   122207394.715          50.000                                                  
G 5  21043367.080   110583549.551          50.000                                                  
G12  21243972.900   111637821.242          50.000                                                  
G25  20409911.320   107254742.473          50.000    20409914.020    80092824.699          50.000  
G29  21226275.760   111544819.063          50.000                                                  
G31  24455940.780   128516754.691          50.000                                                  
E 2  23925583.680   125729780.293          50.000    23925587.400    93889111.789          50.000  
E 4  27613227.240   145108463.145          50.000    27613232.040   108360200.984          50.000  
E 9  25593782.460   134496166.633          50.000    25593790.080   100435424.668          50.000  
E11  24442459.460   128446005.926          50.000    24442460.060    95917463.523          50.000  
E25  25237994.540   132626508.855          50.000    25238000.860    99039258.371          50.000  
E30  25596035.000   134508031.770          50.000    25596040.520   100444292.645          50.000  
E36  23423726.560   123092476.043          50.000    23423731.800    91919692.316          50.000  
> 2020  5 29 22 45 40.0000000  0 13       0.000000000000
G 2  23255758.040   122209838.813          50.000                                                  
G 5  21043361.380   110583519.602          50.000                                                  
G12  21244463.920   111640401.637          50.000                                                  
G25  20410081.100   107255634.762          50.000    20410083.820    80093491.020          50.000  
G29  21225987.540   111543304.453          50.000                                                  
G31  24455971.840   128516917.871          50.000                                                  
E 2  23925614.180   125729940.547          50.000    23925617.900    93889231.457          50.000  
E 4  27613038.020   145107468.820          50.000    27613042.840   108359458.469          50.000  
E 9  25593321.640   134493744.930          50.000    25593329.240   100433616.258          50.000  
E11  24442808.160   128447838.246          50.000    24442808.760    95918831.813          50.000  
E25  25238496.080   132629144.434          50.000    25238502.400    99041226.496          50.000  
E30  25595607.200   134505783.648          50.000    25595612.720   100442613.852          50.000  
E36  23423744.240   123092568.938          50.000    23423749.480    91919761.684          50.000  
> 2020  5 29 22 45 41.0000000  0 13       0.000000000000
G 2  23256223.140   122212282.953          50.000                                                  
G 5  21043355.800   110583490.355          50.000                                                  
G12  21244955.040   111642982.508          50.000                                                  
G25  20410251.020   107256527.703          50.000    20410253.740    80094157.824          50.000  
G29  21225699.360   111541790.043          50.000                                                  
G31  24456002.980   128517081.602          50.000                                                  
E 2  23925644.760   125730101.293          50.000    23925648.500    93889351.496          50.000  
E 4  27612848.880   145106474.867          50.000    27612853.680   108358716.234          50.000  
E 9  25592860.800   134491323.281          50.000    25592868.420   100431807.887          50.000  
E11  24443156.840   128449670.590          50.000    24443157.440    95920200.121          50.000  
E25  25238997.660   132631780.285          50.000    25239003.980    99043194.824          50.000  
E30  25595179.460   134503535.820          50.000    25595184.960   100440935.281          50.000  
E36  23423761.960   123092662.000          50.000    23423767.180    91919831.180          50.000  
> 2020  5 29 22 45 42.0000000  0 13       0.000000000000
G 2  23256688.260   122214727.141          50.000                                                  
G 5  21043350.360   110583461.793          50.000                                                  
G12  21245446.260   111645563.852          50.000                                                  
G25  20410421.060   107257421.258          50.000    20410423.760    80094825.090          50.000  
G29  21225411.200   111540275.816          50.000                                                  
G31  24456034.240   128517245.887          50.000                                                  
E 2  23925675.440   125730262.527          50.000    23925679.180    93889471.898          50.000  
E 4  27612659.820   145105481.289          50.000    27612664.620   108357974.273          50.000  
E 9  25592400.000   134488901.703          50.000    25592407.600   100429999.566          50.000  
E11  24443505.520   128451502.945          50.000    24443506.120    95921568.438          50.000  
E25  25239499.300   132634416.395          50.000    25239505.620    99045163.348          50.000  
E30  25594751.760   134501288.285          50.000    25594757.280   100439256.926          50.000  
E36  23423779.700   123092755.219          50.000    23423784.940    91919900.793          50.000  
> 2020  5 29 22 45 43.0000000  0 13       0.000000000000
G 2  23257153.380   122217171.371          50.000                                                  
G 5  21043345.060   110583433.914          50.000                                                  
G12  21245937.560   111648145.656          50.000                                                  
G25  20410591.220   107258315.445          50.000    20410593.920    80095492.828          50.000  
G29  21225123.080   111538761.762          50.000                                                  
G31  24456065.620   128517410.723          50.000                                                  
E 2  23925706.220   125730424.230          50.000    23925709.940    93889592.648          50.000  
E 4  27612470.800   145104488.066          50.000    27612475.620   108357232.586          50.000  
E 9  25591939.200   134486480.160          50.000    25591946.800   100428191.273          50.000  
E11  24443854.220   128453335.305          50.000    24443854.820    95922936.758          50.000  
E25  25240000.980   132637052.746          50.000    25240007.300    99047132.055          50.000  
E30  25594324.120   134499041.023          50.000    25594329.640   100437578.781          50.000  
E36  23423797.480   123092848.605          50.000    23423802.700    91919970.527          50.000  
> 2020  5 29 22 45 44.0000000  0 13       0.000000000000
G 2  23257618.500   122219615.645          50.000                                                  
G 5  21043339.880   110583406.738          50.000                                                  
G12  21246428.960   111650727.949          50.000                                                  
G25  20410761.500   107259210.273          50.000    20410764.200    80096161.043          50.000  
G29  21224835.020   111537247.918          50.000                                                  
G31  24456097.080   128517576.109          50.000                                                  
E 2  23925737.080   125730586.434          50.000    23925740.820    93889713.770          50.000  
E 4  27612281.880   145103495.234          50.000    27612286.680   108356491.180          50.000  
E 9  25591478.400   134484058.684          50.000    25591486.000   100426383.027          50.000  
E11  24444202.920   128455167.723          50.000    24444203.520    95924305.117          50.000  
E25  25240502.720   132639689.387          50.000    25240509.040    99049100.969          50.000  
E30  25593896.540   134496794.078          50.000    25593902.060   100435900.863          50.000  
E36  23423815.280   123092942.164          50.000    23423820.500    91920040.391          50.000  
> 2020  5 29 22 45 45.0000000  0 13       0.000000000000
G 2  23258083.640   122222059.961          50.000                                                  
G 5  21043334.840   110583380.254          50.000                                                  
G12  21246920.440   111653310.699          50.000                                                  
G25  20410931.900   107260105.742          50.000    20410934.600    80096829.738          50.000  
G29  21224546.960   111535734.230          50.000                                                  
G31  24456128.660   128517742.043          50.000                                                  
E 2  23925768.040   125730749.117          50.000    23925771.780    93889835.250          50.000  
E 4  27612093.020   145102502.770          50.000    27612097.820   108355750.051          50.000  
E 9  25591017.620   134481637.262          50.000    25591025.220   100424574.820          50.000  
E11  24444551.620   128457000.156          50.000    24444552.220    95925673.488          50.000  
E25  25241004.500   132642326.266          50.000    25241010.820    99051070.059          50.000  
E30  25593469.020   134494547.410          50.000    25593474.540   100434223.152          50.000  
E36  23423833.100   123093035.875          50.000    23423838.340    91920110.363          50.000  
> 2020  5 29 22 45 46.0000000  0 13       0.000000000000
G 2  23258548.780   122224504.320          50.000                                                  
G 5  21043329.940   110583354.457          50.000                                                  
G12  21247412.000   111655893.918          50.000                                                  
G25  20411102.420   107261001.840          50.000    20411105.120    80097498.906          50.000  
G29  21224258.960   111534220.742          50.000                                                  
G31  24456160.340   128517908.512          50.000                                                  
E 2  23925799.100   125730912.285          50.000    23925802.820    93889957.094          50.000  
E 4  27611904.240   145101510.684          50.000    27611909.040   108355009.207          50.000  
E 9  25590556.860   134479215.930          50.000    25590564.460   100422766.680          50.000  
E11  24444900.320   128458832.633          50.000    24444900.920    95927041.891          50.000  
E25  25241506.340   132644963.410          50.000    25241512.660    99053039.352          50.000  
E30  25593041.540   134492301.043          50.000    25593047.060   100432545.668          50.000  
E36  23423850.980   123093129.766          50.000    23423856.200    91920180.473          50.000  
> 2020  5 29 22 45 47.0000000  0 13       0.000000000000
G 2  23259013.940   122226948.719          50.000                                                  
G 5  21043325.160   110583329.363          50.000                                                  
G12  21247903.660   111658477.605          50.000                                                  
G25  20411273.060   107261898.574          50.000    20411275.760    80098168.547          50.000  
G29  21223970.980   111532707.418          50.000                                                  
G31  24456192.120   128518075.535          50.000                                                  
E 2  23925830.240   125731075.938          50.000    23925833.960    93890079.297          50.000  
E 4  27611715.520   145100518.965          50.000    27611720.320   108354268.633          50.000  
E 9  25590096.100   134476794.617          50.000    25590103.700   100420958.555          50.000  
E11  24445249.020   128460665.109          50.000    24445249.640    95928410.297          50.000  
E25  25242008.220   132647600.801          50.000    25242014.540    99055008.824          50.000  
E30  25592614.120   134490054.949          50.000    25592619.640   100430868.387          50.000  
E36  23423868.880   123093223.813          50.000    23423874.100    91920250.699          50.000  
> 2020  5 29 22 45 48.0000000  0 13       0.000000000000
G 2  23259479.100   122229393.164          50.000                                                  
G 5  21043320.520   110583304.961          50.000                                                  
G12  21248395.420   111661061.758          50.000                                                  
G25  20411443.820   107262795.930          50.000    20411446.520    80098838.656          50.000  
G29  21223683.040   111531194.285          50.000                                                  
G31  24456224.000   128518243.113          50.000                                                  
E 2  23925861.460   125731240.070          50.000    23925865.200    93890201.859          50.000  
E 4  27611526.860   145099527.602          50.000    27611531.680   108353528.328          50.000  
E 9  25589635.340   134474373.363          50.000    25589642.940   100419150.473          50.000  
E11  24445597.740   128462497.609          50.000    24445598.360    95929778.719          50.000  
E25  25242510.140   132650238.457          50.000    25242516.480    99056978.500          50.000  
E30  25592186.760   134487809.160          50.000    25592192.280   100429191.336          50.000  
E36  23423886.800   123093318.008          50.000    23423892.040    91920321.039          50.000  
> 2020  5 29 22 45 49.0000000  0 13       0.000000000000
G 2  23259944.280   122231837.660          50.000                                                  
G 5  21043316.000   110583281.250          50.000                                                  
G12  21248887.260   111663646.383          50.000                                                  
G25  20411614.700   107263693.930          50.000    20411617.420    80099509.242          50.000  
G29  21223395.140   111529681.359          50.000                                                  
G31  24456256.000   128518411.238          50.000                                                  
E 2  23925892.800   125731404.688          50.000    23925896.520    93890324.785          50.000  
E 4  27611338.280   145098536.617          50.000    27611343.100   108352788.301          50.000  
E 9  25589174.600   134471952.172          50.000    25589182.220   100417342.441          50.000  
E11  24445946.460   128464330.137          50.000    24445947.080    95931147.160          50.000  
E25  25243012.120   132652876.379          50.000    25243018.460    99058948.371          50.000  
E30  25591759.460   134485563.656          50.000    25591764.980   100427514.496          50.000  
E36  23423904.760   123093412.383          50.000    23423910.000    91920391.508          50.000  
> 2020  5 29 22 45 50.0000000  0 13       0.000000000000
G 2  23260409.460   122234282.195          50.000                                                  
G 5  21043311.620   110583258.242          50.000                                                  
G12  21249379.180   111666231.480          50.000                                                  
G25  20411785.720   107264592.566          50.000    20411788.420    80100180.309          50.000  
G29  21223107.280   111528168.609          50.000                                                  
G31  24456288.100   128518579.910          50.000                                                  
E 2  23925924.220   125731569.793          50.000    23925927.940    93890448.074          50.000  
E 4  27611149.780   145097546.016          50.000    27611154.580   108352048.563          50.000  
E 9  25588713.880   134469531.039          50.000    25588721.480   100415534.449          50.000  
E11  24446295.180   128466162.688          50.000    24446295.800    95932515.617          50.000  
E25  25243514.160   132655514.547          50.000    25243520.480    99060918.426          50.000  
E30  25591332.220   134483318.438          50.000    25591337.720   100425837.871          50.000  
E36  23423922.740   123093506.922          50.000    23423927.980    91920462.102          50.000  
> 2020  5 29 22 45 51.0000000  0 13       0.000000000000
G 2  23260874.640   122236726.770          50.000                                                  
G 5  21043307.380   110583235.938          50.000                                                  
G12  21249871.200   111668817.043          50.000                                                  
G25  20411956.840   107265491.844          50.000    20411959.540    80100851.848          50.000  
G29  21222819.440   111526656.027          50.000                                                  
G31  24456320.300   128518749.129          50.000                                                  
E 2  23925955.720   125731735.379          50.000    23925959.460    93890571.723          50.000  
E 4  27610961.340   145096555.773          50.000    27610966.160   108351309.094          50.000  
E 9  25588253.160   134467109.961          50.000    25588260.760   100413726.504          50.000  
E11  24446643.920   128467995.277          50.000    24446644.520    95933884.105          50.000  
E25  25244016.240   132658152.969          50.000    25244022.560    99062888.672          50.000  
E30  25590905.020   134481073.523          50.000    25590910.540   100424161.469          50.000  
E36  23423940.760   123093601.617          50.000    23423946.000    91920532.809          50.000  
> 2020  5 29 22 45 52.0000000  0 13       0.000000000000
G 2  23261339.840   122239171.395          50.000                                                  
G 5  21043303.280   110583214.332          50.000                                                  
G12  21250363.300   111671403.070          50.000                                                  
G25  20412128.080   107266391.746          50.000    20412130.780    80101523.855          50.000  
G29  21222531.640   111525143.656          50.000                                                  
G31  24456352.600   128518918.895          50.000                                                  
E 2  23925987.320   125731901.461          50.000    23925991.060    93890695.742          50.000  
E 4  27610772.980   145095565.902          50.000    27610777.780   108350569.902          50.000  
E 9  25587792.460   134464688.945          50.000    25587800.060   100411918.598          50.000  
E11  24446992.640   128469827.891          50.000    24446993.260    95935252.609          50.000  
E25  25244518.360   132660791.656          50.000    25244524.680    99064859.117          50.000  
E30  25590477.880   134478828.902          50.000    25590483.400   100422485.289          50.000  
E36  23423958.820   123093696.480          50.000    23423964.060    91920603.648          50.000  
> 2020  5 29 22 45 53.0000000  0 13       0.000000000000
G 2  23261805.040   122241616.055          50.000                                                  
G 5  21043299.300   110583193.441          50.000                                                  
G12  21250855.500   111673989.578          50.000                                                  
G25  20412299.460   107267292.285          50.000    20412302.160    80102196.340          50.000  
G29  21222243.880   111523631.480          50.000                                                  
G31  24456385.020   128519089.215          50.000                                                  
E 2  23926019.020   125732068.016          50.000    23926022.760    93890820.109          50.000  
E 4  27610584.680   145094576.406          50.000    27610589.500   108349830.988          50.000  
E 9  25587331.760   134462267.988          50.000    25587339.360   100410110.738          50.000  
E11  24447341.380   128471660.520          50.000    24447342.000    95936621.129          50.000  
E25  25245020.520   132663430.586          50.000    25245026.860    99066829.742          50.000  
E30  25590050.800   134476584.559          50.000    25590056.320   100420809.316          50.000  
E36  23423976.900   123093791.516          50.000    23423982.140    91920674.613          50.000  
> 2020  5 29 22 45 54.0000000  0 13       0.000000000000
G 2  23262270.260   122244060.754          50.000                                                  
G 5  21043295.440   110583173.223          50.000                                                  
G12  21251347.780   111676576.543          50.000                                                  
G25  20412470.940   107268193.465          50.000    20412473.640    80102869.305          50.000  
G29  21221956.160   111522119.473          50.000                                                  
G31  24456417.520   128519260.074          50.000                                                  
E 2  23926050.800   125732235.043          50.000    23926054.540    93890944.836          50.000  
E 4  27610396.460   145093587.273          50.000    27610401.260   108349092.348          50.000  
E 9  25586871.080   134459847.074          50.000    25586878.680   100408302.910          50.000  
E11  24447690.120   128473493.160          50.000    24447690.740    95937989.652          50.000  
E25  25245522.760   132666069.789          50.000    25245529.080    99068800.570          50.000  
E30  25589623.760   134474340.512          50.000    25589629.280   100419133.566          50.000  
E36  23423995.020   123093886.691          50.000    23424000.260    91920745.684          50.000  
> 2020  5 29 22 45 55.0000000  0 13       0.000000000000
G 2  23262735.480   122246505.500          50.000                                                  
G 5  21043291.740   110583153.695          50.000                                                  
G12  21251840.160   111679163.980          50.000                                                  
G25  20412642.540   107269095.262          50.000    20412645.240    80103542.730          50.000  
G29  21221668.460   111520607.656          50.000                                                  
G31  24456450.140   128519431.480          50.000                                                  
E 2  23926082.680   125732402.566          50.000    23926086.420    93891069.930          50.000  
E 4  27610208.300   145092598.516          50.000    27610213.120   108348353.984          50.000  
E 9  25586410.400   134457426.227          50.000    25586418.000   100406495.133          50.000  
E11  24448038.880   128475325.824          50.000    24448039.480    95939358.195          50.000  
E25  25246025.020   132668709.238          50.000    25246031.360    99070771.582          50.000  
E30  25589196.800   134472096.762          50.000    25589202.320   100417458.035          50.000  
E36  23424013.160   123093982.035          50.000    23424018.400    91920816.875          50.000  
> 2020  5 29 22 45 56.0000000  0 13       0.000000000000
G 2  23263200.700   122248950.297          50.000                                                  
G 5  21043288.160   110583134.879          50.000                                                  
G12  21252332.620   111681751.891          50.000                                                  
G25  20412814.280   107269997.719          50.000    20412816.980    80104216.645          50.000  
G29  21221380.820   111519096.035          50.000                                                  
G31  24456482.860   128519603.441          50.000                                                  
E 2  23926114.660   125732570.574          50.000    23926118.400    93891195.391          50.000  
E 4  27610020.220   145091610.145          50.000    27610025.040   108347615.914          50.000  
E 9  25585949.740   134455005.438          50.000    25585957.340   100404687.398          50.000  
E11  24448387.620   128477158.527          50.000    24448388.240    95940726.770          50.000  
E25  25246527.340   132671348.965          50.000    25246533.680    99072742.801          50.000  
E30  25588769.880   134469853.301          50.000    25588775.400   100415782.723          50.000  
E36  23424031.340   123094077.559          50.000    23424036.580    91920888.203          50.000  
> 2020  5 29 22 45 57.0000000  0 13       0.000000000000
G 2  23263665.940   122251395.133          50.000                                                  
G 5  21043284.700   110583116.746          50.000                                                  
G12  21252825.180   111684340.266          50.000                                                  
G25  20412986.120   107270900.793          50.000    20412988.820    80104891.023          50.000  
G29  21221093.200   111517584.594          50.000                                                  
G31  24456515.700   128519775.949          50.000                                                  
E 2  23926146.720   125732739.074          50.000    23926150.460    93891321.211          50.000  
E 4  27609832.200   145090622.133          50.000    27609837.020   108346878.109          50.000  
E 9  25585489.080   134452584.703          50.000    25585496.700   100402879.707          50.000  
E11  24448736.380   128478991.246          50.000    24448737.000    95942095.355          50.000  
E25  25247029.720   132673988.926          50.000    25247036.060    99074714.195          50.000  
E30  25588343.020   134467610.129          50.000    25588348.540   100414107.625          50.000  
E36  23424049.540   123094173.234          50.000    23424054.780    91920959.645          50.000  
> 2020  5 29 22 45 58.0000000  0 13       0.000000000000
G 2  23264131.200   122253840.008          50.000                                                  
G 5  21043281.380   110583099.320          50.000                                                  
G12  21253317.820   111686929.109          50.000                                                  
G25  20413158.100   107271804.500          50.000    20413160.800    80105565.871          50.000  
G29  21220805.620   111516073.328          50.000                                                  
G31  24456548.620   128519949.008          50.000                                                  
E 2  23926178.880   125732908.047          50.000    23926182.620    93891447.391          50.000  
E 4  27609644.260   145089634.496          50.000    27609649.080   108346140.586          50.000  
E 9  25585028.440   134450164.035          50.000    25585036.060   100401072.063          50.000  
E11  24449085.140   128480823.996          50.000    24449085.760    95943463.961          50.000  
E25  25247532.140   132676629.152          50.000    25247538.480    99076685.785          50.000  
E30  25587916.200   134465367.238          50.000    25587921.720   100412432.734          50.000  
E36  23424067.780   123094269.070          50.000    23424073.020    91921031.207          50.000  
> 2020  5 29 22 45 59.0000000  0 13       0.000000000000
G 2  23264596.440   122256284.930          50.000                                                  
G 5  21043278.200   110583082.574          50.000                                                  
G12  21253810.540   111689518.422          50.000                                                  
G25  20413330.200   107272708.848          50.000    20413332.880    80106241.199          50.000  
G29  21220518.060   111514562.254          50.000                                                  
G31  24456581.660   128520122.613          50.000                                                  
E 2  23926211.120   125733077.500          50.000    23926214.860    93891573.926          50.000  
E 4  27609456.380   145088647.227          50.000    27609461.200   108345403.336          50.000  
E 9  25584567.820   134447743.418          50.000    25584575.420   100399264.457          50.000  
E11  24449433.900   128482656.762          50.000    24449434.520    95944832.582          50.000  
E25  25248034.600   132679269.641          50.000    25248040.940    99078657.574          50.000  
E30  25587489.460   134463124.648          50.000    25587494.980   100410758.070          50.000  
E36  23424086.040   123094365.070          50.000    23424091.280    91921102.891          50.000  
> 2020  5 29 22 46  0.0000000  0 13       0.000000000000
G 2  23265061.700   122258729.891          50.000                                                  
G 5  21043275.140   110583066.520          50.000                                                  
G12  21254303.360   111692108.160          50.000                                                  
G25  20413502.400   107273613.816          50.000    20413505.100    80106916.984          50.000  
G29  21220230.560   111513051.359          50.000                                                  
G31  24456614.820   128520296.727          50.000                                                  
E 2  23926243.460   125733247.434          50.000    23926247.220    93891700.809          50.000  
E 4  27609268.580   145087660.340          50.000    27609273.400   108344666.379          50.000  
E 9  25584107.180   134445322.984          50.000    25584114.760   100397457.063          50.000  
E11  24449782.680   128484489.555          50.000    24449783.300    95946201.219          50.000  
E25  25248537.140   132681910.301          50.000    25248543.480    99080629.449          50.000  
E30  25587062.760   134460882.301          50.000    25587068.280   100409083.566          50.000  
E36  23424104.340   123094461.234          50.000    23424109.580    91921174.703          50.000  
> 2020  5 29 22 46  1.0000000  0 13       0.000000000000
G 2  23265526.980   122261174.895          50.000                                                  
G 5  21043272.220   110583051.172          50.000                                                  
G12  21254796.280   111694698.410          50.000                                                  
G25  20413674.740   107274519.445          50.000    20413677.440    80107593.270          50.000  
G29  21219943.080   111511540.676          50.000                                                  
G31  24456648.060   128520471.434          50.000                                                  
E 2  23926275.900   125733417.863          50.000    23926279.640    93891828.074          50.000  
E 4  27609080.860   145086673.813          50.000    27609085.680   108343929.684          50.000  
E 9  25583646.560   134442902.480          50.000    25583654.160   100395649.543          50.000  
E11  24450131.440   128486322.359          50.000    24450132.060    95947569.867          50.000  
E25  25249039.700   132684551.293          50.000    25249046.060    99082601.613          50.000  
E30  25586636.120   134458640.301          50.000    25586641.640   100407409.344          50.000  
E36  23424122.680   123094557.563          50.000    23424127.920    91921246.633          50.000  
> 2020  5 29 22 46  2.0000000  0 13       0.000000000000
G 2  23265992.240   122263619.941          50.000                                                  
G 5  21043269.440   110583036.508          50.000                                                  
G12  21255289.280   111697289.129          50.000                                                  
G25  20413847.200   107275425.688          50.000    20413849.880    80108270.012          50.000  
G29  21219655.640   111510030.160          50.000                                                  
G31  24456681.400   128520646.688          50.000                                                  
E 2  23926308.420   125733588.766          50.000    23926312.160    93891955.691          50.000  
E 4  27608893.200   145085687.660          50.000    27608898.020   108343193.266          50.000  
E 9  25583185.960   134440482.031          50.000    25583193.560   100393842.063          50.000  
E11  24450480.220   128488155.191          50.000    24450480.840    95948938.535          50.000  
E25  25249542.320   132687192.535          50.000    25249548.660    99084573.965          50.000  
E30  25586209.540   134456398.574          50.000    25586215.060   100405735.324          50.000  
E36  23424141.040   123094654.055          50.000    23424146.280    91921318.684          50.000  
> 2020  5 29 22 46  3.0000000  0 13       0.000000000000
G 2  23266457.540   122266065.020          50.000                                                  
G 5  21043266.780   110583022.543          50.000                                                  
G12  21255782.360   111699880.313          50.000                                                  
G25  20414019.760   107276332.574          50.000    20414022.460    80108947.234          50.000  
G29  21219368.220   111508519.828          50.000                                                  
G31  24456714.860   128520822.484          50.000                                                  
E 2  23926341.040   125733760.160          50.000    23926344.780    93892083.676          50.000  
E 4  27608705.600   145084701.867          50.000    27608710.420   108342457.121          50.000  
E 9  25582725.380   134438061.648          50.000    25582732.980   100392034.633          50.000  
E11  24450829.000   128489988.051          50.000    24450829.640    95950307.227          50.000  
E25  25250044.980   132689834.051          50.000    25250051.340    99086546.520          50.000  
E30  25585783.000   134454157.152          50.000    25585788.540   100404061.531          50.000  
E36  23424159.420   123094750.707          50.000    23424164.680    91921390.855          50.000  
> 2020  5 29 22 46  4.0000000  0 13       0.000000000000
G 2  23266922.820   122268510.152          50.000                                                  
G 5  21043264.240   110583009.270          50.000                                                  
G12  21256275.540   111702471.961          50.000                                                  
G25  20414192.460   107277240.090          50.000    20414195.160    80109624.930          50.000  
G29  21219080.860   111507009.680          50.000                                                  
G31  24456748.420   128520998.824          50.000                                                  
E 2  23926373.740   125733932.027          50.000    23926377.500    93892212.016          50.000  
E 4  27608518.080   145083716.465          50.000    27608522.900   108341721.266          50.000  
E 9  25582264.800   134435641.313          50.000    25582272.400   100390227.238          50.000  
E11  24451177.800   128491820.949          50.000    24451178.420    95951675.941          50.000  
E25  25250547.680   132692475.816          50.000    25250554.040    99088519.262          50.000  
E30  25585356.520   134451916.012          50.000    25585362.060   100402387.953          50.000  
E36  23424177.860   123094847.520          50.000    23424183.100    91921463.145          50.000  
> 2020  5 29 22 46  5.0000000  0 13       0.000000000000
G 2  23267388.120   122270955.324          50.000                                                  
G 5  21043261.860   110582996.680          50.000                                                  
G12  21256768.800   111705064.094          50.000                                                  
G25  20414365.280   107278148.238          50.000    20414367.960    80110303.098          50.000  
G29  21218793.520   111505499.734          50.000                                                  
G31  24456782.080   128521175.715          50.000                                                  
E 2  23926406.540   125734104.402          50.000    23926410.300    93892340.734          50.000  
E 4  27608330.640   145082731.418          50.000    27608335.460   108340985.676          50.000  
E 9  25581804.240   134433221.047          50.000    25581811.840   100388419.895          50.000  
E11  24451526.580   128493653.859          50.000    24451527.220    95953044.672          50.000  
E25  25251050.460   132695117.852          50.000    25251056.820    99090492.203          50.000  
E30  25584930.100   134449675.172          50.000    25584935.640   100400714.598          50.000  
E36  23424196.300   123094944.500          50.000    23424201.560    91921535.563          50.000  
> 2020  5 29 22 46  6.0000000  0 13       0.000000000000
G 2  23267853.440   122273400.547          50.000                                                  
G 5  21043259.580   110582984.789          50.000                                                  
G12  21257262.160   111707656.688          50.000                                                  
G25  20414538.220   107279057.035          50.000    20414540.900    80110981.746          50.000  
G29  21218506.220   111503989.969          50.000                                                  
G31  24456815.840   128521353.164          50.000                                                  
E 2  23926439.440   125734277.250          50.000    23926443.180    93892469.805          50.000  
E 4  27608143.260   145081746.750          50.000    27608148.080   108340250.371          50.000  
E 9  25581343.680   134430800.828          50.000    25581351.280   100386612.586          50.000  
E11  24451875.380   128495486.797          50.000    24451876.020    95954413.418          50.000  
E25  25251553.260   132697760.133          50.000    25251559.620    99092465.332          50.000  
E30  25584503.740   134447434.633          50.000    25584509.280   100399041.461          50.000  
E36  23424214.800   123095041.652          50.000    23424220.040    91921608.105          50.000  
> 2020  5 29 22 46  7.0000000  0 13       0.000000000000
G 2  23268318.760   122275845.809          50.000                                                  
G 5  21043257.460   110582973.598          50.000                                                  
G12  21257755.600   111710249.762          50.000                                                  
G25  20414711.280   107279966.461          50.000    20414713.960    80111660.867          50.000  
G29  21218218.960   111502480.387          50.000                                                  
G31  24456849.720   128521531.152          50.000                                                  
E 2  23926472.420   125734450.570          50.000    23926476.160    93892599.227          50.000  
E 4  27607955.960   145080762.465          50.000    27607960.780   108339515.348          50.000  
E 9  25580883.140   134428380.668          50.000    25580890.740   100384805.324          50.000  
E11  24452224.180   128497319.742          50.000    24452224.820    95955782.168          50.000  
E25  25252056.120   132700402.656          50.000    25252062.480    99094438.641          50.000  
E30  25584077.440   134445194.355          50.000    25584082.960   100397368.527          50.000  
E36  23424233.300   123095138.949          50.000    23424238.560    91921680.762          50.000  
> 2020  5 29 22 46  8.0000000  0 13       0.000000000000
G 2  23268784.080   122278291.113          50.000                                                  
G 5  21043255.460   110582963.094          50.000                                                  
G12  21258249.140   111712843.285          50.000                                                  
G25  20414884.460   107280876.520          50.000    20414887.140    80112340.461          50.000  
G29  21217931.740   111500970.996          50.000                                                  
G31  24456883.680   128521709.695          50.000                                                  
E 2  23926505.500   125734624.383          50.000    23926509.240    93892729.020          50.000  
E 4  27607768.720   145079778.539          50.000    27607773.540   108338780.594          50.000  
E 9  25580422.620   134425960.574          50.000    25580430.220   100382998.105          50.000  
E11  24452572.980   128499152.719          50.000    24452573.620    95957150.949          50.000  
E25  25252559.020   132703045.445          50.000    25252565.380    99096412.145          50.000  
E30  25583651.180   134442954.398          50.000    25583656.720   100395695.828          50.000  
E36  23424251.860   123095236.422          50.000    23424257.120    91921753.543          50.000  
> 2020  5 29 22 46  9.0000000  0 13       0.000000000000
G 2  23269249.420   122280736.457          50.000                                                  
G 5  21043253.600   110582953.293          50.000                                                  
G12  21258742.760   111715437.289          50.000                                                  
G25  20415057.760   107281787.215          50.000    20415060.440    80113020.527          50.000  
G29  21217644.540   111499461.797          50.000                                                  
G31  24456917.760   128521888.777          50.000                                                  
E 2  23926538.660   125734798.680          50.000    23926542.420    93892859.172          50.000  
E 4  27607581.560   145078794.984          50.000    27607586.380   108338046.117          50.000  
E 9  25579962.100   134423540.543          50.000    25579969.700   100381190.941          50.000  
E11  24452921.800   128500985.723          50.000    24452922.420    95958519.746          50.000  
E25  25253061.980   132705688.488          50.000    25253068.340    99098385.840          50.000  
E30  25583224.980   134440714.711          50.000    25583230.520   100394023.332          50.000  
E36  23424270.440   123095334.055          50.000    23424275.700    91921826.449          50.000  
> 2020  5 29 22 46 10.0000000  0 13       0.000000000000
G 2  23269714.760   122283181.840          50.000                                                  
G 5  21043251.860   110582944.184          50.000                                                  
G12  21259236.460   111718031.754          50.000                                                  
G25  20415231.180   107282698.531          50.000    20415233.860    80113701.059          50.000  
G29  21217357.380   111497952.773          50.000                                                  
G31  24456951.940   128522068.402          50.000                                                  
E 2  23926571.920   125734973.461          50.000    23926575.680    93892989.684          50.000  
E 4  27607394.460   145077811.805          50.000    27607399.300   108337311.922          50.000  
E 9  25579501.600   134421120.563          50.000    25579509.200   100379383.809          50.000  
E11  24453270.620   128502818.758          50.000    24453271.240    95959888.566          50.000  
E25  25253564.980   132708331.793          50.000    25253571.360    99100359.734          50.000  
E30  25582798.840   134438475.324          50.000    25582804.380   100392351.059          50.000  
E36  23424289.040   123095431.840          50.000    23424294.300    91921899.465          50.000  
> 2020  5 29 22 46 11.0000000  0 13       0.000000000000
G 2  23270180.120   122285627.270          50.000                                                  
G 5  21043250.260   110582935.770          50.000                                                  
G12  21259730.260   111720626.688          50.000                                                  
G25  20415404.720   107283610.496          50.000    20415407.400    80114382.078          50.000  
G29  21217070.260   111496443.957          50.000                                                  
G31  24456986.240   128522248.586          50.000                                                  
E 2  23926605.280   125735148.738          50.000    23926609.040    93893120.570          50.000  
E 4  27607207.440   145076828.992          50.000    27607212.260   108336578.000          50.000  
E 9  25579041.100   134418700.637          50.000    25579048.700   100377576.719          50.000  
E11  24453619.440   128504651.820          50.000    24453620.060    95961257.406          50.000  
E25  25254068.040   132710975.355          50.000    25254074.400    99102333.816          50.000  
E30  25582372.760   134436236.230          50.000    25582378.300   100390679.008          50.000  
E36  23424307.680   123095529.801          50.000    23424312.940    91921972.613          50.000  
> 2020  5 29 22 46 12.0000000  0 13       0.000000000000
G 2  23270645.460   122288072.742          50.000                                                  
G 5  21043248.800   110582928.059          50.000                                                  
G12  21260224.160   111723222.098          50.000                                                  
G25  20415578.380   107284523.094          50.000    20415581.060    80115063.566          50.000  
G29  21216783.180   111494935.316          50.000                                                  
G31  24457020.620   128522429.309          50.000                                                  
E 2  23926638.720   125735324.484          50.000    23926642.480    93893251.805          50.000  
E 4  27607020.500   145075846.555          50.000    27607025.320   108335844.359          50.000  
E 9  25578580.600   134416280.773          50.000    25578588.200   100375769.676          50.000  
E11  24453968.260   128506484.883          50.000    24453968.880    95962626.246          50.000  
E25  25254571.140   132713619.164          50.000    25254577.500    99104308.086          50.000  
E30  25581946.720   134433997.430          50.000    25581952.260   100389007.172          50.000  
E36  23424326.360   123095627.910          50.000    23424331.620    91922045.871          50.000  
> 2020  5 29 22 46 13.0000000  0 13       0.000000000000
G 2  23271110.840   122290518.258          50.000                                                  
G 5  21043247.460   110582921.031          50.000                                                  
G12  21260718.140   111725817.957          50.000                                                  
G25  20415752.160   107285436.309          50.000    20415754.840    80115745.516          50.000  
G29  21216496.140   111493426.863          50.000                                                  
G31  24457055.120   128522610.582          50.000                                                  
E 2  23926672.240   125735500.703          50.000    23926676.000    93893383.395          50.000  
E 4  27606833.600   145074864.480          50.000    27606838.440   108335110.988          50.000  
E 9  25578120.140   134413860.961          50.000    25578127.740   100373962.672          50.000  
E11  24454317.080   128508317.965          50.000    24454317.720    95963995.102          50.000  
E25  25255074.280   132716263.215          50.000    25255080.660    99106282.531          50.000  
E30  25581520.760   134431758.918          50.000    25581526.280   100387335.551          50.000  
E36  23424345.060   123095726.184          50.000    23424350.320    91922119.258          50.000  
> 2020  5 29 22 46 14.0000000  0 13       0.000000000000
G 2  23271576.220   122292963.699          50.000                                                  
G 5  21043246.260   110582914.668          50.000                                                  
G12  21261212.200   111728414.242          50.000                                                  
G25  20415926.060   107286350.207          50.000    20415928.740    80116427.953          50.000  
G29  21216209.120   111491918.602          50.000                                                  
G31  24457089.720   128522792.488          50.000                                                  
E 2  23926705.880   125735677.438          50.000    23926709.640    93893515.367          50.000  
E 4  27606646.800   145073882.797          50.000    27606651.620   108334377.910          50.000  
E 9  25577659.660   134411441.227          50.000    25577667.280   100372155.727          50.000  
E11  24454665.900   128510151.086          50.000    24454666.540    95965363.988          50.000  
E25  25255577.480   132718907.555          50.000    25255583.860    99108257.199          50.000  
E30  25581094.840   134429520.707          50.000    25581100.380   100385664.160          50.000  
E36  23424363.780   123095824.641          50.000    23424369.060    91922192.773          50.000  
> 2020  5 29 22 46 15.0000000  0 13       0.000000000000
G 2  23272041.600   122295409.285          50.000                                                  
G 5  21043245.180   110582909.023          50.000                                                  
G12  21261706.360   111731011.043          50.000                                                  
G25  20416100.080   107287264.695          50.000    20416102.760    80117110.852          50.000  
G29  21215922.140   111490410.504          50.000                                                  
G31  24457124.420   128522974.848          50.000                                                  
E 2  23926739.600   125735854.625          50.000    23926743.360    93893647.680          50.000  
E 4  27606460.060   145072901.477          50.000    27606464.880   108333645.105          50.000  
E 9  25577199.220   134409021.535          50.000    25577206.820   100370348.813          50.000  
E11  24455014.740   128511984.230          50.000    24455015.380    95966732.891          50.000  
E25  25256080.740   132721552.133          50.000    25256087.100    99110232.043          50.000  
E30  25580668.960   134427282.781          50.000    25580674.500   100383992.980          50.000  
E36  23424382.560   123095923.238          50.000    23424387.820    91922266.398          50.000  
> 2020  5 29 22 46 16.0000000  0 13       0.000000000000
G 2  23272506.980   122297854.926          50.000                                                  
G 5  21043244.240   110582904.090          50.000                                                  
G12  21262200.600   111733608.316          50.000                                                  
G25  20416274.220   107288179.824          50.000    20416276.900    80117794.227          50.000  
G29  21215635.200   111488902.621          50.000                                                  
G31  24457159.240   128523157.754          50.000                                                  
E 2  23926773.420   125736032.320          50.000    23926777.180    93893780.375          50.000  
E 4  27606273.400   145071920.531          50.000    27606278.220   108332912.582          50.000  
E 9  25576738.780   134406601.914          50.000    25576746.380   100368541.957          50.000  
E11  24455363.580   128513817.406          50.000    24455364.220    95968101.816          50.000  
E25  25256584.040   132724196.973          50.000    25256590.400    99112207.082          50.000  
E30  25580243.160   134425045.148          50.000    25580248.700   100382322.020          50.000  
E36  23424401.340   123096022.008          50.000    23424406.600    91922340.156          50.000  
> 2020  5 29 22 46 17.0000000  0 13       0.000000000000
G 2  23272972.380   122300300.609          50.000                                                  
G 5  21043243.440   110582899.840          50.000                                                  
G12  21262694.940   111736206.055          50.000                                                  
G25  20416448.480   107289095.570          50.000    20416451.160    80118478.063          50.000  
G29  21215348.280   111487394.902          50.000                                                  
G31  24457194.140   128523341.223          50.000                                                  
E 2  23926807.320   125736210.480          50.000    23926811.080    93893913.414          50.000  
E 4  27606086.800   145070939.953          50.000    27606091.620   108332180.332          50.000  
E 9  25576278.340   134404182.344          50.000    25576285.940   100366735.137          50.000  
E11  24455712.440   128515650.598          50.000    24455713.080    95969470.758          50.000  
E25  25257087.380   132726842.063          50.000    25257093.760    99114182.313          50.000  
E30  25579817.420   134422807.816          50.000    25579822.940   100380651.285          50.000  
E36  23424420.180   123096120.941          50.000    23424425.440    91922414.035          50.000  
> 2020  5 29 22 46 18.0000000  0 13       0.000000000000
G 2  23273437.780   122302746.320          50.000                                                  
G 5  21043242.760   110582896.277          50.000                                                  
G12  21263189.360   111738804.246          50.000                                                  
G25  20416622.880   107290011.957          50.000    20416625.560    80119162.379          50.000  
G29  21215061.420   111485887.379          50.000                                                  
G31  24457229.160   128523525.230          50.000                                                  
E 2  23926841.320   125736389.133          50.000    23926845.080    93894046.824          50.000  
E 4  27605900.260   145069959.746          50.000    27605905.100   108331448.359          50.000  
E 9  25575817.920   134401762.824          50.000    25575825.520   100364928.355          50.000  
E11  24456061.280   128517483.805          50.000    24456061.920    95970839.715          50.000  
E25  25257590.760   132729487.402          50.000    25257597.140    99116157.727          50.000  
E30  25579391.720   134420570.766          50.000    25579397.240   100378980.766          50.000  
E36  23424439.020   123096220.031          50.000    23424444.300    91922488.031          50.000  
> 2020  5 29 22 46 19.0000000  0 13       0.000000000000
G 2  23273903.200   122305192.078          50.000                                                  
G 5  21043242.220   110582893.410          50.000                                                  
G12  21263683.880   111741402.918          50.000                                                  
G25  20416797.380   107290928.996          50.000    20416800.060    80119847.180          50.000  
G29  21214774.580   111484380.047          50.000                                                  
G31  24457264.280   128523709.781          50.000                                                  
E 2  23926875.400   125736568.281          50.000    23926879.160    93894180.602          50.000  
E 4  27605713.800   145068979.922          50.000    27605718.640   108330716.676          50.000  
E 9  25575357.520   134399343.371          50.000    25575365.120   100363121.621          50.000  
E11  24456410.140   128519317.035          50.000    24456410.780    95972208.684          50.000  
E25  25258094.220   132732133.008          50.000    25258100.580    99118133.340          50.000  
E30  25578966.080   134418334.012          50.000    25578971.600   100377310.461          50.000  
E36  23424457.920   123096319.289          50.000    23424463.180    91922562.152          50.000  
> 2020  5 29 22 46 20.0000000  0 13       0.000000000000
G 2  23274368.620   122307637.875          50.000                                                  
G 5  21043241.800   110582891.238          50.000                                                  
G12  21264178.480   111744002.047          50.000                                                  
G25  20416972.000   107291846.656          50.000    20416974.680    80120532.441          50.000  
G29  21214487.780   111482872.898          50.000                                                  
G31  24457299.500   128523894.883          50.000                                                  
E 2  23926909.580   125736747.902          50.000    23926913.340    93894314.734          50.000  
E 4  27605527.420   145068000.449          50.000    27605532.260   108329985.250          50.000  
E 9  25574897.120   134396923.992          50.000    25574904.720   100361314.945          50.000  
E11  24456758.980   128521150.289          50.000    24456759.620    95973577.672          50.000  
E25  25258597.700   132734778.863          50.000    25258604.080    99120109.141          50.000  
E30  25578540.480   134416097.547          50.000    25578546.020   100375640.379          50.000  
E36  23424476.840   123096418.703          50.000    23424482.100    91922636.391          50.000  
> 2020  5 29 22 46 21.0000000  0 13       0.000000000000
G 2  23274834.060   122310083.727          50.000                                                  
G 5  21043241.520   110582889.777          50.000                                                  
G12  21264673.160   111746601.648          50.000                                                  
G25  20417146.760   107292764.953          50.000    20417149.440    80121218.184          50.000  
G29  21214201.020   111481365.934          50.000                                                  
G31  24457334.840   128524080.523          50.000                                                  
E 2  23926943.860   125736928.008          50.000    23926947.620    93894449.230          50.000  
E 4  27605341.100   145067021.371          50.000    27605345.940   108329254.121          50.000  
E 9  25574436.740   134394504.660          50.000    25574444.340   100359508.301          50.000  
E11  24457107.860   128522983.578          50.000    24457108.500    95974946.684          50.000  
E25  25259101.240   132737424.992          50.000    25259107.620    99122085.145          50.000  
E30  25578114.960   134413861.379          50.000    25578120.500   100373970.512          50.000  
E36  23424495.780   123096518.285          50.000    23424501.040    91922710.754          50.000  
> 2020  5 29 22 46 22.0000000  0 13       0.000000000000
G 2  23275299.500   122312529.605          50.000                                                  
G 5  21043241.380   110582889.008          50.000                                                  
G12  21265167.940   111749201.711          50.000                                                  
G25  20417321.620   107293683.879          50.000    20417324.300    80121904.395          50.000  
G29  21213914.280   111479859.141          50.000                                                  
G31  24457370.260   128524266.715          50.000                                                  
E 2  23926978.220   125737108.598          50.000    23926981.980    93894584.086          50.000  
E 4  27605154.860   145066042.656          50.000    27605159.700   108328523.262          50.000  
E 9  25573976.360   134392085.383          50.000    25573983.960   100357701.703          50.000  
E11  24457456.720   128524816.883          50.000    24457457.360    95976315.711          50.000  
E25  25259604.840   132740071.355          50.000    25259611.200    99124061.324          50.000  
E30  25577689.480   134411625.504          50.000    25577695.020   100372300.867          50.000  
E36  23424514.760   123096618.027          50.000    23424520.020    91922785.238          50.000  
> 2020  5 29 22 46 23.0000000  0 13       0.000000000000
G 2  23275764.940   122314975.531          50.000                                                  
G 5  21043241.360   110582888.930          50.000                                                  
G12  21265662.800   111751802.230          50.000                                                  
G25  20417496.600   107294603.441          50.000    20417499.300    80122591.082          50.000  
G29  21213627.600   111478352.547          50.000                                                  
G31  24457405.800   128524453.449          50.000                                                  
E 2  23927012.680   125737289.656          50.000    23927016.440    93894719.293          50.000  
E 4  27604968.700   145065064.313          50.000    27604973.520   108327792.684          50.000  
E 9  25573516.000   134389666.156          50.000    25573523.600   100355895.137          50.000  
E11  24457805.600   128526650.211          50.000    24457806.240    95977684.754          50.000  
E25  25260108.460   132742717.965          50.000    25260114.840    99126037.688          50.000  
E30  25577264.060   134409389.910          50.000    25577269.600   100370631.430          50.000  
E36  23424533.780   123096717.926          50.000    23424539.040    91922859.836          50.000  
> 2020  5 29 22 46 24.0000000  0 13       0.000000000000
G 2  23276230.400   122317421.500          50.000                                                  
G 5  21043241.480   110582889.555          50.000                                                  
G12  21266157.760   111754403.227          50.000                                                  
G25  20417671.720   107295523.645          50.000    20417674.400    80123278.246          50.000  
G29  21213340.940   111476846.148          50.000                                                  
G31  24457441.440   128524640.746          50.000                                                  
E 2  23927047.220   125737471.227          50.000    23927051.000    93894854.879          50.000  
E 4  27604782.580   145064086.340          50.000    27604787.420   108327062.379          50.000  
E 9  25573055.640   134387247.004          50.000    25573063.240   100354088.629          50.000  
E11  24458154.460   128528483.574          50.000    24458155.100    95979053.824          50.000  
E25  25260612.160   132745364.855          50.000    25260618.520    99128014.258          50.000  
E30  25576838.700   134407154.617          50.000    25576844.240   100368962.223          50.000  
E36  23424552.820   123096818.000          50.000    23424558.080    91922934.566          50.000  
> 2020  5 29 22 46 25.0000000  0 13       0.000000000000
G 2  23276695.860   122319867.512          50.000                                                  
G 5  21043241.740   110582890.867          50.000                                                  
G12  21266652.800   111757004.688          50.000                                                  
G25  20417846.940   107296444.477          50.000    20417849.640    80123965.883          50.000  
G29  21213054.300   111475339.930          50.000                                                  
G31  24457477.200   128524828.586          50.000                                                  
E 2  23927081.860   125737653.254          50.000    23927085.620    93894990.809          50.000  
E 4  27604596.560   145063108.742          50.000    27604601.380   108326332.355          50.000  
E 9  25572595.300   134384827.902          50.000    25572602.900   100352282.160          50.000  
E11  24458503.340   128530316.941          50.000    24458503.980    95980422.895          50.000  
E25  25261115.880   132748011.984          50.000    25261122.260    99129991.008          50.000  
E30  25576413.400   134404919.613          50.000    25576418.920   100367293.227          50.000  
E36  23424571.900   123096918.223          50.000    23424577.160    91923009.410          50.000  
> 2020  5 29 22 46 26.0000000  0 13       0.000000000000
G 2  23277161.320   122322313.570          50.000                                                  
G 5  21043242.120   110582892.875          50.000                                                  
G12  21267147.940   111759606.617          50.000                                                  
G25  20418022.300   107297365.945          50.000    20418024.980    80124653.988          50.000  
G29  21212767.720   111473833.898          50.000                                                  
G31  24457513.040   128525016.965          50.000                                                  
E 2  23927116.600   125737835.785          50.000    23927120.360    93895127.117          50.000  
E 4  27604410.600   145062131.516          50.000    27604415.420   108325602.613          50.000  
E 9  25572134.980   134382408.875          50.000    25572142.580   100350475.742          50.000  
E11  24458852.240   128532150.336          50.000    24458852.880    95981791.988          50.000  
E25  25261619.660   132750659.379          50.000    25261626.040    99131967.957          50.000  
E30  25575988.140   134402684.906          50.000    25575993.680   100365624.453          50.000  
E36  23424591.000   123097018.613          50.000    23424596.260    91923084.379          50.000  
> 2020  5 29 22 46 27.0000000  0 13       0.000000000000
G 2  23277626.800   122324759.664          50.000                                                  
G 5  21043242.640   110582895.574          50.000                                                  
G12  21267643.160   111762209.004          50.000                                                  
G25  20418197.780   107298288.051          50.000    20418200.460    80125342.574          50.000  
G29  21212481.180   111472328.055          50.000                                                  
G31  24457549.000   128525205.898          50.000                                                  
E 2  23927151.420   125738018.801          50.000    23927155.200    93895263.785          50.000  
E 4  27604224.700   145061154.660          50.000    27604229.540   108324873.141          50.000  
E 9  25571674.660   134379989.898          50.000    25571682.260   100348669.371          50.000  
E11  24459201.120   128533983.762          50.000    24459201.760    95983161.105          50.000  
E25  25262123.500   132753307.027          50.000    25262129.880    99133945.098          50.000  
E30  25575562.940   134400450.492          50.000    25575568.480   100363955.898          50.000  
E36  23424610.120   123097119.168          50.000    23424615.400    91923159.465          50.000  
> 2020  5 29 22 46 28.0000000  0 13       0.000000000000
G 2  23278092.280   122327205.801          50.000                                                  
G 5  21043243.280   110582898.965          50.000                                                  
G12  21268138.460   111764811.867          50.000                                                  
G25  20418373.360   107299210.781          50.000    20418376.040    80126031.625          50.000  
G29  21212194.660   111470822.402          50.000                                                  
G31  24457585.060   128525395.375          50.000                                                  
E 2  23927186.340   125738202.285          50.000    23927190.100    93895400.801          50.000  
E 4  27604038.880   145060178.176          50.000    27604043.720   108324143.949          50.000  
E 9  25571214.360   134377570.980          50.000    25571221.960   100346863.035          50.000  
E11  24459550.020   128535817.223          50.000    24459550.660    95984530.246          50.000  
E25  25262627.380   132755954.914          50.000    25262633.760    99135922.414          50.000  
E30  25575137.800   134398216.375          50.000    25575143.340   100362287.563          50.000  
E36  23424629.300   123097219.875          50.000    23424634.560    91923234.668          50.000  
> 2020  5 29 22 46 29.0000000  0 13       0.000000000000
G 2  23278557.780   122329651.977          50.000                                                  
G 5  21043244.060   110582903.055          50.000                                                  
G12  21268633.860   111767415.195          50.000                                                  
G25  20418549.080   107300134.141          50.000    20418551.760    80126721.148          50.000  
G29  21211908.180   111469316.941          50.000                                                  
G31  24457621.220   128525585.402          50.000                                                  
E 2  23927221.360   125738386.262          50.000    23927225.120    93895538.184          50.000  
E 4  27603853.140   145059202.070          50.000    27603857.960   108323415.039          50.000  
E 9  25570754.060   134375152.129          50.000    25570761.660   100345056.754          50.000  
E11  24459898.920   128537650.691          50.000    24459899.560    95985899.395          50.000  
E25  25263131.300   132758603.063          50.000    25263137.680    99137899.930          50.000  
E30  25574712.720   134395982.539          50.000    25574718.260   100360619.441          50.000  
E36  23424648.480   123097320.750          50.000    23424653.740    91923309.996          50.000  
> 2020  5 29 22 46 30.0000000  0 13       0.000000000000
G 2  23279023.280   122332098.207          50.000                                                  
G 5  21043244.960   110582907.840          50.000                                                  
G12  21269129.360   111770018.988          50.000                                                  
G25  20418724.900   107301058.141          50.000    20418727.580    80127411.148          50.000  
G29  21211621.740   111467811.680          50.000                                                  
G31  24457657.480   128525775.977          50.000                                                  
E 2  23927256.460   125738570.723          50.000    23927260.220    93895675.934          50.000  
E 4  27603667.460   145058226.340          50.000    27603672.300   108322686.410          50.000  
E 9  25570293.780   134372733.336          50.000    25570301.380   100343250.516          50.000  
E11  24460247.820   128539484.184          50.000    24460248.460    95987268.559          50.000  
E25  25263635.280   132761251.465          50.000    25263641.660    99139877.629          50.000  
E30  25574287.700   134393749.004          50.000    25574293.220   100358951.543          50.000  
E36  23424667.720   123097421.797          50.000    23424672.980    91923385.453          50.000  
> 2020  5 29 22 46 31.0000000  0 13       0.000000000000
G 2  23279488.800   122334544.461          50.000                                                  
G 5  21043246.020   110582913.320          50.000                                                  
G12  21269624.920   111772623.242          50.000                                                  
G25  20418900.860   107301982.773          50.000    20418903.540    80128101.617          50.000  
G29  21211335.320   111466306.582          50.000                                                  
G31  24457693.860   128525967.102          50.000                                                  
E 2  23927291.640   125738755.660          50.000    23927295.420    93895814.035          50.000  
E 4  27603481.860   145057250.984          50.000    27603486.680   108321958.063          50.000  
E 9  25569833.500   134370314.594          50.000    25569841.100   100341444.313          50.000  
E11  24460596.720   128541317.695          50.000    24460597.360    95988637.738          50.000  
E25  25264139.300   132763900.129          50.000    25264145.680    99141855.527          50.000  
E30  25573862.720   134391515.770          50.000    25573868.260   100357283.871          50.000  
E36  23424686.980   123097522.988          50.000    23424692.240    91923461.023          50.000  
> 2020  5 29 22 46 32.0000000  0 13       0.000000000000
G 2  23279954.320   122336990.766          50.000                                                  
G 5  21043247.180   110582919.500          50.000                                                  
G12  21270120.600   111775227.961          50.000                                                  
G25  20419076.940   107302908.035          50.000    20419079.620    80128792.563          50.000  
G29  21211048.960   111464801.680          50.000                                                  
G31  24457730.320   128526158.773          50.000                                                  
E 2  23927326.940   125738941.094          50.000    23927330.700    93895952.508          50.000  
E 4  27603296.320   145056275.992          50.000    27603301.160   108321229.984          50.000  
E 9  25569373.240   134367895.910          50.000    25569380.840   100339638.152          50.000  
E11  24460945.640   128543151.223          50.000    24460946.280    95990006.934          50.000  
E25  25264643.380   132766549.051          50.000    25264649.760    99143833.617          50.000  
E30  25573437.800   134389282.816          50.000    25573443.340   100355616.406          50.000  
E36  23424706.260   123097624.355          50.000    23424711.520    91923536.715          50.000  
> 2020  5 29 22 46 33.0000000  0 13       0.000000000000
G 2  23280419.840   122339437.113          50.000                                                  
G 5  21043248.500   110582926.363          50.000                                                  
G12  21270616.340   111777833.148          50.000                                                  
G25  20419253.120   107303833.945          50.000    20419255.800    80129483.988          50.000  
G29  21210762.620   111463296.969          50.000                                                  
G31  24457766.900   128526350.988          50.000                                                  
E 2  23927362.320   125739127.008          50.000    23927366.080    93896091.340          50.000  
E 4  27603110.860   145055301.379          50.000    27603115.680   108320502.188          50.000  
E 9  25568913.000   134365477.289          50.000    25568920.580   100337832.043          50.000  
E11  24461294.540   128544984.789          50.000    24461295.180    95991376.152          50.000  
E25  25265147.500   132769198.223          50.000    25265153.880    99145811.895          50.000  
E30  25573012.940   134387050.160          50.000    25573018.480   100353949.164          50.000  
E36  23424725.580   123097725.879          50.000    23424730.840    91923612.527          50.000  
> 2020  5 29 22 46 34.0000000  0 13       0.000000000000
G 2  23280885.380   122341883.504          50.000                                                  
G 5  21043249.940   110582933.914          50.000                                                  
G12  21271112.180   111780438.797          50.000                                                  
G25  20419429.440   107304760.480          50.000    20419432.120    80130175.879          50.000  
G29  21210476.320   111461792.449          50.000                                                  
G31  24457803.580   128526543.746          50.000                                                  
E 2  23927397.780   125739313.410          50.000    23927401.540    93896230.535          50.000  
E 4  27602925.460   145054327.133          50.000    27602930.300   108319774.668          50.000  
E 9  25568452.760   134363058.730          50.000    25568460.360   100336025.980          50.000  
E11  24461643.480   128546818.383          50.000    24461644.120    95992745.395          50.000  
E25  25265651.660   132771847.648          50.000    25265658.040    99147790.359          50.000  
E30  25572588.140   134384817.805          50.000    25572593.660   100352282.145          50.000  
E36  23424744.940   123097827.566          50.000    23424750.200    91923688.465          50.000  
> 2020  5 29 22 46 35.0000000  0 13       0.000000000000
G 2  23281350.920   122344329.934          50.000                                                  
G 5  21043251.500   110582942.172          50.000                                                  
G12  21271608.120   111783044.910          50.000                                                  
G25  20419605.880   107305687.656          50.000    20419608.560    80130868.250          50.000  
G29  21210190.060   111460288.109          50.000                                                  
G31  24457840.360   128526737.047          50.000                                                  
E 2  23927433.340   125739500.289          50.000    23927437.100    93896370.086          50.000  
E 4  27602740.140   145053353.262          50.000    27602744.980   108319047.426          50.000  
E 9  25567992.540   134360640.234          50.000    25568000.120   100334219.961          50.000  
E11  24461992.400   128548651.996          50.000    24461993.040    95994114.652          50.000  
E25  25266155.880   132774497.324          50.000    25266162.260    99149769.012          50.000  
E30  25572163.380   134382585.727          50.000    25572168.920   100350615.336          50.000  
E36  23424764.320   123097929.414          50.000    23424769.580    91923764.523          50.000  
> 2020  5 29 22 46 36.0000000  0 13       0.000000000000
G 2  23281816.460   122346776.422          50.000                                                  
G 5  21043253.200   110582951.117          50.000                                                  
G12  21272104.140   111785651.500          50.000                                                  
G25  20419782.440   107306615.465          50.000    20419785.120    80131561.094          50.000  
G29  21209903.820   111458783.961          50.000                                                  
G31  24457877.260   128526930.906          50.000                                                  
E 2  23927469.000   125739687.648          50.000    23927472.760    93896510.000          50.000  
E 4  27602554.900   145052379.766          50.000    27602559.720   108318320.469          50.000  
E 9  25567532.320   134358221.805          50.000    25567539.920   100332413.992          50.000  
E11  24462341.320   128550485.633          50.000    24462341.960    95995483.926          50.000  
E25  25266660.160   132777147.266          50.000    25266666.540    99151747.863          50.000  
E30  25571738.700   134380353.945          50.000    25571744.220   100348948.746          50.000  
E36  23424783.720   123098031.426          50.000    23424788.980    91923840.695          50.000  
> 2020  5 29 22 46 37.0000000  0 13       0.000000000000
G 2  23282282.020   122349222.926          50.000                                                  
G 5  21043255.040   110582960.746          50.000                                                  
G12  21272600.240   111788258.543          50.000                                                  
G25  20419959.120   107307543.891          50.000    20419961.800    80132254.398          50.000  
G29  21209617.620   111457279.988          50.000                                                  
G31  24457914.260   128527125.309          50.000                                                  
E 2  23927504.740   125739875.496          50.000    23927508.500    93896650.277          50.000  
E 4  27602369.720   145051406.645          50.000    27602374.540   108317593.785          50.000  
E 9  25567072.120   134355803.422          50.000    25567079.700   100330608.059          50.000  
E11  24462690.260   128552319.258          50.000    24462690.900    95996853.191          50.000  
E25  25267164.460   132779797.441          50.000    25267170.840    99153726.891          50.000  
E30  25571314.060   134378122.469          50.000    25571319.580   100347282.387          50.000  
E36  23424803.160   123098133.594          50.000    23424808.420    91923916.992          50.000  
> 2020  5 29 22 46 38.0000000  0 13       0.000000000000
G 2  23282747.600   122351669.484          50.000                                                  
G 5  21043257.020   110582971.086          50.000                                                  
G12  21273096.440   111790866.063          50.000                                                  
G25  20420135.900   107308472.957          50.000    20420138.600    80132948.180          50.000  
G29  21209331.480   111455776.238          50.000                                                  
G31  24457951.360   128527320.262          50.000                                                  
E 2  23927540.580   125740063.840          50.000    23927544.340    93896790.918          50.000  
E 4  27602184.600   145050433.891          50.000    27602189.440   108316867.379          50.000  
E 9  25566611.920   134353385.109          50.000    25566619.520   100328802.180          50.000  
E11  24463039.200   128554152.938          50.000    24463039.840    95998222.496          50.000  
E25  25267668.820   132782447.883          50.000    25267675.200    99155706.113          50.000  
E30  25570889.480   134375891.285          50.000    25570895.000   100345616.246          50.000  
E36  23424822.640   123098235.922          50.000    23424827.900    91923993.406          50.000  
> 2020  5 29 22 46 39.0000000  0 13       0.000000000000
G 2  23283213.160   122354116.094          50.000                                                  
G 5  21043259.100   110582982.113          50.000                                                  
G12  21273592.720   111793474.051          50.000                                                  
G25  20420312.820   107309402.664          50.000    20420315.500    80133642.445          50.000  
G29  21209045.340   111454272.652          50.000                                                  
G31  24457988.560   128527515.754          50.000                                                  
E 2  23927576.520   125740252.656          50.000    23927580.280    93896931.918          50.000  
E 4  27601999.560   145049461.516          50.000    27602004.400   108316141.258          50.000  
E 9  25566151.740   134350966.852          50.000    25566159.340   100326996.340          50.000  
E11  24463388.140   128555986.633          50.000    24463388.780    95999591.813          50.000  
E25  25268173.240   132785098.574          50.000    25268179.620    99157685.527          50.000  
E30  25570464.940   134373660.391          50.000    25570470.480   100343950.316          50.000  
E36  23424842.140   123098338.422          50.000    23424847.400    91924069.949          50.000  
> 2020  5 29 22 46 40.0000000  0 13       0.000000000000
G 2  23283678.740   122356562.742          50.000                                                  
G 5  21043261.340   110582993.848          50.000                                                  
G12  21274089.080   111796082.488          50.000                                                  
G25  20420489.860   107310333.004          50.000    20420492.540    80134337.176          50.000  
G29  21208759.260   111452769.254          50.000                                                  
G31  24458025.860   128527711.785          50.000                                                  
E 2  23927612.540   125740441.965          50.000    23927616.300    93897073.285          50.000  
E 4  27601814.600   145048489.504          50.000    27601819.420   108315415.406          50.000  
E 9  25565691.580   134348548.652          50.000    25565699.160   100325190.543          50.000  
E11  24463737.080   128557820.359          50.000    24463737.720    96000961.152          50.000  
E25  25268677.700   132787749.527          50.000    25268684.080    99159665.133          50.000  
E30  25570040.480   134371429.793          50.000    25570046.000   100342284.613          50.000  
E36  23424861.680   123098441.082          50.000    23424866.940    91924146.613          50.000  
> 2020  5 29 22 46 41.0000000  0 13       0.000000000000
G 2  23284144.340   122359009.426          50.000                                                  
G 5  21043263.700   110583006.281          50.000                                                  
G12  21274585.540   111798691.395          50.000                                                  
G25  20420667.020   107311263.984          50.000    20420669.700    80135032.391          50.000  
G29  21208473.220   111451266.055          50.000                                                  
G31  24458063.280   128527908.379          50.000                                                  
E 2  23927648.660   125740631.742          50.000    23927652.420    93897215.004          50.000  
E 4  27601629.700   145047517.883          50.000    27601634.540   108314689.844          50.000  
E 9  25565231.420   134346130.539          50.000    25565239.020   100323384.809          50.000  
E11  24464086.040   128559654.109          50.000    24464086.680    96002330.512          50.000  
E25  25269182.200   132790400.738          50.000    25269188.580    99161644.934          50.000  
E30  25569616.060   134369199.488          50.000    25569621.600   100340619.125          50.000  
E36  23424881.240   123098543.910          50.000    23424886.500    91924223.398          50.000  
> 2020  5 29 22 46 42.0000000  0 13       0.000000000000
G 2  23284609.940   122361456.156          50.000                                                  
G 5  21043266.200   110583019.398          50.000                                                  
G12  21275082.100   111801300.777          50.000                                                  
G25  20420844.300   107312195.590          50.000    20420846.980    80135728.070          50.000  
G29  21208187.200   111449763.031          50.000                                                  
G31  24458100.780   128528105.516          50.000                                                  
E 2  23927684.860   125740822.012          50.000    23927688.620    93897357.086          50.000  
E 4  27601444.880   145046546.621          50.000    27601449.700   108313964.555          50.000  
E 9  25564771.280   134343712.453          50.000    25564778.860   100321579.098          50.000  
E11  24464434.980   128561487.879          50.000    24464435.620    96003699.883          50.000  
E25  25269686.760   132793052.195          50.000    25269693.140    99163624.914          50.000  
E30  25569191.700   134366969.469          50.000    25569197.240   100338953.855          50.000  
E36  23424900.840   123098646.883          50.000    23424906.100    91924300.293          50.000  
> 2020  5 29 22 46 43.0000000  0 13       0.000000000000
G 2  23285075.540   122363902.926          50.000                                                  
G 5  21043268.840   110583033.219          50.000                                                  
G12  21275578.740   111803910.617          50.000                                                  
G25  20421021.700   107313127.832          50.000    20421024.400    80136424.223          50.000  
G29  21207901.220   111448260.195          50.000                                                  
G31  24458138.400   128528303.203          50.000                                                  
E 2  23927721.160   125741012.766          50.000    23927724.920    93897499.535          50.000  
E 4  27601260.120   145045575.746          50.000    27601264.960   108313239.547          50.000  
E 9  25564311.140   134341294.453          50.000    25564318.740   100319773.453          50.000  
E11  24464783.940   128563321.672          50.000    24464784.580    96005069.273          50.000  
E25  25270191.380   132795703.918          50.000    25270197.760    99165605.098          50.000  
E30  25568767.400   134364739.750          50.000    25568772.940   100337288.805          50.000  
E36  23424920.480   123098750.035          50.000    23424925.740    91924377.320          50.000  
> 2020  5 29 22 46 44.0000000  0 13       0.000000000000
G 2  23285541.160   122366349.734          50.000                                                  
G 5  21043271.600   110583047.730          50.000                                                  
G12  21276075.460   111806520.922          50.000                                                  
G25  20421199.220   107314060.703          50.000    20421201.920    80137120.848          50.000  
G29  21207615.280   111446757.559          50.000                                                  
G31  24458176.120   128528501.430          50.000                                                  
E 2  23927757.560   125741204.004          50.000    23927761.320    93897642.340          50.000  
E 4  27601075.440   145044605.227          50.000    27601080.260   108312514.813          50.000  
E 9  25563851.020   134338876.492          50.000    25563858.600   100317967.832          50.000  
E11  24465132.900   128565155.473          50.000    24465133.540    96006438.672          50.000  
E25  25270696.020   132798355.871          50.000    25270702.400    99167585.449          50.000  
E30  25568343.160   134362510.320          50.000    25568348.680   100335623.973          50.000  
E36  23424940.120   123098853.332          50.000    23424945.380    91924454.461          50.000  
> 2020  5 29 22 46 45.0000000  0 13       0.000000000000
G 2  23286006.780   122368796.586          50.000                                                  
G 5  21043274.500   110583062.941          50.000                                                  
G12  21276572.280   111809131.699          50.000                                                  
G25  20421376.860   107314994.211          50.000    20421379.560    80137817.949          50.000  
G29  21207329.360   111445255.094          50.000                                                  
G31  24458213.960   128528700.211          50.000                                                  
E 2  23927794.040   125741395.719          50.000    23927797.800    93897785.504          50.000  
E 4  27600890.840   145043635.086          50.000    27600895.660   108311790.355          50.000  
E 9  25563390.900   134336458.594          50.000    25563398.500   100316162.266          50.000  
E11  24465481.880   128566989.301          50.000    24465482.520    96007808.086          50.000  
E25  25271200.720   132801008.090          50.000    25271207.100    99169566.000          50.000  
E30  25567918.960   134360281.195          50.000    25567924.500   100333959.367          50.000  
E36  23424959.820   123098956.793          50.000    23424965.080    91924531.719          50.000  
> 2020  5 29 22 46 46.0000000  0 13       0.000000000000
G 2  23286472.400   122371243.477          50.000                                                  
G 5  21043277.520   110583078.848          50.000                                                  
G12  21277069.180   111811742.926          50.000                                                  
G25  20421554.640   107315928.355          50.000    20421557.320    80138515.523          50.000  
G29  21207043.500   111443752.820          50.000                                                  
G31  24458251.880   128528899.535          50.000                                                  
E 2  23927830.620   125741587.945          50.000    23927834.380    93897929.051          50.000  
E 4  27600706.300   145042665.324          50.000    27600711.120   108311066.184          50.000  
E 9  25562930.800   134334040.758          50.000    25562938.400   100314356.738          50.000  
E11  24465830.840   128568823.164          50.000    24465831.480    96009177.531          50.000  
E25  25271705.480   132803660.559          50.000    25271711.860    99171546.742          50.000  
E30  25567494.840   134358052.359          50.000    25567500.360   100332294.980          50.000  
E36  23424979.540   123099060.422          50.000    23424984.800    91924609.105          50.000  
> 2020  5 29 22 46 47.0000000  0 13       0.000000000000
G 2  23286938.040   122373690.410          50.000                                                  
G 5  21043280.680   110583095.457          50.000                                                  
G12  21277566.180   111814354.633          50.000                                                  
G25  20421732.520   107316863.125          50.000    20421735.200    80139213.563          50.000  
G29  21206757.660   111442250.750          50.000                                                  
G31  24458289.920   128529099.410          50.000                                                  
E 2  23927867.280   125741780.613          50.000    23927871.040    93898072.926          50.000  
E 4  27600521.820   145041695.930          50.000    27600526.640   108310342.289          50.000  
E 9  25562470.720   134331622.996          50.000    25562478.300   100312551.270          50.000  
E11  24466179.820   128570657.051          50.000    24466180.460    96010546.992          50.000  
E25  25272210.260   132806313.293          50.000    25272216.660    99173527.676          50.000  
E30  25567070.760   134355823.809          50.000    25567076.280   100330630.805          50.000  
E36  23424999.280   123099164.203          50.000    23425004.540    91924686.605          50.000  
> 2020  5 29 22 46 48.0000000  0 13       0.000000000000
G 2  23287403.700   122376137.375          50.000                                                  
G 5  21043283.980   110583112.750          50.000                                                  
G12  21278063.260   111816966.793          50.000                                                  
G25  20421910.520   107317798.531          50.000    20421913.200    80139912.082          50.000  
G29  21206471.860   111440748.852          50.000                                                  
G31  24458328.060   128529299.828          50.000                                                  
E 2  23927904.040   125741973.805          50.000    23927907.800    93898217.191          50.000  
E 4  27600337.420   145040726.910          50.000    27600342.240   108309618.668          50.000  
E 9  25562010.640   134329205.285          50.000    25562018.220   100310745.836          50.000  
E11  24466528.800   128572490.941          50.000    24466529.440    96011916.453          50.000  
E25  25272715.120   132808966.273          50.000    25272721.500    99175508.797          50.000  
E30  25566646.720   134353595.566          50.000    25566652.260   100328966.855          50.000  
E36  23425019.060   123099268.156          50.000    23425024.320    91924764.234          50.000  
> 2020  5 29 22 46 49.0000000  0 13       0.000000000000
G 2  23287869.340   122378584.402          50.000                                                  
G 5  21043287.400   110583130.750          50.000                                                  
G12  21278560.420   111819579.430          50.000                                                  
G25  20422088.640   107318734.578          50.000    20422091.320    80140611.078          50.000  
G29  21206186.100   111439247.148          50.000                                                  
G31  24458366.300   128529500.801          50.000                                                  
E 2  23927940.900   125742167.469          50.000    23927944.660    93898361.809          50.000  
E 4  27600153.100   145039758.266          50.000    27600157.920   108308895.332          50.000  
E 9  25561550.580   134326787.641          50.000    25561558.160   100308940.457          50.000  
E11  24466877.780   128574324.871          50.000    24466878.420    96013285.945          50.000  
E25  25273220.020   132811619.512          50.000    25273226.400    99177490.109          50.000  
E30  25566222.760   134351367.613          50.000    25566228.280   100327303.125          50.000  
E36  23425038.880   123099372.270          50.000    23425044.140    91924841.980          50.000  
> 2020  5 29 22 46 50.0000000  0 13       0.000000000000
G 2  23288335.000   122381031.457          50.000                                                  
G 5  21043290.960   110583149.434          50.000                                                  
G12  21279057.680   111822192.527          50.000                                                  
G25  20422266.880   107319671.250          50.000    20422269.560    80141310.539          50.000  
G29  21205900.360   111437745.633          50.000                                                  
G31  24458404.660   128529702.309          50.000                                                  
E 2  23927977.840   125742361.582          50.000    23927981.600    93898506.766          50.000  
E 4  27599968.840   145038790.000          50.000    27599973.660   108308172.277          50.000  
E 9  25561090.520   134324370.059          50.000    25561098.120   100307135.121          50.000  
E11  24467226.780   128576158.816          50.000    24467227.420    96014655.449          50.000  
E25  25273724.960   132814272.988          50.000    25273731.340    99179471.602          50.000  
E30  25565798.860   134349139.945          50.000    25565804.380   100325639.609          50.000  
E36  23425058.720   123099476.543          50.000    23425063.980    91924919.844          50.000  
> 2020  5 29 22 46 51.0000000  0 13       0.000000000000
G 2  23288800.680   122383478.566          50.000                                                  
G 5  21043294.640   110583168.828          50.000                                                  
G12  21279555.020   111824806.098          50.000                                                  
G25  20422445.260   107320608.563          50.000    20422447.940    80142010.477          50.000  
G29  21205614.680   111436244.309          50.000                                                  
G31  24458443.100   128529904.387          50.000                                                  
E 2  23928014.880   125742556.219          50.000    23928018.640    93898652.113          50.000  
E 4  27599784.660   145037822.109          50.000    27599789.480   108307449.504          50.000  
E 9  25560630.480   134321952.531          50.000    25560638.080   100305329.824          50.000  
E11  24467575.780   128577992.797          50.000    24467576.420    96016024.980          50.000  
E25  25274229.940   132816926.738          50.000    25274236.320    99181453.297          50.000  
E30  25565375.000   134346912.586          50.000    25565380.520   100323976.324          50.000  
E36  23425078.600   123099580.984          50.000    23425083.860    91924997.836          50.000  
> 2020  5 29 22 46 52.0000000  0 13       0.000000000000
G 2  23289266.360   122385925.703          50.000                                                  
G 5  21043298.460   110583188.914          50.000                                                  
G12  21280052.460   111827420.133          50.000                                                  
G25  20422623.740   107321546.500          50.000    20422626.420    80142710.879          50.000  
G29  21205329.020   111434743.172          50.000                                                  
G31  24458481.660   128530107.004          50.000                                                  
E 2  23928052.000   125742751.324          50.000    23928055.760    93898797.809          50.000  
E 4  27599600.540   145036854.586          50.000    27599605.360   108306727.004          50.000  
E 9  25560170.460   134319535.070          50.000    25560178.040   100303524.582          50.000  
E11  24467924.760   128579826.793          50.000    24467925.420    96017394.523          50.000  
E25  25274734.980   132819580.730          50.000    25274741.360    99183435.176          50.000  
E30  25564951.200   134344685.516          50.000    25564956.720   100322313.254          50.000  
E36  23425098.500   123099685.582          50.000    23425103.760    91925075.945          50.000  
> 2020  5 29 22 46 53.0000000  0 13       0.000000000000
G 2  23289732.040   122388372.902          50.000                                                  
G 5  21043302.420   110583209.699          50.000                                                  
G12  21280549.980   111830034.621          50.000                                                  
G25  20422802.340   107322485.078          50.000    20422805.020    80143411.762          50.000  
G29  21205043.400   111433242.215          50.000                                                  
G31  24458520.320   128530310.168          50.000                                                  
E 2  23928089.220   125742946.922          50.000    23928092.980    93898943.871          50.000  
E 4  27599416.500   145035887.441          50.000    27599421.320   108306004.789          50.000  
E 9  25559710.440   134317117.672          50.000    25559718.020   100301719.383          50.000  
E11  24468273.780   128581660.824          50.000    24468274.420    96018764.090          50.000  
E25  25275240.080   132822234.980          50.000    25275246.460    99185417.242          50.000  
E30  25564527.460   134342458.738          50.000    25564532.980   100320650.402          50.000  
E36  23425118.440   123099790.340          50.000    23425123.700    91925154.176          50.000  
> 2020  5 29 22 46 54.0000000  0 13       0.000000000000
G 2  23290197.740   122390820.129          50.000                                                  
G 5  21043306.520   110583231.176          50.000                                                  
G12  21281047.600   111832649.594          50.000                                                  
G25  20422981.060   107323424.301          50.000    20422983.760    80144113.121          50.000  
G29  21204757.820   111431741.477          50.000                                                  
G31  24458559.100   128530513.879          50.000                                                  
E 2  23928126.540   125743143.000          50.000    23928130.300    93899090.293          50.000  
E 4  27599232.520   145034920.664          50.000    27599237.360   108305282.844          50.000  
E 9  25559250.440   134314700.336          50.000    25559258.020   100299914.230          50.000  
E11  24468622.780   128583494.863          50.000    24468623.420    96020133.664          50.000  
E25  25275745.200   132824889.484          50.000    25275751.600    99187399.500          50.000  
E30  25564103.780   134340232.246          50.000    25564109.300   100318987.766          50.000  
E36  23425138.400   123099895.258          50.000    23425143.660    91925232.523          50.000  
> 2020  5 29 22 46 55.0000000  0 13       0.000000000000
G 2  23290663.440   122393267.402          50.000                                                  
G 5  21043310.740   110583253.348          50.000                                                  
G12  21281545.300   111835265.023          50.000                                                  
G25  20423159.920   107324364.152          50.000    20423162.600    80144814.957          50.000  
G29  21204472.260   111430240.895          50.000                                                  
G31  24458597.960   128530718.129          50.000                                                  
E 2  23928163.940   125743339.551          50.000    23928167.700    93899237.066          50.000  
E 4  27599048.620   145033954.266          50.000    27599053.460   108304561.184          50.000  
E 9  25558790.440   134312283.055          50.000    25558798.020   100298109.121          50.000  
E11  24468971.780   128585328.922          50.000    24468972.440    96021503.254          50.000  
E25  25276250.380   132827544.227          50.000    25276256.780    99189381.938          50.000  
E30  25563680.140   134338006.066          50.000    25563685.660   100317325.355          50.000  
E36  23425158.400   123100000.332          50.000    23425163.660    91925310.988          50.000  
> 2020  5 29 22 46 56.0000000  0 13       0.000000000000
G 2  23291129.140   122395714.723          50.000                                                  
G 5  21043315.100   110583276.141          50.000                                                  
G12  21282043.080   111837880.957          50.000                                                  
G25  20423338.880   107325304.609          50.000    20423341.560    80145517.246          50.000  
G29  21204186.740   111428740.535          50.000                                                  
G31  24458636.960   128530922.781          50.000                                                  
E 2  23928201.420   125743536.625          50.000    23928205.180    93899384.246          50.000  
E 4  27598864.800   145032988.238          50.000    27598869.620   108303839.797          50.000  
E 9  25558330.460   134309865.781          50.000    25558338.060   100296303.988          50.000  
E11  24469320.780   128587163.059          50.000    24469321.420    96022872.941          50.000  
E25  25276755.640   132830199.164          50.000    25276762.020    99191364.477          50.000  
E30  25563256.560   134335780.137          50.000    25563262.100   100315663.121          50.000  
E36  23425178.400   123100105.656          50.000    23425183.660    91925389.688          50.000  
> 2020  5 29 22 46 57.0000000  0 13       0.000000000000
G 2  23291594.860   122398162.066          50.000                                                  
G 5  21043319.580   110583299.695          50.000                                                  
G12  21282540.960   111840497.301          50.000                                                  
G25  20423517.980   107326245.719          50.000    20423520.660    80146220.023          50.000  
G29  21203901.260   111427240.328          50.000                                                  
G31  24458676.040   128531128.113          50.000                                                  
E 2  23928239.020   125743734.160          50.000    23928242.780    93899531.758          50.000  
E 4  27598681.040   145032022.582          50.000    27598685.860   108303118.691          50.000  
E 9  25557870.500   134307448.621          50.000    25557878.080   100294498.969          50.000  
E11  24469669.800   128588997.180          50.000    24469670.440    96024242.574          50.000  
E25  25277260.900   132832854.426          50.000    25277267.300    99193347.301          50.000  
E30  25562833.060   134333554.551          50.000    25562838.580   100314001.156          50.000  
E36  23425198.460   123100211.059          50.000    23425203.700    91925468.398          50.000  
> 2020  5 29 22 46 58.0000000  0 13       0.000000000000
G 2  23292060.580   122400609.457          50.000                                                  
G 5  21043324.200   110583323.949          50.000                                                  
G12  21283038.920   111843114.125          50.000                                                  
G25  20423697.180   107327187.469          50.000    20423699.860    80146923.277          50.000  
G29  21203615.820   111425740.320          50.000                                                  
G31  24458715.220   128531333.988          50.000                                                  
E 2  23928276.700   125743932.176          50.000    23928280.460    93899679.625          50.000  
E 4  27598497.340   145031057.309          50.000    27598502.180   108302397.875          50.000  
E 9  25557410.540   134305031.539          50.000    25557418.120   100292694.008          50.000  
E11  24470018.820   128590831.313          50.000    24470019.460    96025612.219          50.000  
E25  25277766.240   132835509.949          50.000    25277772.640    99195330.320          50.000  
E30  25562409.580   134331329.258          50.000    25562415.120   100312339.414          50.000  
E36  23425218.540   123100316.629          50.000    23425223.800    91925547.234          50.000  
> 2020  5 29 22 46 59.0000000  0 13       0.000000000000
G 2  23292526.300   122403056.879          50.000                                                  
G 5  21043328.940   110583348.898          50.000                                                  
G12  21283536.980   111845731.410          50.000                                                  
G25  20423876.520   107328129.840          50.000    20423879.200    80147626.996          50.000  
G29  21203330.420   111424240.488          50.000                                                  
G31  24458754.500   128531540.418          50.000                                                  
E 2  23928314.460   125744130.676          50.000    23928318.220    93899827.859          50.000  
E 4  27598313.740   145030092.410          50.000    27598318.560   108301677.332          50.000  
E 9  25556950.580   134302614.512          50.000    25556958.160   100290889.086          50.000  
E11  24470367.860   128592665.473          50.000    24470368.500    96026981.883          50.000  
E25  25278271.620   132838165.723          50.000    25278278.020    99197313.527          50.000  
E30  25561986.180   134329104.254          50.000    25561991.700   100310677.887          50.000  
E36  23425238.660   123100422.359          50.000    23425243.920    91925626.188          50.000  
> 2020  5 29 22 47  0.0000000  0 13       0.000000000000
G 2  23292992.040   122405504.348          50.000                                                  
G 5  21043333.820   110583374.535          50.000                                                  
G12  21284035.120   111848349.164          50.000                                                  
G25  20424055.960   107329072.840          50.000    20424058.640    80148331.184          50.000  
G29  21203045.060   111422740.863          50.000                                                  
G31  24458793.880   128531747.398          50.000                                                  
E 2  23928352.320   125744329.664          50.000    23928356.080    93899976.449          50.000  
E 4  27598130.180   145029127.883          50.000    27598135.000   108300957.066          50.000  
E 9  25556490.640   134300197.547          50.000    25556498.240   100289084.211          50.000  
E11  24470716.880   128594499.656          50.000    24470717.520    96028351.563          50.000  
E25  25278777.040   132840821.746          50.000    25278783.440    99199296.918          50.000  
E30  25561562.840   134326879.547          50.000    25561568.360   100309016.582          50.000  
E36  23425258.820   123100528.246          50.000    23425264.060    91925705.258          50.000  
> 2020  5 29 22 47  1.0000000  0 13       0.000000000000
G 2  23293457.800   122407951.852          50.000                                                  
G 5  21043338.840   110583400.879          50.000                                                  
G12  21284533.360   111850967.379          50.000                                                  
G25  20424235.540   107330016.488          50.000    20424238.220    80149035.855          50.000  
G29  21202759.720   111421241.418          50.000                                                  
G31  24458833.380   128531954.926          50.000                                                  
E 2  23928390.280   125744529.125          50.000    23928394.040    93900125.402          50.000  
E 4  27597946.720   145028163.730          50.000    27597951.540   108300237.086          50.000  
E 9  25556030.720   134297780.652          50.000    25556038.300   100287279.391          50.000  
E11  24471065.920   128596333.848          50.000    24471066.560    96029721.254          50.000  
E25  25279282.500   132843478.020          50.000    25279288.900    99201280.500          50.000  
E30  25561139.540   134324655.137          50.000    25561145.060   100307355.496          50.000  
E36  23425279.000   123100634.305          50.000    23425284.240    91925784.461          50.000  
> 2020  5 29 22 47  2.0000000  0 13       0.000000000000
G 2  23293923.560   122410399.398          50.000                                                  
G 5  21043343.980   110583427.902          50.000                                                  
G12  21285031.680   111853586.066          50.000                                                  
G25  20424415.220   107330960.758          50.000    20424417.900    80149740.992          50.000  
G29  21202474.420   111419742.160          50.000                                                  
G31  24458872.980   128532162.996          50.000                                                  
E 2  23928428.340   125744729.086          50.000    23928432.100    93900274.719          50.000  
E 4  27597763.320   145027199.957          50.000    27597768.140   108299517.387          50.000  
E 9  25555570.820   134295363.813          50.000    25555578.400   100285474.609          50.000  
E11  24471414.960   128598168.059          50.000    24471415.600    96031090.957          50.000  
E25  25279788.020   132846134.539          50.000    25279794.420    99203264.262          50.000  
E30  25560716.300   134322431.016          50.000    25560721.820   100305694.629          50.000  
E36  23425299.200   123100740.520          50.000    23425304.440    91925863.773          50.000  
> 2020  5 29 22 47  3.0000000  0 13       0.000000000000
G 2  23294389.320   122412846.977          50.000                                                  
G 5  21043349.260   110583455.617          50.000                                                  
G12  21285530.080   111856205.203          50.000                                                  
G25  20424595.040   107331905.664          50.000    20424597.720    80150446.602          50.000  
G29  21202189.160   111418243.086          50.000                                                  
G31  24458912.680   128532371.609          50.000                                                  
E 2  23928466.480   125744929.523          50.000    23928470.240    93900424.398          50.000  
E 4  27597579.980   145026236.535          50.000    27597584.800   108298797.949          50.000  
E 9  25555110.920   134292947.035          50.000    25555118.500   100283669.875          50.000  
E11  24471764.000   128600002.305          50.000    24471764.640    96032460.684          50.000  
E25  25280293.600   132848791.328          50.000    25280300.000    99205248.230          50.000  
E30  25560293.120   134320207.191          50.000    25560298.640   100304033.980          50.000  
E36  23425319.440   123100846.887          50.000    23425324.680    91925943.203          50.000  
> 2020  5 29 22 47  4.0000000  0 13       0.000000000000
G 2  23294855.080   122415294.613          50.000                                                  
G 5  21043354.680   110583484.031          50.000                                                  
G12  21286028.580   111858824.809          50.000                                                  
G25  20424774.960   107332851.203          50.000    20424777.660    80151152.688          50.000  
G29  21201903.920   111416744.195          50.000                                                  
G31  24458952.480   128532580.770          50.000                                                  
E 2  23928504.700   125745130.449          50.000    23928508.460    93900574.438          50.000  
E 4  27597396.720   145025273.500          50.000    27597401.540   108298078.801          50.000  
E 9  25554651.020   134290530.324          50.000    25554658.600   100281865.191          50.000  
E11  24472113.060   128601836.586          50.000    24472113.700    96033830.438          50.000  
E25  25280799.220   132851448.371          50.000    25280805.600    99207232.383          50.000  
E30  25559869.980   134317983.660          50.000    25559875.520   100302373.555          50.000  
E36  23425339.720   123100953.418          50.000    23425344.960    91926022.758          50.000  
> 2020  5 29 22 47  5.0000000  0 13       0.000000000000
G 2  23295320.860   122417742.270          50.000                                                  
G 5  21043360.220   110583513.145          50.000                                                  
G12  21286527.160   111861444.891          50.000                                                  
G25  20424955.020   107333797.367          50.000    20424957.700    80151859.238          50.000  
G29  21201618.740   111415245.512          50.000                                                  
G31  24458992.380   128532790.469          50.000                                                  
E 2  23928543.020   125745331.852          50.000    23928546.780    93900724.840          50.000  
E 4  27597213.520   145024310.859          50.000    27597218.340   108297359.945          50.000  
E 9  25554191.140   134288113.680          50.000    25554198.740   100280060.555          50.000  
E11  24472462.100   128603670.871          50.000    24472462.740    96035200.195          50.000  
E25  25281304.880   132854105.648          50.000    25281311.280    99209216.711          50.000  
E30  25559446.920   134315760.438          50.000    25559452.440   100300713.355          50.000  
E36  23425360.020   123101060.125          50.000    23425365.260    91926102.441          50.000  
> 2020  5 29 22 47  6.0000000  0 13       0.000000000000
G 2  23295786.640   122420189.980          50.000                                                  
G 5  21043365.880   110583542.945          50.000                                                  
G12  21287025.840   111864065.434          50.000                                                  
G25  20425135.200   107334744.172          50.000    20425137.880    80152566.266          50.000  
G29  21201333.580   111413746.996          50.000                                                  
G31  24459032.400   128533000.723          50.000                                                  
E 2  23928581.440   125745533.766          50.000    23928585.200    93900875.617          50.000  
E 4  27597030.400   145023348.574          50.000    27597035.220   108296641.355          50.000  
E 9  25553731.280   134285697.086          50.000    25553738.860   100278255.957          50.000  
E11  24472811.160   128605505.180          50.000    24472811.800    96036569.973          50.000  
E25  25281810.580   132856763.188          50.000    25281816.980    99211201.234          50.000  
E30  25559023.900   134313537.504          50.000    25559029.440   100299053.375          50.000  
E36  23425380.340   123101166.980          50.000    23425385.600    91926182.234          50.000  
> 2020  5 29 22 47  7.0000000  0 13       0.000000000000
G 2  23296252.440   122422637.738          50.000                                                  
G 5  21043371.700   110583573.445          50.000                                                  
G12  21287524.600   111866686.426          50.000                                                  
G25  20425315.480   107335691.609          50.000    20425318.180    80153273.770          50.000  
G29  21201048.460   111412248.688          50.000                                                  
G31  24459072.520   128533211.516          50.000                                                  
E 2  23928619.960   125745736.117          50.000    23928623.720    93901026.727          50.000  
E 4  27596847.360   145022386.660          50.000    27596852.180   108295923.043          50.000  
E 9  25553271.440   134283280.566          50.000    25553279.020   100276451.414          50.000  
E11  24473160.220   128607339.520          50.000    24473160.860    96037939.770          50.000  
E25  25282316.340   132859420.973          50.000    25282322.740    99213185.945          50.000  
E30  25558600.940   134311314.852          50.000    25558606.480   100297393.605          50.000  
E36  23425400.700   123101273.992          50.000    23425405.960    91926262.148          50.000  
> 2020  5 29 22 47  8.0000000  0 13       0.000000000000
G 2  23296718.240   122425085.527          50.000                                                  
G 5  21043377.640   110583604.652          50.000                                                  
G12  21288023.460   111869307.883          50.000                                                  
G25  20425495.900   107336639.684          50.000    20425498.580    80153981.746          50.000  
G29  21200763.380   111410750.563          50.000                                                  
G31  24459112.720   128533422.852          50.000                                                  
E 2  23928658.560   125745938.980          50.000    23928662.320    93901178.211          50.000  
E 4  27596664.380   145021425.129          50.000    27596669.200   108295205.020          50.000  
E 9  25552811.580   134280864.105          50.000    25552819.180   100274646.918          50.000  
E11  24473509.280   128609173.879          50.000    24473509.920    96039309.582          50.000  
E25  25282822.160   132862079.016          50.000    25282828.560    99215170.848          50.000  
E30  25558178.040   134309092.508          50.000    25558183.580   100295734.063          50.000  
E36  23425421.100   123101381.172          50.000    23425426.340    91926342.184          50.000  
> 2020  5 29 22 47  9.0000000  0 13       0.000000000000
G 2  23297184.060   122427533.355          50.000                                                  
G 5  21043383.700   110583636.535          50.000                                                  
G12  21288522.400   111871929.809          50.000                                                  
G25  20425676.440   107337588.383          50.000    20425679.120    80154690.191          50.000  
G29  21200478.340   111409252.617          50.000                                                  
G31  24459153.060   128533634.746          50.000                                                  
E 2  23928697.240   125746142.328          50.000    23928701.000    93901330.063          50.000  
E 4  27596481.480   145020463.980          50.000    27596486.300   108294487.277          50.000  
E 9  25552351.760   134278447.703          50.000    25552359.340   100272842.461          50.000  
E11  24473858.360   128611008.250          50.000    24473859.000    96040679.402          50.000  
E25  25283328.000   132864737.316          50.000    25283334.400    99217155.941          50.000  
E30  25557755.200   134306870.457          50.000    25557760.720   100294074.742          50.000  
E36  23425441.520   123101488.504          50.000    23425446.780    91926422.336          50.000  
> 2020  5 29 22 47 10.0000000  0 13       0.000000000000
G 2  23297649.880   122429981.234          50.000                                                  
G 5  21043389.900   110583669.121          50.000                                                  
G12  21289021.420   111874552.195          50.000                                                  
G25  20425857.080   107338537.715          50.000    20425859.780    80155399.105          50.000  
G29  21200193.320   111407754.867          50.000                                                  
G31  24459193.480   128533847.164          50.000                                                  
E 2  23928736.040   125746346.164          50.000    23928739.800    93901482.277          50.000  
E 4  27596298.640   145019503.191          50.000    27596303.460   108293769.809          50.000  
E 9  25551891.940   134276031.359          50.000    25551899.520   100271038.051          50.000  
E11  24474207.420   128612842.648          50.000    24474208.060    96042049.246          50.000  
E25  25283833.920   132867395.871          50.000    25283840.320    99219141.223          50.000  
E30  25557332.420   134304648.695          50.000    25557337.940   100292415.633          50.000  
E36  23425461.980   123101596.012          50.000    23425467.220    91926502.613          50.000  
> 2020  5 29 22 47 11.0000000  0 13       0.000000000000
G 2  23298115.700   122432429.137          50.000                                                  
G 5  21043396.240   110583702.406          50.000                                                  
G12  21289520.540   111877175.051          50.000                                                  
G25  20426037.860   107339487.676          50.000    20426040.540    80156108.496          50.000  
G29  21199908.360   111406257.313          50.000                                                  
G31  24459234.000   128534060.141          50.000                                                  
E 2  23928774.920   125746550.488          50.000    23928778.680    93901634.855          50.000  
E 4  27596115.880   145018542.789          50.000    27596120.700   108293052.621          50.000  
E 9  25551432.140   134273615.090          50.000    25551439.720   100269233.695          50.000  
E11  24474556.500   128614677.090          50.000    24474557.140    96043419.121          50.000  
E25  25284339.860   132870054.672          50.000    25284346.260    99221126.688          50.000  
E30  25556909.680   134302427.246          50.000    25556915.200   100290756.762          50.000  
E36  23425482.460   123101703.672          50.000    23425487.720    91926583.012          50.000  
> 2020  5 29 22 47 12.0000000  0 13       0.000000000000
G 2  23298581.520   122434877.086          50.000                                                  
G 5  21043402.720   110583736.387          50.000                                                  
G12  21290019.740   111879798.348          50.000                                                  
G25  20426218.760   107340438.273          50.000    20426221.440    80156818.355          50.000  
G29  21199623.420   111404759.938          50.000                                                  
G31  24459274.640   128534273.660          50.000                                                  
E 2  23928813.880   125746755.277          50.000    23928817.640    93901787.785          50.000  
E 4  27595933.200   145017582.742          50.000    27595938.000   108292335.707          50.000  
E 9  25550972.340   134271198.879          50.000    25550979.920   100267429.383          50.000  
E11  24474905.600   128616511.531          50.000    24474906.220    96044788.996          50.000  
E25  25284845.860   132872713.719          50.000    25284852.260    99223112.340          50.000  
E30  25556487.000   134300206.074          50.000    25556492.520   100289098.094          50.000  
E36  23425502.980   123101811.492          50.000    23425508.220    91926663.527          50.000  
> 2020  5 29 22 47 13.0000000  0 13       0.000000000000
G 2  23299047.360   122437325.070          50.000                                                  
G 5  21043409.320   110583771.063          50.000                                                  
G12  21290519.020   111882422.121          50.000                                                  
G25  20426399.780   107341389.504          50.000    20426402.460    80157528.688          50.000  
G29  21199338.520   111403262.746          50.000                                                  
G31  24459315.380   128534487.723          50.000                                                  
E 2  23928852.940   125746960.551          50.000    23928856.700    93901941.074          50.000  
E 4  27595750.580   145016623.094          50.000    27595755.400   108291619.086          50.000  
E 9  25550512.560   134268782.727          50.000    25550520.140   100265625.117          50.000  
E11  24475254.680   128618346.000          50.000    24475255.320    96046158.891          50.000  
E25  25285351.900   132875373.023          50.000    25285358.320    99225098.184          50.000  
E30  25556064.380   134297985.207          50.000    25556069.900   100287439.656          50.000  
E36  23425523.520   123101919.473          50.000    23425528.780    91926744.160          50.000  
> 2020  5 29 22 47 14.0000000  0 13       0.000000000000
G 2  23299513.220   122439773.102          50.000                                                  
G 5  21043416.040   110583806.438          50.000                                                  
G12  21291018.400   111885046.363          50.000                                                  
G25  20426580.920   107342341.367          50.000    20426583.600    80158239.496          50.000  
G29  21199053.660   111401765.766          50.000                                                  
G31  24459356.220   128534702.324          50.000                                                  
E 2  23928892.100   125747166.316          50.000    23928895.860    93902094.727          50.000  
E 4  27595568.020   145015663.809          50.000    27595572.840   108290902.738          50.000  
E 9  25550052.800   134266366.645          50.000    25550060.380   100263820.902          50.000  
E11  24475603.760   128620180.484          50.000    24475604.400    96047528.797          50.000  
E25  25285858.000   132878032.582          50.000    25285864.400    99227084.215          50.000  
E30  25555641.820   134295764.641          50.000    25555647.340   100285781.441          50.000  
E36  23425544.100   123102027.621          50.000    23425549.360    91926824.922          50.000  
> 2020  5 29 22 47 15.0000000  0 13       0.000000000000
G 2  23299979.080   122442221.176          50.000                                                  
G 5  21043422.920   110583842.516          50.000                                                  
G12  21291517.880   111887671.070          50.000                                                  
G25  20426762.180   107343293.879          50.000    20426764.860    80158950.785          50.000  
G29  21198768.820   111400268.957          50.000                                                  
G31  24459397.160   128534917.484          50.000                                                  
E 2  23928931.340   125747372.566          50.000    23928935.100    93902248.746          50.000  
E 4  27595385.540   145014704.891          50.000    27595390.360   108290186.660          50.000  
E 9  25549593.040   134263950.625          50.000    25549600.620   100262016.734          50.000  
E11  24475952.860   128622015.000          50.000    24475953.500    96048898.727          50.000  
E25  25286364.140   132880692.391          50.000    25286370.560    99229070.434          50.000  
E30  25555219.320   134293544.367          50.000    25555224.840   100284123.449          50.000  
E36  23425564.720   123102135.930          50.000    23425569.960    91926905.801          50.000  
> 2020  5 29 22 47 16.0000000  0 13       0.000000000000
G 2  23300444.940   122444669.285          50.000                                                  
G 5  21043429.920   110583879.285          50.000                                                  
G12  21292017.420   111890296.238          50.000                                                  
G25  20426943.540   107344247.004          50.000    20426946.240    80159662.527          50.000  
G29  21198484.020   111398772.348          50.000                                                  
G31  24459438.220   128535133.188          50.000                                                  
E 2  23928970.680   125747579.297          50.000    23928974.440    93902403.121          50.000  
E 4  27595203.140   145013746.371          50.000    27595207.960   108289470.887          50.000  
E 9  25549133.300   134261534.664          50.000    25549140.880   100260212.609          50.000  
E11  24476301.960   128623849.539          50.000    24476302.600    96050268.676          50.000  
E25  25286870.340   132883352.453          50.000    25286876.740    99231056.844          50.000  
E30  25554796.860   134291324.383          50.000    25554802.380   100282465.668          50.000  
E36  23425585.360   123102244.395          50.000    23425590.600    91926986.797          50.000  
> 2020  5 29 22 47 17.0000000  0 13       0.000000000000
G 2  23300910.800   122447117.438          50.000                                                  
G 5  21043437.040   110583916.738          50.000                                                  
G12  21292517.060   111892921.859          50.000                                                  
G25  20427125.040   107345200.785          50.000    20427127.740    80160374.766          50.000  
G29  21198199.260   111397275.918          50.000                                                  
G31  24459479.360   128535349.434          50.000                                                  
E 2  23929010.120   125747786.516          50.000    23929013.880    93902557.863          50.000  
E 4  27595020.820   145012788.219          50.000    27595025.620   108288755.383          50.000  
E 9  25548673.560   134259118.762          50.000    25548681.140   100258408.527          50.000  
E11  24476651.060   128625684.102          50.000    24476651.700    96051638.641          50.000  
E25  25287376.580   132886012.770          50.000    25287382.980    99233043.441          50.000  
E30  25554374.460   134289104.695          50.000    25554379.980   100280808.113          50.000  
E36  23425606.020   123102353.020          50.000    23425611.260    91927067.914          50.000  
> 2020  5 29 22 47 18.0000000  0 13       0.000000000000
G 2  23301376.680   122449565.629          50.000                                                  
G 5  21043444.300   110583954.895          50.000                                                  
G12  21293016.800   111895547.953          50.000                                                  
G25  20427306.660   107346155.188          50.000    20427309.360    80161087.469          50.000  
G29  21197914.540   111395779.699          50.000                                                  
G31  24459520.620   128535566.223          50.000                                                  
E 2  23929049.640   125747994.219          50.000    23929053.400    93902712.965          50.000  
E 4  27594838.540   145011830.438          50.000    27594843.360   108288040.156          50.000  
E 9  25548213.840   134256702.934          50.000    25548221.420   100256604.504          50.000  
E11  24477000.180   128627518.684          50.000    24477000.820    96053008.621          50.000  
E25  25287882.860   132888673.332          50.000    25287889.280    99235030.227          50.000  
E30  25553952.140   134286885.313          50.000    25553957.660   100279150.781          50.000  
E36  23425626.720   123102461.813          50.000    23425631.960    91927149.156          50.000  
> 2020  5 29 22 47 19.0000000  0 13       0.000000000000
G 2  23301842.580   122452013.863          50.000                                                  
G 5  21043451.700   110583993.738          50.000                                                  
G12  21293516.620   111898174.520          50.000                                                  
G25  20427488.400   107347110.227          50.000    20427491.100    80161800.648          50.000  
G29  21197629.860   111394283.664          50.000                                                  
G31  24459561.980   128535783.559          50.000                                                  
E 2  23929089.240   125748202.402          50.000    23929093.000    93902868.430          50.000  
E 4  27594656.360   145010873.012          50.000    27594661.180   108287325.199          50.000  
E 9  25547754.140   134254287.164          50.000    25547761.700   100254800.520          50.000  
E11  24477349.280   128629353.289          50.000    24477349.920    96054378.617          50.000  
E25  25288389.200   132891334.156          50.000    25288395.600    99237017.203          50.000  
E30  25553529.840   134284666.223          50.000    25553535.360   100277493.672          50.000  
E36  23425647.460   123102570.766          50.000    23425652.700    91927230.516          50.000  
> 2020  5 29 22 47 20.0000000  0 13       0.000000000000
G 2  23302308.460   122454462.133          50.000                                                  
G 5  21043459.220   110584033.293          50.000                                                  
G12  21294016.540   111900801.543          50.000                                                  
G25  20427670.260   107348065.883          50.000    20427672.960    80162514.289          50.000  
G29  21197345.220   111392787.801          50.000                                                  
G31  24459603.440   128536001.438          50.000                                                  
E 2  23929128.960   125748411.066          50.000    23929132.720    93903024.250          50.000  
E 4  27594474.240   145009915.984          50.000    27594479.060   108286610.535          50.000  
E 9  25547294.440   134251871.465          50.000    25547302.020   100252996.594          50.000  
E11  24477698.400   128631187.902          50.000    24477699.040    96055748.621          50.000  
E25  25288895.580   132893995.219          50.000    25288902.000    99239004.359          50.000  
E30  25553107.620   134282447.418          50.000    25553113.140   100275836.770          50.000  
E36  23425668.220   123102679.867          50.000    23425673.460    91927311.988          50.000  
> 2020  5 29 22 47 21.0000000  0 13       0.000000000000
G 2  23302774.360   122456910.441          50.000                                                  
G 5  21043466.880   110584073.531          50.000                                                  
G12  21294516.520   111903429.027          50.000                                                  
G25  20427852.240   107349022.184          50.000    20427854.940    80163228.406          50.000  
G29  21197060.600   111391292.137          50.000                                                  
G31  24459645.020   128536219.867          50.000                                                  
E 2  23929168.760   125748620.215          50.000    23929172.520    93903180.430          50.000  
E 4  27594292.180   145008959.332          50.000    27594297.000   108285896.152          50.000  
E 9  25546834.760   134249455.820          50.000    25546842.320   100251192.703          50.000  
E11  24478047.520   128633022.539          50.000    24478048.160    96057118.641          50.000  
E25  25289402.020   132896656.543          50.000    25289408.420    99240991.711          50.000  
E30  25552685.460   134280228.922          50.000    25552690.980   100274180.102          50.000  
E36  23425689.000   123102789.137          50.000    23425694.240    91927393.586          50.000  
> 2020  5 29 22 47 22.0000000  0 13       0.000000000000
G 2  23303240.280   122459358.801          50.000                                                  
G 5  21043474.680   110584114.469          50.000                                                  
G12  21295016.620   111906056.980          50.000                                                  
G25  20428034.340   107349979.121          50.000    20428037.040    80163943.004          50.000  
G29  21196776.020   111389796.672          50.000                                                  
G31  24459686.680   128536438.844          50.000                                                  
E 2  23929208.640   125748829.855          50.000    23929212.400    93903336.980          50.000  
E 4  27594110.220   145008003.055          50.000    27594115.020   108285182.051          50.000  
E 9  25546375.080   134247040.246          50.000    25546382.660   100249388.867          50.000  
E11  24478396.640   128634857.227          50.000    24478397.280    96058488.695          50.000  
E25  25289908.500   132899318.113          50.000    25289914.900    99242979.246          50.000  
E30  25552263.340   134278010.715          50.000    25552268.860   100272523.652          50.000  
E36  23425709.820   123102898.566          50.000    23425715.080    91927475.305          50.000  
> 2020  5 29 22 47 23.0000000  0 13       0.000000000000
G 2  23303706.180   122461807.191          50.000                                                  
G 5  21043482.600   110584156.113          50.000                                                  
G12  21295516.780   111908685.395          50.000                                                  
G25  20428216.560   107350936.684          50.000    20428219.260    80164658.063          50.000  
G29  21196491.480   111388301.383          50.000                                                  
G31  24459728.460   128536658.359          50.000                                                  
E 2  23929248.620   125749039.977          50.000    23929252.380    93903493.891          50.000  
E 4  27593928.300   145007047.148          50.000    27593933.120   108284468.227          50.000  
E 9  25545915.420   134244624.738          50.000    25545923.000   100247585.082          50.000  
E11  24478745.780   128636691.918          50.000    24478746.420    96059858.758          50.000  
E25  25290415.020   132901979.938          50.000    25290421.420    99244966.969          50.000  
E30  25551841.280   134275792.813          50.000    25551846.800   100270867.426          50.000  
E36  23425730.680   123103008.164          50.000    23425735.920    91927557.145          50.000  
> 2020  5 29 22 47 24.0000000  0 13       0.000000000000
G 2  23304172.100   122464255.625          50.000                                                  
G 5  21043490.660   110584198.445          50.000                                                  
G12  21296017.040   111911314.270          50.000                                                  
G25  20428398.900   107351894.879          50.000    20428401.600    80165373.594          50.000  
G29  21196206.980   111386806.289          50.000                                                  
G31  24459770.340   128536878.434          50.000                                                  
E 2  23929288.700   125749250.574          50.000    23929292.460    93903651.152          50.000  
E 4  27593746.480   145006091.609          50.000    27593751.280   108283754.676          50.000  
E 9  25545455.780   134242209.289          50.000    25545463.340   100245781.340          50.000  
E11  24479094.900   128638526.625          50.000    24479095.540    96061228.832          50.000  
E25  25290921.600   132904642.004          50.000    25290928.000    99246954.875          50.000  
E30  25551419.280   134273575.195          50.000    25551424.800   100269211.414          50.000  
E36  23425751.560   123103117.902          50.000    23425756.800    91927639.094          50.000  
> 2020  5 29 22 47 25.0000000  0 13       0.000000000000
G 2  23304638.040   122466704.105          50.000                                                  
G 5  21043498.840   110584241.477          50.000                                                  
G12  21296517.400   111913943.613          50.000                                                  
G25  20428581.360   107352853.707          50.000    20428584.060    80166089.598          50.000  
G29  21195922.500   111385311.383          50.000                                                  
G31  24459812.320   128537099.047          50.000                                                  
E 2  23929328.860   125749461.660          50.000    23929332.620    93903808.781          50.000  
E 4  27593564.700   145005136.453          50.000    27593569.520   108283041.410          50.000  
E 9  25544996.140   134239793.906          50.000    25545003.700   100243977.645          50.000  
E11  24479444.040   128640361.352          50.000    24479444.680    96062598.918          50.000  
E25  25291428.220   132907304.328          50.000    25291434.620    99248942.977          50.000  
E30  25550997.340   134271357.883          50.000    25551002.860   100267555.633          50.000  
E36  23425772.480   123103227.816          50.000    23425777.720    91927721.172          50.000  
> 2020  5 29 22 47 26.0000000  0 13       0.000000000000
G 2  23305103.980   122469152.617          50.000                                                  
G 5  21043507.160   110584285.207          50.000                                                  
G12  21297017.840   111916573.426          50.000                                                  
G25  20428763.940   107353813.176          50.000    20428766.640    80166806.082          50.000  
G29  21195638.060   111383816.676          50.000                                                  
G31  24459854.400   128537320.215          50.000                                                  
E 2  23929369.120   125749673.246          50.000    23929372.880    93903966.785          50.000  
E 4  27593383.020   145004181.680          50.000    27593387.840   108282328.430          50.000  
E 9  25544536.520   134237378.594          50.000    25544544.080   100242174.004          50.000  
E11  24479793.180   128642196.109          50.000    24479793.820    96063969.031          50.000  
E25  25291934.900   132909966.910          50.000    25291941.300    99250931.266          50.000  
E30  25550575.460   134269140.871          50.000    25550580.980   100265900.070          50.000  
E36  23425793.420   123103337.895          50.000    23425798.660    91927803.371          50.000  
> 2020  5 29 22 47 27.0000000  0 13       0.000000000000
G 2  23305569.920   122471601.176          50.000                                                  
G 5  21043515.620   110584329.609          50.000                                                  
G12  21297518.360   111919203.680          50.000                                                  
G25  20428946.640   107354773.285          50.000    20428949.340    80167523.039          50.000  
G29  21195353.660   111382322.148          50.000                                                  
G31  24459896.600   128537541.918          50.000                                                  
E 2  23929409.480   125749885.305          50.000    23929413.240    93904125.141          50.000  
E 4  27593201.400   145003227.266          50.000    27593206.220   108281615.719          50.000  
E 9  25544076.900   134234963.336          50.000    25544084.480   100240370.406          50.000  
E11  24480142.320   128644030.875          50.000    24480142.960    96065339.145          50.000  
E25  25292441.600   132912629.734          50.000    25292448.020    99252919.738          50.000  
E30  25550153.620   134266924.152          50.000    25550159.140   100264244.730          50.000  
E36  23425814.400   123103448.129          50.000    23425819.640    91927885.691          50.000  
> 2020  5 29 22 47 28.0000000  0 13       0.000000000000
G 2  23306035.880   122474049.770          50.000                                                  
G 5  21043524.200   110584374.727          50.000                                                  
G12  21298018.960   111921834.410          50.000                                                  
G25  20429129.480   107355734.027          50.000    20429132.160    80168240.473          50.000  
G29  21195069.300   111380827.813          50.000                                                  
G31  24459938.880   128537764.176          50.000                                                  
E 2  23929449.920   125750097.848          50.000    23929453.680    93904283.855          50.000  
E 4  27593019.840   145002273.242          50.000    27593024.660   108280903.301          50.000  
E 9  25543617.300   134232548.145          50.000    25543624.880   100238566.855          50.000  
E11  24480491.480   128645865.684          50.000    24480492.120    96066709.293          50.000  
E25  25292948.380   132915292.813          50.000    25292954.780    99254908.398          50.000  
E30  25549731.840   134264707.727          50.000    25549737.360   100262589.609          50.000  
E36  23425835.400   123103558.520          50.000    23425840.640    91927968.129          50.000  
> 2020  5 29 22 47 29.0000000  0 13       0.000000000000
G 2  23306501.840   122476498.406          50.000                                                  
G 5  21043532.920   110584420.543          50.000                                                  
G12  21298519.660   111924465.594          50.000                                                  
G25  20429312.400   107356695.371          50.000    20429315.100    80168958.355          50.000  
G29  21194784.980   111379333.672          50.000                                                  
G31  24459981.280   128537986.969          50.000                                                  
E 2  23929490.460   125750310.863          50.000    23929494.220    93904442.926          50.000  
E 4  27592838.380   145001319.586          50.000    27592843.180   108280191.152          50.000  
E 9  25543157.720   134230133.023          50.000    25543165.280   100236763.359          50.000  
E11  24480840.640   128647700.516          50.000    24480841.280    96068079.461          50.000  
E25  25293455.180   132917956.145          50.000    25293461.600    99256897.250          50.000  
E30  25549310.120   134262491.598          50.000    25549315.640   100260934.711          50.000  
E36  23425856.440   123103669.074          50.000    23425861.680    91928050.684          50.000  
> 2020  5 29 22 47 30.0000000  0 13       0.000000000000
G 2  23306967.800   122478947.070          50.000                                                  
G 5  21043541.780   110584467.047          50.000                                                  
G12  21299020.440   111927097.234          50.000                                                  
G25  20429495.460   107357657.359          50.000    20429498.160    80169676.719          50.000  
G29  21194500.680   111377839.711          50.000                                                  
G31  24460023.780   128538210.309          50.000                                                  
E 2  23929531.080   125750524.367          50.000    23929534.840    93904602.359          50.000  
E 4  27592656.960   145000366.305          50.000    27592661.780   108279479.289          50.000  
E 9  25542698.140   134227717.949          50.000    25542705.720   100234959.895          50.000  
E11  24481189.780   128649535.363          50.000    24481190.420    96069449.641          50.000  
E25  25293962.040   132920619.723          50.000    25293968.460    99258886.281          50.000  
E30  25548888.460   134260275.773          50.000    25548893.980   100259280.035          50.000  
E36  23425877.500   123103779.781          50.000    23425882.740    91928133.355          50.000  
> 2020  5 29 22 47 31.0000000  0 13       0.000000000000
G 2  23307433.780   122481395.785          50.000                                                  
G 5  21043550.760   110584514.242          50.000                                                  
G12  21299521.320   111929729.344          50.000                                                  
G25  20429678.660   107358619.992          50.000    20429681.340    80170395.563          50.000  
G29  21194216.440   111376345.941          50.000                                                  
G31  24460066.380   128538434.191          50.000                                                  
E 2  23929571.800   125750738.359          50.000    23929575.560    93904762.160          50.000  
E 4  27592475.640   144999413.391          50.000    27592480.440   108278767.699          50.000  
E 9  25542238.580   134225302.949          50.000    25542246.140   100233156.488          50.000  
E11  24481538.940   128651370.215          50.000    24481539.580    96070819.820          50.000  
E25  25294468.960   132923283.547          50.000    25294475.360    99260875.500          50.000  
E30  25548466.860   134258060.246          50.000    25548472.380   100257625.586          50.000  
E36  23425898.600   123103890.656          50.000    23425903.840    91928216.148          50.000  
> 2020  5 29 22 47 32.0000000  0 13       0.000000000000
G 2  23307899.760   122483844.535          50.000                                                  
G 5  21043559.860   110584562.141          50.000                                                  
G12  21300022.280   111932361.922          50.000                                                  
G25  20429861.960   107359583.250          50.000    20429864.660    80171114.875          50.000  
G29  21193932.220   111374852.363          50.000                                                  
G31  24460109.100   128538658.625          50.000                                                  
E 2  23929612.620   125750952.844          50.000    23929616.380    93904922.328          50.000  
E 4  27592294.360   144998460.859          50.000    27592299.180   108278056.395          50.000  
E 9  25541779.020   134222888.016          50.000    25541786.600   100231353.133          50.000  
E11  24481888.120   128653205.094          50.000    24481888.760    96072190.023          50.000  
E25  25294975.920   132925947.633          50.000    25294982.320    99262864.914          50.000  
E30  25548045.320   134255845.008          50.000    25548050.840   100255971.348          50.000  
E36  23425919.720   123104001.691          50.000    23425924.960    91928299.066          50.000  
> 2020  5 29 22 47 33.0000000  0 13       0.000000000000
G 2  23308365.760   122486293.324          50.000                                                  
G 5  21043569.120   110584610.738          50.000                                                  
G12  21300523.340   111934994.949          50.000                                                  
G25  20430045.380   107360547.156          50.000    20430048.080    80171834.672          50.000  
G29  21193648.020   111373358.977          50.000                                                  
G31  24460151.920   128538883.605          50.000                                                  
E 2  23929653.520   125751167.805          50.000    23929657.280    93905082.848          50.000  
E 4  27592113.180   144997508.723          50.000    27592118.000   108277345.383          50.000  
E 9  25541319.500   134220473.164          50.000    25541327.060   100229549.832          50.000  
E11  24482237.280   128655040.008          50.000    24482237.920    96073560.246          50.000  
E25  25295482.920   132928611.977          50.000    25295489.320    99264854.520          50.000  
E30  25547623.820   134253630.070          50.000    25547629.340   100254317.340          50.000  
E36  23425940.880   123104112.895          50.000    23425946.120    91928382.109          50.000  
> 2020  5 29 22 47 34.0000000  0 13       0.000000000000
G 2  23308831.740   122488742.152          50.000                                                  
G 5  21043578.500   110584660.035          50.000                                                  
G12  21301024.480   111937628.449          50.000                                                  
G25  20430228.920   107361511.691          50.000    20430231.620    80172554.938          50.000  
G29  21193363.880   111371865.770          50.000                                                  
G31  24460194.820   128539109.113          50.000                                                  
E 2  23929694.520   125751383.258          50.000    23929698.280    93905243.738          50.000  
E 4  27591932.060   144996556.945          50.000    27591936.880   108276634.637          50.000  
E 9  25540859.960   134218058.352          50.000    25540867.540   100227746.570          50.000  
E11  24482586.460   128656874.941          50.000    24482587.100    96074930.492          50.000  
E25  25295989.980   132931276.559          50.000    25295996.380    99266844.305          50.000  
E30  25547202.400   134251415.438          50.000    25547207.900   100252663.555          50.000  
E36  23425962.060   123104224.246          50.000    23425967.320    91928465.262          50.000  
> 2020  5 29 22 47 35.0000000  0 13       0.000000000000
G 2  23309297.760   122491191.016          50.000                                                  
G 5  21043588.000   110584710.020          50.000                                                  
G12  21301525.700   111940262.402          50.000                                                  
G25  20430412.580   107362476.848          50.000    20430415.280    80173275.668          50.000  
G29  21193079.760   111370372.750          50.000                                                  
G31  24460237.840   128539335.176          50.000                                                  
E 2  23929735.600   125751599.180          50.000    23929739.360    93905404.980          50.000  
E 4  27591751.020   144995605.539          50.000    27591755.820   108275924.176          50.000  
E 9  25540400.460   134215643.609          50.000    25540408.020   100225943.355          50.000  
E11  24482935.640   128658709.895          50.000    24482936.280    96076300.746          50.000  
E25  25296497.080   132933941.395          50.000    25296503.480    99268834.277          50.000  
E30  25546781.020   134249201.086          50.000    25546786.520   100251009.984          50.000  
E36  23425983.280   123104335.766          50.000    23425988.540    91928548.535          50.000  
> 2020  5 29 22 47 36.0000000  0 13       0.000000000000
G 2  23309763.760   122493639.926          50.000                                                  
G 5  21043597.660   110584760.703          50.000                                                  
G12  21302027.020   111942896.816          50.000                                                  
G25  20430596.380   107363442.645          50.000    20430599.080    80173996.875          50.000  
G29  21192795.700   111368879.934          50.000                                                  
G31  24460280.960   128539561.773          50.000                                                  
E 2  23929776.780   125751815.598          50.000    23929780.540    93905566.594          50.000  
E 4  27591570.040   144994654.512          50.000    27591574.840   108275213.992          50.000  
E 9  25539940.960   134213228.941          50.000    25539948.520   100224140.191          50.000  
E11  24483284.820   128660544.875          50.000    24483285.460    96077671.023          50.000  
E25  25297004.220   132936606.488          50.000    25297010.620    99270824.445          50.000  
E30  25546359.700   134246987.039          50.000    25546365.200   100249356.637          50.000  
E36  23426004.540   123104447.441          50.000    23426009.780    91928631.930          50.000  
> 2020  5 29 22 47 37.0000000  0 13       0.000000000000
G 2  23310229.780   122496088.871          50.000                                                  
G 5  21043607.420   110584812.090          50.000                                                  
G12  21302528.420   111945531.688          50.000                                                  
G25  20430780.280   107364409.070          50.000    20430782.980    80174718.551          50.000  
G29  21192511.660   111367387.301          50.000                                                  
G31  24460324.180   128539788.926          50.000                                                  
E 2  23929818.060   125752032.500          50.000    23929821.820    93905728.563          50.000  
E 4  27591389.120   144993703.871          50.000    27591393.940   108274504.098          50.000  
E 9  25539481.460   134210814.340          50.000    25539489.040   100222337.086          50.000  
E11  24483634.000   128662379.863          50.000    24483634.640    96079041.309          50.000  
E25  25297511.420   132939271.832          50.000    25297517.820    99272814.797          50.000  
E30  25545938.420   134244773.289          50.000    25545943.940   100247703.516          50.000  
E36  23426025.820   123104559.277          50.000    23426031.060    91928715.445          50.000  
> 2020  5 29 22 47 38.0000000  0 13       0.000000000000
G 2  23310695.820   122498537.859          50.000                                                  
G 5  21043617.340   110584864.168          50.000                                                  
G12  21303029.900   111948167.020          50.000                                                  
G25  20430964.300   107365376.137          50.000    20430967.000    80175440.707          50.000  
G29  21192227.660   111365894.855          50.000                                                  
G31  24460367.520   128540016.617          50.000                                                  
E 2  23929859.420   125752249.887          50.000    23929863.180    93905890.898          50.000  
E 4  27591208.300   144992753.598          50.000    27591213.120   108273794.480          50.000  
E 9  25539022.000   134208399.793          50.000    25539029.560   100220534.020          50.000  
E11  24483983.200   128664214.887          50.000    24483983.840    96080411.617          50.000  
E25  25298018.660   132941937.410          50.000    25298025.060    99274805.328          50.000  
E30  25545517.220   134242559.836          50.000    25545522.740   100246050.613          50.000  
E36  23426047.120   123104671.273          50.000    23426052.380    91928799.082          50.000  
> 2020  5 29 22 47 39.0000000  0 13       0.000000000000
G 2  23311161.840   122500986.871          50.000                                                  
G 5  21043627.380   110584916.926          50.000                                                  
G12  21303531.480   111950802.816          50.000                                                  
G25  20431148.460   107366343.828          50.000    20431151.160    80176163.328          50.000  
G29  21191943.680   111364402.586          50.000                                                  
G31  24460410.940   128540244.855          50.000                                                  
E 2  23929900.880   125752467.738          50.000    23929904.640    93906053.586          50.000  
E 4  27591027.540   144991803.688          50.000    27591032.340   108273085.137          50.000  
E 9  25538562.520   134205985.297          50.000    25538570.100   100218730.992          50.000  
E11  24484332.380   128666049.902          50.000    24484333.020    96081781.922          50.000  
E25  25298525.960   132944603.234          50.000    25298532.360    99276796.043          50.000  
E30  25545096.060   134240346.676          50.000    25545101.580   100244397.938          50.000  
E36  23426068.460   123104783.426          50.000    23426073.720    91928882.836          50.000  
> 2020  5 29 22 47 40.0000000  0 13       0.000000000000
G 2  23311627.880   122503435.941          50.000                                                  
G 5  21043637.540   110584970.375          50.000                                                  
G12  21304033.140   111953439.070          50.000                                                  
G25  20431332.720   107367312.145          50.000    20431335.420    80176886.418          50.000  
G29  21191659.760   111362910.516          50.000                                                  
G31  24460454.480   128540473.641          50.000                                                  
E 2  23929942.420   125752686.082          50.000    23929946.180    93906216.637          50.000  
E 4  27590846.840   144990854.160          50.000    27590851.660   108272376.082          50.000  
E 9  25538103.080   134203570.879          50.000    25538110.640   100216928.023          50.000  
E11  24484681.600   128667884.969          50.000    24484682.240    96083152.270          50.000  
E25  25299033.300   132947269.320          50.000    25299039.700    99278786.957          50.000  
E30  25544674.980   134238133.824          50.000    25544680.480   100242745.484          50.000  
E36  23426089.840   123104895.734          50.000    23426095.080    91928966.707          50.000  
> 2020  5 29 22 47 41.0000000  0 13       0.000000000000
G 2  23312093.940   122505885.039          50.000                                                  
G 5  21043647.860   110585024.535          50.000                                                  
G12  21304534.880   111956075.789          50.000                                                  
G25  20431517.100   107368281.098          50.000    20431519.800    80177609.980          50.000  
G29  21191375.860   111361418.641          50.000                                                  
G31  24460498.120   128540702.961          50.000                                                  
E 2  23929984.080   125752904.914          50.000    23929987.820    93906380.055          50.000  
E 4  27590666.220   144989905.016          50.000    27590671.040   108271667.309          50.000  
E 9  25537643.640   134201156.523          50.000    25537651.200   100215125.102          50.000  
E11  24485030.800   128669720.051          50.000    24485031.440    96084522.625          50.000  
E25  25299540.680   132949935.656          50.000    25299547.080    99280778.055          50.000  
E30  25544253.940   134235921.250          50.000    25544259.440   100241093.246          50.000  
E36  23426111.240   123105008.203          50.000    23426116.480    91929050.695          50.000  
> 2020  5 29 22 47 42.0000000  0 13       0.000000000000
G 2  23312560.000   122508334.184          50.000                                                  
G 5  21043658.300   110585079.402          50.000                                                  
G12  21305036.720   111958712.969          50.000                                                  
G25  20431701.620   107369250.695          50.000    20431704.320    80178334.027          50.000  
G29  21191092.000   111359926.973          50.000                                                  
G31  24460541.860   128540932.832          50.000                                                  
E 2  23930025.800   125753124.234          50.000    23930029.560    93906543.840          50.000  
E 4  27590485.680   144988956.242          50.000    27590490.500   108270958.816          50.000  
E 9  25537184.220   134198742.254          50.000    25537191.780   100213322.242          50.000  
E11  24485380.000   128671555.168          50.000    24485380.640    96085893.008          50.000  
E25  25300048.120   132952602.254          50.000    25300054.520    99282769.344          50.000  
E30  25543832.960   134233708.980          50.000    25543838.460   100239441.230          50.000  
E36  23426132.680   123105120.844          50.000    23426137.920    91929134.816          50.000  
> 2020  5 29 22 47 43.0000000  0 13       0.000000000000
G 2  23313026.060   122510783.367          50.000                                                  
G 5  21043668.860   110585134.945          50.000                                                  
G12  21305538.660   111961350.598          50.000                                                  
G25  20431886.240   107370220.902          50.000    20431888.940    80179058.531          50.000  
G29  21190808.180   111358435.477          50.000                                                  
G31  24460585.720   128541163.246          50.000                                                  
E 2  23930067.640   125753344.023          50.000    23930071.380    93906707.969          50.000  
E 4  27590305.200   144988007.836          50.000    27590310.020   108270250.594          50.000  
E 9  25536724.800   134196328.020          50.000    25536732.360   100211519.410          50.000  
E11  24485729.220   128673390.281          50.000    24485729.860    96087263.387          50.000  
E25  25300555.600   132955269.066          50.000    25300562.000    99284760.801          50.000  
E30  25543412.020   134231497.016          50.000    25543417.540   100237789.445          50.000  
E36  23426154.140   123105233.633          50.000    23426159.380    91929219.047          50.000  
> 2020  5 29 22 47 44.0000000  0 13       0.000000000000
G 2  23313492.120   122513232.590          50.000                                                  
G 5  21043679.560   110585191.188          50.000                                                  
G12  21306040.660   111963988.691          50.000                                                  
G25  20432070.980   107371191.754          50.000    20432073.700    80179783.512          50.000  
G29  21190524.400   111356944.176          50.000                                                  
G31  24460629.660   128541394.211          50.000                                                  
E 2  23930109.560   125753564.309          50.000    23930113.300    93906872.469          50.000  
E 4  27590124.800   144987059.820          50.000    27590129.620   108269542.664          50.000  
E 9  25536265.400   134193913.871          50.000    25536272.960   100209716.645          50.000  
E11  24486078.440   128675225.426          50.000    24486079.080    96088633.793          50.000  
E25  25301063.120   132957936.148          50.000    25301069.520    99286752.453          50.000  
E30  25542991.160   134229285.355          50.000    25542996.660   100236137.887          50.000  
E36  23426175.640   123105346.582          50.000    23426180.880    91929303.395          50.000  
> 2020  5 29 22 47 45.0000000  0 13       0.000000000000
G 2  23313958.200   122515681.844          50.000                                                  
G 5  21043690.400   110585248.129          50.000                                                  
G12  21306542.760   111966627.242          50.000                                                  
G25  20432255.840   107372163.234          50.000    20432258.560    80180508.969          50.000  
G29  21190240.640   111355453.055          50.000                                                  
G31  24460673.720   128541625.715          50.000                                                  
E 2  23930151.560   125753785.074          50.000    23930155.320    93907037.332          50.000  
E 4  27589944.480   144986112.168          50.000    27589949.280   108268835.008          50.000  
E 9  25535806.020   134191499.777          50.000    25535813.580   100207913.918          50.000  
E11  24486427.660   128677060.582          50.000    24486428.280    96090004.207          50.000  
E25  25301570.700   132960603.488          50.000    25301577.100    99288744.301          50.000  
E30  25542570.360   134227073.980          50.000    25542575.860   100234486.539          50.000  
E36  23426197.160   123105459.691          50.000    23426202.400    91929387.863          50.000  
> 2020  5 29 22 47 46.0000000  0 13       0.000000000000
G 2  23314424.300   122518131.141          50.000                                                  
G 5  21043701.380   110585305.766          50.000                                                  
G12  21307044.960   111969266.258          50.000                                                  
G25  20432440.840   107373135.328          50.000    20432443.540    80181234.883          50.000  
G29  21189956.920   111353962.125          50.000                                                  
G31  24460717.880   128541857.758          50.000                                                  
E 2  23930193.660   125754006.328          50.000    23930197.420    93907202.559          50.000  
E 4  27589764.220   144985164.898          50.000    27589769.020   108268127.633          50.000  
E 9  25535346.640   134189085.742          50.000    25535354.200   100206111.238          50.000  
E11  24486776.880   128678895.777          50.000    24486777.520    96091374.645          50.000  
E25  25302078.320   132963271.070          50.000    25302084.720    99290736.328          50.000  
E30  25542149.600   134224862.902          50.000    25542155.100   100232835.414          50.000  
E36  23426218.720   123105572.961          50.000    23426223.960    91929472.453          50.000  
