     3.03           OBSERVATION DATA    M: Mixed            RINEX VERSION / TYPE
sbp2rinex v2.2 (RTKL                    20210504 171525 UTC PGM / RUN BY / DATE 
log: 2020-06-04-US-MTV-2.sbp                                COMMENT             
format: Swift Navigation SBP, option: CONVBASE,EPHALL,OBSALLCOMMENT             
                                                            MARKER NAME         
                                                            MARKER NUMBER       
                                                            MARKER TYPE         
                                                            OBSERVER / AGENCY   
                                                            REC # / TYPE / VERS 
                                                            ANT # / TYPE        
 -2741955.5197 -4323372.1783  3791312.8546                  APPROX POSITION XYZ 
        0.0000        0.0000        0.0000                  ANTENNA: DELTA H/E/N
G    6 C1C L1C S1C C5I L5I S5I                              SYS / # / OBS TYPES 
E    6 C1B L1B S1B C5I L5I S5I                              SYS / # / OBS TYPES 
  2020     6     4    23    32   38.0000000     GPS         TIME OF FIRST OBS   
  2020     6     4    23    54   59.0000000     GPS         TIME OF LAST OBS    
G                                                           SYS / PHASE SHIFT   
E                                                           SYS / PHASE SHIFT   
  0                                                         GLONASS SLOT / FRQ #
 C1C    0.000 C1P    0.000 C2C    0.000 C2P    0.000        GLONASS COD/PHS/BIS 
                                                            END OF HEADER       
> 2020  6  4 23 32 38.0000000  0 12       0.000000000000
G 5  22167781.060   116492387.121          50.000                                                  
G12  23990899.560   126072993.242          50.000                                                  
G13  24603751.100   129293603.930          50.000                                                  
G15  23947889.660   125846789.621          50.000                                                  
G20  23490366.220   123442667.078          50.000                                                  
G21  22989456.020   120810405.430          50.000                                                  
G25  22125349.900   116269419.688          50.000    22125353.580    86824560.305          50.000  
G26  23360720.960   122761323.395          50.000    23360723.060    91672406.563          50.000  
G29  20410749.440   107259205.027          50.000                                                  
E 5  26548680.920   139514214.695          50.000    26548686.440   104182676.125          50.000  
E15  23493140.060   123457249.719          50.000    23493145.340    92192089.160          50.000  
E30  25071207.920   131750023.035          50.000    25071214.480    98384733.945          50.000  
> 2020  6  4 23 32 39.0000000  0 12       0.000000000000
G 5  22168270.720   116494960.281          50.000                                                  
G12  23991625.620   126076808.719          50.000                                                  
G13  24603316.400   129291319.602          50.000                                                  
G15  23947327.780   125843836.926          50.000                                                  
G20  23489705.880   123439197.027          50.000                                                  
G21  22989125.120   120808666.531          50.000                                                  
G25  22125940.580   116272523.691          50.000    22125944.240    86826878.230          50.000  
G26  23360280.860   122759010.676          50.000    23360282.960    91670679.535          50.000  
G29  20410692.320   107258904.824          50.000                                                  
E 5  26548663.020   139514120.641          50.000    26548668.540   104182605.895          50.000  
E15  23493112.040   123457102.547          50.000    23493117.340    92191979.262          50.000  
E30  25071773.440   131752994.859          50.000    25071780.000    98386953.164          50.000  
> 2020  6  4 23 32 40.0000000  0 12       0.000000000000
G 5  22168760.460   116497533.891          50.000                                                  
G12  23992351.700   126080624.277          50.000                                                  
G13  24602881.760   129289035.488          50.000                                                  
G15  23946765.920   125840884.344          50.000                                                  
G20  23489045.580   123435727.148          50.000                                                  
G21  22988794.240   120806927.840          50.000                                                  
G25  22126531.320   116275628.023          50.000    22126534.980    86829196.395          50.000  
G26  23359840.840   122756698.422          50.000    23359842.940    91668952.852          50.000  
G29  20410635.260   107258605.000          50.000                                                  
E 5  26548645.220   139514027.043          50.000    26548650.720   104182535.996          50.000  
E15  23493084.060   123456955.469          50.000    23493089.360    92191869.430          50.000  
E30  25072338.980   131755966.809          50.000    25072345.560    98389172.473          50.000  
> 2020  6  4 23 32 41.0000000  0 12       0.000000000000
G 5  22169250.280   116500107.945          50.000                                                  
G12  23993077.800   126084439.926          50.000                                                  
G13  24602447.140   129286751.594          50.000                                                  
G15  23946204.080   125837931.863          50.000                                                  
G20  23488385.320   123432257.441          50.000                                                  
G21  22988463.420   120805189.348          50.000                                                  
G25  22127122.120   116278732.699          50.000    22127125.780    86831514.824          50.000  
G26  23359400.920   122754386.633          50.000    23359403.020    91667226.516          50.000  
G29  20410578.280   107258305.543          50.000                                                  
E 5  26548627.480   139513933.895          50.000    26548633.000   104182466.441          50.000  
E15  23493056.100   123456808.496          50.000    23493061.380    92191759.680          50.000  
E30  25072904.540   131758938.852          50.000    25072911.120    98391391.855          50.000  
> 2020  6  4 23 32 42.0000000  0 12       0.000000000000
G 5  22169740.200   116502682.457          50.000                                                  
G12  23993803.920   126088255.648          50.000                                                  
G13  24602012.580   129284467.922          50.000                                                  
G15  23945642.260   125834979.465          50.000                                                  
G20  23487725.100   123428787.906          50.000                                                  
G21  22988132.640   120803451.043          50.000                                                  
G25  22127712.980   116281837.727          50.000    22127716.660    86833833.508          50.000  
G26  23358961.100   122752075.301          50.000    23358963.200    91665500.523          50.000  
G29  20410521.360   107258006.461          50.000                                                  
E 5  26548609.840   139513841.199          50.000    26548615.360   104182397.219          50.000  
E15  23493028.140   123456661.625          50.000    23493033.440    92191650.004          50.000  
E30  25073470.140   131761911.004          50.000    25073476.700    98393611.316          50.000  
> 2020  6  4 23 32 43.0000000  0 12       0.000000000000
G 5  22170230.200   116505257.410          50.000                                                  
G12  23994530.040   126092071.473          50.000                                                  
G13  24601578.040   129282184.469          50.000                                                  
G15  23945080.460   125832027.184          50.000                                                  
G20  23487064.900   123425318.559          50.000                                                  
G21  22987801.880   120801712.941          50.000                                                  
G25  22128303.920   116284943.074          50.000    22128307.580    86836152.438          50.000  
G26  23358521.360   122749764.441          50.000    23358523.460    91663774.883          50.000  
G29  20410464.520   107257707.758          50.000                                                  
E 5  26548592.300   139513748.957          50.000    26548597.800   104182328.340          50.000  
E15  23493000.220   123456514.848          50.000    23493005.500    92191540.395          50.000  
E30  25074035.740   131764883.266          50.000    25074042.300    98395830.863          50.000  
> 2020  6  4 23 32 44.0000000  0 12       0.000000000000
G 5  22170720.280   116507832.820          50.000                                                  
G12  23995256.180   126095887.367          50.000                                                  
G13  24601143.560   129279901.238          50.000                                                  
G15  23944518.680   125829075.008          50.000                                                  
G20  23486404.740   123421849.379          50.000                                                  
G21  22987471.180   120799975.031          50.000                                                  
G25  22128894.920   116288048.758          50.000    22128898.580    86838471.617          50.000  
G26  23358081.700   122747454.047          50.000    23358083.800    91662049.586          50.000  
G29  20410407.760   107257409.434          50.000                                                  
E 5  26548574.820   139513657.168          50.000    26548580.340   104182259.793          50.000  
E15  23492972.300   123456368.172          50.000    23492977.600    92191430.867          50.000  
E30  25074601.360   131767855.637          50.000    25074607.920    98398050.484          50.000  
> 2020  6  4 23 32 45.0000000  0 12       0.000000000000
G 5  22171210.460   116510408.672          50.000                                                  
G12  23995982.340   126099703.352          50.000                                                  
G13  24600709.120   129277618.219          50.000                                                  
G15  23943956.920   125826122.934          50.000                                                  
G20  23485744.600   123418380.375          50.000                                                  
G21  22987140.500   120798237.332          50.000                                                  
G25  22129485.960   116291154.781          50.000    22129489.640    86840791.047          50.000  
G26  23357642.140   122745144.117          50.000    23357644.240    91660324.641          50.000  
G29  20410351.060   107257111.473          50.000                                                  
E 5  26548557.440   139513565.836          50.000    26548562.960   104182191.594          50.000  
E15  23492944.420   123456221.605          50.000    23492949.700    92191321.414          50.000  
E30  25075167.000   131770828.125          50.000    25075173.580    98400270.199          50.000  
> 2020  6  4 23 32 46.0000000  0 12       0.000000000000
G 5  22171700.700   116512984.973          50.000                                                  
G12  23996708.520   126103519.406          50.000                                                  
G13  24600274.720   129275335.418          50.000                                                  
G15  23943395.180   125823170.961          50.000                                                  
G20  23485084.500   123414911.551          50.000                                                  
G21  22986809.860   120796499.832          50.000                                                  
G25  22130077.080   116294261.129          50.000    22130080.760    86843110.719          50.000  
G26  23357202.660   122742834.652          50.000    23357204.760    91658600.043          50.000  
G29  20410294.420   107256813.891          50.000                                                  
E 5  26548540.140   139513474.949          50.000    26548545.660   104182123.723          50.000  
E15  23492916.540   123456075.129          50.000    23492921.840    92191212.035          50.000  
E30  25075732.680   131773800.707          50.000    25075739.240    98402489.984          50.000  
> 2020  6  4 23 32 47.0000000  0 12       0.000000000000
G 5  22172191.040   116515561.723          50.000                                                  
G12  23997434.700   126107335.551          50.000                                                  
G13  24599840.340   129273052.832          50.000                                                  
G15  23942833.460   125820219.094          50.000                                                  
G20  23484424.440   123411442.898          50.000                                                  
G21  22986479.260   120794762.531          50.000                                                  
G25  22130668.280   116297367.836          50.000    22130671.940    86845430.664          50.000  
G26  23356763.260   122740525.660          50.000    23356765.360    91656875.797          50.000  
G29  20410237.860   107256516.672          50.000                                                  
E 5  26548522.940   139513384.527          50.000    26548528.460   104182056.199          50.000  
E15  23492888.680   123455928.758          50.000    23492893.980    92191102.730          50.000  
E30  25076298.360   131776773.406          50.000    25076304.920    98404709.852          50.000  
> 2020  6  4 23 32 48.0000000  0 12       0.000000000000
G 5  22172681.460   116518138.918          50.000                                                  
G12  23998160.900   126111151.777          50.000                                                  
G13  24599406.020   129270770.469          50.000                                                  
G15  23942271.740   125817267.328          50.000                                                  
G20  23483764.400   123407974.430          50.000                                                  
G21  22986148.700   120793025.430          50.000                                                  
G25  22131259.520   116300474.867          50.000    22131263.200    86847750.848          50.000  
G26  23356323.960   122738217.129          50.000    23356326.060    91655151.895          50.000  
G29  20410181.380   107256219.828          50.000                                                  
E 5  26548505.820   139513294.547          50.000    26548511.340   104181989.008          50.000  
E15  23492860.840   123455782.488          50.000    23492866.140    92190993.504          50.000  
E30  25076864.060   131779746.195          50.000    25076870.640    98406929.793          50.000  
> 2020  6  4 23 32 49.0000000  0 12       0.000000000000
G 5  22173171.980   116520716.563          50.000                                                  
G12  23998887.140   126114968.109          50.000                                                  
G13  24598971.740   129268488.324          50.000                                                  
G15  23941710.060   125814315.676          50.000                                                  
G20  23483104.420   123404506.125          50.000                                                  
G21  22985818.180   120791288.523          50.000                                                  
G25  22131850.840   116303582.234          50.000    22131854.500    86850071.281          50.000  
G26  23355884.760   122735909.055          50.000    23355886.860    91653428.332          50.000  
G29  20410124.960   107255923.359          50.000                                                  
E 5  26548488.780   139513205.031          50.000    26548494.300   104181922.160          50.000  
E15  23492833.040   123455636.316          50.000    23492838.320    92190884.352          50.000  
E30  25077429.780   131782719.102          50.000    25077436.360    98409149.816          50.000  
> 2020  6  4 23 32 50.0000000  0 12       0.000000000000
G 5  22173662.580   116523294.652          50.000                                                  
G12  23999613.380   126118784.512          50.000                                                  
G13  24598537.520   129266206.402          50.000                                                  
G15  23941148.400   125811364.117          50.000                                                  
G20  23482444.440   123401038.004          50.000                                                  
G21  22985487.700   120789551.816          50.000                                                  
G25  22132442.220   116306689.938          50.000    22132445.880    86852391.969          50.000  
G26  23355445.640   122733601.457          50.000    23355447.740    91651705.125          50.000  
G29  20410068.620   107255627.262          50.000                                                  
E 5  26548471.840   139513115.957          50.000    26548477.340   104181855.645          50.000  
E15  23492805.240   123455490.242          50.000    23492810.540    92190775.270          50.000  
E30  25077995.540   131785692.125          50.000    25078002.100    98411369.930          50.000  
> 2020  6  4 23 32 51.0000000  0 12       0.000000000000
G 5  22174153.260   116525873.199          50.000                                                  
G12  24000339.620   126122601.016          50.000                                                  
G13  24598103.320   129263924.703          50.000                                                  
G15  23940586.760   125808412.656          50.000                                                  
G20  23481784.520   123397570.059          50.000                                                  
G21  22985157.240   120787815.301          50.000                                                  
G25  22133033.660   116309797.977          50.000    22133037.320    86854712.906          50.000  
G26  23355006.600   122731294.316          50.000    23355008.700    91649982.266          50.000  
G29  20410012.340   107255331.543          50.000                                                  
E 5  26548454.980   139513027.344          50.000    26548460.480   104181789.473          50.000  
E15  23492777.460   123455344.273          50.000    23492782.760    92190666.266          50.000  
E30  25078561.300   131788665.242          50.000    25078567.880    98413590.113          50.000  
> 2020  6  4 23 32 52.0000000  0 12       0.000000000000
G 5  22174644.020   116528452.191          50.000                                                  
G12  24001065.900   126126417.574          50.000                                                  
G13  24597669.160   129261643.219          50.000                                                  
G15  23940025.140   125805461.301          50.000                                                  
G20  23481124.620   123394102.289          50.000                                                  
G21  22984826.840   120786078.996          50.000                                                  
G25  22133625.160   116312906.352          50.000    22133628.840    86857034.090          50.000  
G26  23354567.660   122728987.648          50.000    23354569.760    91648259.754          50.000  
G29  20409956.140   107255036.199          50.000                                                  
E 5  26548438.200   139512939.176          50.000    26548443.700   104181723.633          50.000  
E15  23492749.700   123455198.410          50.000    23492755.000    92190557.344          50.000  
E30  25079127.100   131791638.469          50.000    25079133.660    98415810.379          50.000  
> 2020  6  4 23 32 53.0000000  0 12       0.000000000000
G 5  22175134.880   116531031.629          50.000                                                  
G12  24001792.180   126130234.227          50.000                                                  
G13  24597235.060   129259361.961          50.000                                                  
G15  23939463.520   125802510.043          50.000                                                  
G20  23480464.760   123390634.688          50.000                                                  
G21  22984496.460   120784342.887          50.000                                                  
G25  22134216.740   116316015.066          50.000    22134220.400    86859355.531          50.000  
G26  23354128.800   122726681.438          50.000    23354130.900    91646537.582          50.000  
G29  20409900.020   107254741.230          50.000                                                  
E 5  26548421.500   139512851.461          50.000    26548427.020   104181658.129          50.000  
E15  23492721.960   123455052.637          50.000    23492727.260    92190448.488          50.000  
E30  25079692.900   131794611.805          50.000    25079699.480    98418030.727          50.000  
> 2020  6  4 23 32 54.0000000  0 12       0.000000000000
G 5  22175625.800   116533611.520          50.000                                                  
G12  24002518.480   126134050.953          50.000                                                  
G13  24596800.980   129257080.914          50.000                                                  
G15  23938901.940   125799558.887          50.000                                                  
G20  23479804.920   123387167.262          50.000                                                  
G21  22984166.140   120782606.973          50.000                                                  
G25  22134808.360   116319124.105          50.000    22134812.040    86861677.215          50.000  
G26  23353690.040   122724375.707          50.000    23353692.120    91644815.773          50.000  
G29  20409843.960   107254446.629          50.000                                                  
E 5  26548404.900   139512764.207          50.000    26548410.420   104181592.973          50.000  
E15  23492694.240   123454906.969          50.000    23492699.540    92190339.707          50.000  
E30  25080258.720   131797585.246          50.000    25080265.300    98420251.148          50.000  
> 2020  6  4 23 32 55.0000000  0 12       0.000000000000
G 5  22176116.820   116536191.848          50.000                                                  
G12  24003244.800   126137867.762          50.000                                                  
G13  24596366.960   129254800.094          50.000                                                  
G15  23938340.360   125796607.840          50.000                                                  
G20  23479145.140   123383700.016          50.000                                                  
G21  22983835.840   120780871.242          50.000                                                  
G25  22135400.060   116322233.480          50.000    22135403.720    86863999.152          50.000  
G26  23353251.360   122722070.434          50.000    23353253.440    91643094.305          50.000  
G29  20409787.960   107254152.402          50.000                                                  
E 5  26548388.380   139512677.406          50.000    26548393.900   104181528.156          50.000  
E15  23492666.540   123454761.398          50.000    23492671.840    92190231.004          50.000  
E30  25080824.580   131800558.789          50.000    25080831.160    98422471.652          50.000  
> 2020  6  4 23 32 56.0000000  0 12       0.000000000000
G 5  22176607.940   116538772.629          50.000                                                  
G12  24003971.140   126141684.656          50.000                                                  
G13  24595932.980   129252519.492          50.000                                                  
G15  23937778.820   125793656.902          50.000                                                  
G20  23478485.360   123380232.953          50.000                                                  
G21  22983505.580   120779135.723          50.000                                                  
G25  22135991.820   116325343.195          50.000    22135995.480    86866321.336          50.000  
G26  23352812.760   122719765.629          50.000    23352814.860    91641373.184          50.000  
G29  20409732.040   107253858.563          50.000                                                  
E 5  26548371.940   139512591.051          50.000    26548377.460   104181463.672          50.000  
E15  23492638.860   123454615.941          50.000    23492644.160    92190122.383          50.000  
E30  25081390.440   131803532.441          50.000    25081397.020    98424692.234          50.000  
> 2020  6  4 23 32 57.0000000  0 12       0.000000000000
G 5  22177099.120   116541353.855          50.000                                                  
G12  24004697.480   126145501.629          50.000                                                  
G13  24595499.040   129250239.113          50.000                                                  
G15  23937217.300   125790706.055          50.000                                                  
G20  23477825.640   123376766.082          50.000                                                  
G21  22983175.360   120777400.426          50.000                                                  
G25  22136583.640   116328453.246          50.000    22136587.320    86868643.766          50.000  
G26  23352374.260   122717461.297          50.000    23352376.360    91639652.410          50.000  
G29  20409676.200   107253565.086          50.000                                                  
E 5  26548355.600   139512505.152          50.000    26548361.120   104181399.523          50.000  
E15  23492611.200   123454470.574          50.000    23492616.500    92190013.828          50.000  
E30  25081956.340   131806506.203          50.000    25081962.900    98426912.898          50.000  
> 2020  6  4 23 32 58.0000000  0 12       0.000000000000
G 5  22177590.400   116543935.520          50.000                                                  
G12  24005423.840   126149318.676          50.000                                                  
G13  24595065.140   129247958.957          50.000                                                  
G15  23936655.780   125787755.316          50.000                                                  
G20  23477165.940   123373299.367          50.000                                                  
G21  22982845.160   120775665.305          50.000                                                  
G25  22137175.520   116331563.617          50.000    22137179.200    86870966.449          50.000  
G26  23351935.840   122715157.410          50.000    23351937.940    91637931.980          50.000  
G29  20409620.420   107253271.977          50.000                                                  
E 5  26548339.340   139512419.707          50.000    26548344.860   104181335.719          50.000  
E15  23492583.560   123454325.297          50.000    23492588.840    92189905.344          50.000  
E30  25082522.240   131809480.074          50.000    25082528.820    98429133.645          50.000  
> 2020  6  4 23 32 59.0000000  0 12       0.000000000000
G 5  22178081.760   116546517.641          50.000                                                  
G12  24006150.220   126153135.805          50.000                                                  
G13  24594631.280   129245679.012          50.000                                                  
G15  23936094.300   125784804.695          50.000                                                  
G20  23476506.280   123369832.832          50.000                                                  
G21  22982515.020   120773930.383          50.000                                                  
G25  22137767.480   116334674.336          50.000    22137771.160    86873289.387          50.000  
G26  23351497.520   122712854.012          50.000    23351499.620    91636211.914          50.000  
G29  20409564.720   107252979.262          50.000                                                  
E 5  26548323.160   139512334.715          50.000    26548328.680   104181272.250          50.000  
E15  23492555.940   123454180.141          50.000    23492561.220    92189796.945          50.000  
E30  25083088.180   131812454.059          50.000    25083094.760    98431354.473          50.000  
> 2020  6  4 23 33  0.0000000  0 12       0.000000000000
G 5  22178573.220   116549100.215          50.000                                                  
G12  24006876.620   126156953.023          50.000                                                  
G13  24594197.460   129243399.289          50.000                                                  
G15  23935532.840   125781854.168          50.000                                                  
G20  23475846.660   123366366.488          50.000                                                  
G21  22982184.920   120772195.664          50.000                                                  
G25  22138359.500   116337785.391          50.000    22138363.160    86875612.578          50.000  
G26  23351059.280   122710551.070          50.000    23351061.380    91634492.184          50.000  
G29  20409509.080   107252686.906          50.000                                                  
E 5  26548307.080   139512250.176          50.000    26548312.600   104181209.121          50.000  
E15  23492528.320   123454035.074          50.000    23492533.620    92189688.617          50.000  
E30  25083654.120   131815428.133          50.000    25083660.700    98433575.371          50.000  
> 2020  6  4 23 33  1.0000000  0 12       0.000000000000
G 5  22179064.740   116551683.227          50.000                                                  
G12  24007603.020   126160770.328          50.000                                                  
G13  24593763.680   129241119.797          50.000                                                  
G15  23934971.380   125778903.750          50.000                                                  
G20  23475187.060   123362900.301          50.000                                                  
G21  22981854.840   120770461.133          50.000                                                  
G25  22138951.580   116340896.777          50.000    22138955.240    86877936.012          50.000  
G26  23350621.140   122708248.609          50.000    23350623.240    91632772.816          50.000  
G29  20409453.520   107252394.930          50.000                                                  
E 5  26548291.080   139512166.090          50.000    26548296.600   104181146.332          50.000  
E15  23492500.740   123453890.113          50.000    23492506.040    92189580.367          50.000  
E30  25084220.100   131818402.328          50.000    25084226.680    98435796.359          50.000  
> 2020  6  4 23 33  2.0000000  0 12       0.000000000000
G 5  22179556.360   116554266.688          50.000                                                  
G12  24008329.440   126164587.707          50.000                                                  
G13  24593329.940   129238840.512          50.000                                                  
G15  23934409.960   125775953.438          50.000                                                  
G20  23474527.500   123359434.305          50.000                                                  
G21  22981524.820   120768726.813          50.000                                                  
G25  22139543.720   116344008.504          50.000    22139547.400    86880259.703          50.000  
G26  23350183.080   122705946.590          50.000    23350185.180    91631053.777          50.000  
G29  20409398.040   107252103.324          50.000                                                  
E 5  26548275.160   139512082.461          50.000    26548280.680   104181083.879          50.000  
E15  23492473.180   123453745.246          50.000    23492478.460    92189472.188          50.000  
E30  25084786.080   131821376.613          50.000    25084792.660    98438017.414          50.000  
> 2020  6  4 23 33  3.0000000  0 12       0.000000000000
G 5  22180048.060   116556850.590          50.000                                                  
G12  24009055.880   126168405.145          50.000                                                  
G13  24592896.260   129236561.453          50.000                                                  
G15  23933848.560   125773003.227          50.000                                                  
G20  23473867.980   123355968.492          50.000                                                  
G21  22981194.820   120766992.699          50.000                                                  
G25  22140135.920   116347120.555          50.000    22140139.600    86882583.637          50.000  
G26  23349745.120   122703645.051          50.000    23349747.200    91629335.094          50.000  
G29  20409342.620   107251812.113          50.000                                                  
E 5  26548259.340   139511999.281          50.000    26548264.840   104181021.766          50.000  
E15  23492445.620   123453600.488          50.000    23492450.920    92189364.090          50.000  
E30  25085352.100   131824351.016          50.000    25085358.680    98440238.559          50.000  
> 2020  6  4 23 33  4.0000000  0 12       0.000000000000
G 5  22180539.860   116559434.949          50.000                                                  
G12  24009782.340   126172222.688          50.000                                                  
G13  24592462.600   129234282.609          50.000                                                  
G15  23933287.160   125770053.129          50.000                                                  
G20  23473208.500   123352502.848          50.000                                                  
G21  22980864.860   120765258.777          50.000                                                  
G25  22140728.200   116350232.953          50.000    22140731.860    86884907.832          50.000  
G26  23349307.240   122701343.984          50.000    23349309.320    91627616.770          50.000  
G29  20409287.280   107251521.258          50.000                                                  
E 5  26548243.600   139511916.555          50.000    26548249.100   104180959.988          50.000  
E15  23492418.100   123453455.824          50.000    23492423.400    92189256.063          50.000  
E30  25085918.120   131827325.527          50.000    25085924.700    98442459.785          50.000  
> 2020  6  4 23 33  5.0000000  0 12       0.000000000000
G 5  22181031.720   116562019.750          50.000                                                  
G12  24010508.800   126176040.313          50.000                                                  
G13  24592029.000   129232003.988          50.000                                                  
G15  23932725.800   125767103.117          50.000                                                  
G20  23472549.040   123349037.379          50.000                                                  
G21  22980534.960   120763525.055          50.000                                                  
G25  22141320.520   116353345.684          50.000    22141324.200    86887232.270          50.000  
G26  23348869.440   122699043.379          50.000    23348871.540    91625898.781          50.000  
G29  20409232.000   107251230.797          50.000                                                  
E 5  26548227.940   139511834.285          50.000    26548233.460   104180898.555          50.000  
E15  23492390.600   123453311.270          50.000    23492395.880    92189148.117          50.000  
E30  25086484.180   131830300.145          50.000    25086490.760    98444681.086          50.000  
> 2020  6  4 23 33  6.0000000  0 12       0.000000000000
G 5  22181523.680   116564604.996          50.000                                                  
G12  24011235.300   126179858.012          50.000                                                  
G13  24591595.420   129229725.586          50.000                                                  
G15  23932164.440   125764153.227          50.000                                                  
G20  23471889.600   123345572.082          50.000                                                  
G21  22980205.080   120761791.520          50.000                                                  
G25  22141912.920   116356458.750          50.000    22141916.600    86889556.961          50.000  
G26  23348431.740   122696743.242          50.000    23348433.840    91624181.148          50.000  
G29  20409176.800   107250940.691          50.000                                                  
E 5  26548212.360   139511752.457          50.000    26548217.880   104180837.449          50.000  
E15  23492363.100   123453166.801          50.000    23492368.400    92189040.234          50.000  
E30  25087050.260   131833274.863          50.000    25087056.840    98446902.465          50.000  
> 2020  6  4 23 33  7.0000000  0 12       0.000000000000
G 5  22182015.720   116567190.699          50.000                                                  
G12  24011961.800   126183675.797          50.000                                                  
G13  24591161.900   129227447.410          50.000                                                  
G15  23931603.120   125761203.434          50.000                                                  
G20  23471230.220   123342106.965          50.000                                                  
G21  22979875.220   120760058.191          50.000                                                  
G25  22142505.380   116359572.148          50.000    22142509.060    86891881.898          50.000  
G26  23347994.120   122694443.574          50.000    23347996.220    91622463.863          50.000  
G29  20409121.660   107250650.969          50.000                                                  
E 5  26548196.880   139511671.098          50.000    26548202.400   104180776.691          50.000  
E15  23492335.620   123453022.445          50.000    23492340.920    92188932.434          50.000  
E30  25087616.340   131836249.691          50.000    25087622.920    98449123.926          50.000  
> 2020  6  4 23 33  8.0000000  0 12       0.000000000000
G 5  22182507.860   116569776.844          50.000                                                  
G12  24012688.320   126187493.660          50.000                                                  
G13  24590728.420   129225169.453          50.000                                                  
G15  23931041.820   125758253.754          50.000                                                  
G20  23470570.860   123338642.031          50.000                                                  
G21  22979545.420   120758325.059          50.000                                                  
G25  22143097.920   116362685.883          50.000    22143101.580    86894207.090          50.000  
G26  23347556.600   122692144.359          50.000    23347558.700    91620746.922          50.000  
G29  20409066.600   107250361.613          50.000                                                  
E 5  26548181.480   139511590.184          50.000    26548187.000   104180716.270          50.000  
E15  23492308.180   123452878.188          50.000    23492313.480    92188824.711          50.000  
E30  25088182.460   131839224.625          50.000    25088189.040    98451345.465          50.000  
> 2020  6  4 23 33  9.0000000  0 12       0.000000000000
G 5  22183000.060   116572363.445          50.000                                                  
G12  24013414.840   126191311.602          50.000                                                  
G13  24590294.980   129222891.719          50.000                                                  
G15  23930480.520   125755304.180          50.000                                                  
G20  23469911.540   123335177.266          50.000                                                  
G21  22979215.660   120756592.121          50.000                                                  
G25  22143690.500   116365799.926          50.000    22143694.180    86896532.512          50.000  
G26  23347119.160   122689845.621          50.000    23347121.260    91619030.332          50.000  
G29  20409011.600   107250072.637          50.000                                                  
E 5  26548166.180   139511509.727          50.000    26548171.680   104180656.191          50.000  
E15  23492280.740   123452734.031          50.000    23492286.040    92188717.063          50.000  
E30  25088748.580   131842199.660          50.000    25088755.160    98453567.078          50.000  
> 2020  6  4 23 33 10.0000000  0 12       0.000000000000
G 5  22183492.360   116574950.492          50.000                                                  
G12  24014141.400   126195129.629          50.000                                                  
G13  24589861.580   129220614.203          50.000                                                  
G15  23929919.260   125752354.703          50.000                                                  
G20  23469252.240   123331712.676          50.000                                                  
G21  22978885.920   120754859.391          50.000                                                  
G25  22144283.140   116368914.340          50.000    22144286.820    86898858.207          50.000  
G26  23346681.820   122687547.352          50.000    23346683.920    91617314.090          50.000  
G29  20408956.680   107249784.023          50.000                                                  
E 5  26548150.960   139511429.715          50.000    26548156.460   104180596.441          50.000  
E15  23492253.340   123452589.969          50.000    23492258.620    92188609.480          50.000  
E30  25089314.740   131845174.797          50.000    25089321.320    98455788.773          50.000  
> 2020  6  4 23 33 11.0000000  0 12       0.000000000000
G 5  22183984.740   116577537.980          50.000                                                  
G12  24014867.960   126198947.734          50.000                                                  
G13  24589428.240   129218336.906          50.000                                                  
G15  23929358.020   125749405.344          50.000                                                  
G20  23468592.980   123328248.262          50.000                                                  
G21  22978556.240   120753126.848          50.000                                                  
G25  22144875.860   116372029.066          50.000    22144879.540    86901184.137          50.000  
G26  23346244.560   122685249.555          50.000    23346246.660    91615598.203          50.000  
G29  20408901.840   107249495.805          50.000                                                  
E 5  26548135.820   139511350.172          50.000    26548141.320   104180537.043          50.000  
E15  23492225.940   123452446.004          50.000    23492231.220    92188501.977          50.000  
E30  25089880.920   131848150.047          50.000    25089887.500    98458010.547          50.000  
> 2020  6  4 23 33 12.0000000  0 12       0.000000000000
G 5  22184477.220   116580125.926          50.000                                                  
G12  24015594.540   126202765.914          50.000                                                  
G13  24588994.920   129216059.844          50.000                                                  
G15  23928796.780   125746456.078          50.000                                                  
G20  23467933.760   123324784.039          50.000                                                  
G21  22978226.580   120751394.516          50.000                                                  
G25  22145468.640   116375144.141          50.000    22145472.320    86903510.328          50.000  
G26  23345807.400   122682952.207          50.000    23345809.480    91613882.656          50.000  
G29  20408847.060   107249207.949          50.000                                                  
E 5  26548120.760   139511271.070          50.000    26548126.280   104180477.977          50.000  
E15  23492198.560   123452302.156          50.000    23492203.860    92188394.559          50.000  
E30  25090447.100   131851125.398          50.000    25090453.680    98460232.398          50.000  
> 2020  6  4 23 33 13.0000000  0 12       0.000000000000
G 5  22184969.780   116582714.313          50.000                                                  
G12  24016321.120   126206584.176          50.000                                                  
G13  24588561.640   129213783.000          50.000                                                  
G15  23928235.580   125743506.926          50.000                                                  
G20  23467274.580   123321319.980          50.000                                                  
G21  22977896.960   120749662.379          50.000                                                  
G25  22146061.480   116378259.547          50.000    22146065.160    86905836.766          50.000  
G26  23345370.320   122680655.352          50.000    23345372.400    91612167.469          50.000  
G29  20408792.360   107248920.480          50.000                                                  
E 5  26548105.800   139511192.426          50.000    26548111.300   104180419.246          50.000  
E15  23492171.200   123452158.395          50.000    23492176.500    92188287.203          50.000  
E30  25091013.320   131854100.871          50.000    25091019.900    98462454.340          50.000  
> 2020  6  4 23 33 14.0000000  0 12       0.000000000000
G 5  22185462.400   116585303.141          50.000                                                  
G12  24017047.740   126210402.531          50.000                                                  
G13  24588128.420   129211506.387          50.000                                                  
G15  23927674.400   125740557.879          50.000                                                  
G20  23466615.420   123317856.117          50.000                                                  
G21  22977567.380   120747930.445          50.000                                                  
G25  22146654.380   116381375.270          50.000    22146658.060    86908163.438          50.000  
G26  23344933.320   122678358.941          50.000    23344935.420    91610452.621          50.000  
G29  20408737.720   107248633.379          50.000                                                  
E 5  26548090.920   139511114.234          50.000    26548096.420   104180360.855          50.000  
E15  23492143.860   123452014.734          50.000    23492149.160    92188179.926          50.000  
E30  25091579.540   131857076.438          50.000    25091586.140    98464676.352          50.000  
> 2020  6  4 23 33 15.0000000  0 12       0.000000000000
G 5  22185955.140   116587892.406          50.000                                                  
G12  24017774.360   126214220.953          50.000                                                  
G13  24587695.240   129209229.984          50.000                                                  
G15  23927113.220   125737608.953          50.000                                                  
G20  23465956.300   123314392.426          50.000                                                  
G21  22977237.840   120746198.703          50.000                                                  
G25  22147247.360   116384491.332          50.000    22147251.040    86910490.367          50.000  
G26  23344496.420   122676063.020          50.000    23344498.520    91608738.133          50.000  
G29  20408683.160   107248346.660          50.000                                                  
E 5  26548076.120   139511036.496          50.000    26548081.640   104180302.809          50.000  
E15  23492116.540   123451871.176          50.000    23492121.840    92188072.723          50.000  
E30  25092145.800   131860052.105          50.000    25092152.380    98466898.441          50.000  
> 2020  6  4 23 33 16.0000000  0 12       0.000000000000
G 5  22186447.940   116590482.121          50.000                                                  
G12  24018501.000   126218039.461          50.000                                                  
G13  24587262.100   129206953.809          50.000                                                  
G15  23926552.080   125734660.109          50.000                                                  
G20  23465297.220   123310928.910          50.000                                                  
G21  22976908.340   120744467.160          50.000                                                  
G25  22147840.380   116387607.727          50.000    22147844.060    86912817.543          50.000  
G26  23344059.600   122673767.559          50.000    23344061.700    91607023.992          50.000  
G29  20408628.680   107248060.309          50.000                                                  
E 5  26548061.420   139510959.215          50.000    26548066.920   104180245.094          50.000  
E15  23492089.240   123451727.719          50.000    23492094.540    92187965.598          50.000  
E30  25092712.080   131863027.891          50.000    25092718.660    98469120.617          50.000  
> 2020  6  4 23 33 17.0000000  0 12       0.000000000000
G 5  22186940.840   116593072.289          50.000                                                  
G12  24019227.640   126221858.035          50.000                                                  
G13  24586829.000   129204677.867          50.000                                                  
G15  23925990.960   125731711.387          50.000                                                  
G20  23464638.160   123307465.574          50.000                                                  
G21  22976578.880   120742735.816          50.000                                                  
G25  22148433.480   116390724.457          50.000    22148437.160    86915144.973          50.000  
G26  23343622.880   122671472.555          50.000    23343624.980    91605310.191          50.000  
G29  20408574.260   107247774.320          50.000                                                  
E 5  26548046.800   139510882.383          50.000    26548052.300   104180187.723          50.000  
E15  23492061.960   123451584.367          50.000    23492067.260    92187858.547          50.000  
E30  25093278.360   131866003.770          50.000    25093284.960    98471342.863          50.000  
> 2020  6  4 23 33 18.0000000  0 12       0.000000000000
G 5  22187433.800   116595662.895          50.000                                                  
G12  24019954.320   126225676.703          50.000                                                  
G13  24586395.940   129202402.133          50.000                                                  
G15  23925429.840   125728762.758          50.000                                                  
G20  23463979.140   123304002.414          50.000                                                  
G21  22976249.460   120741004.672          50.000                                                  
G25  22149026.640   116393841.523          50.000    22149030.320    86917472.648          50.000  
G26  23343186.240   122669178.031          50.000    23343188.340    91603596.746          50.000  
G29  20408519.900   107247488.723          50.000                                                  
E 5  26548032.260   139510806.004          50.000    26548037.780   104180130.684          50.000  
E15  23492034.700   123451441.105          50.000    23492040.000    92187751.566          50.000  
E30  25093844.680   131868979.758          50.000    25093851.260    98473565.188          50.000  
> 2020  6  4 23 33 19.0000000  0 12       0.000000000000
G 5  22187926.860   116598253.945          50.000                                                  
G12  24020681.000   126229495.438          50.000                                                  
G13  24585962.920   129200126.625          50.000                                                  
G15  23924868.760   125725814.238          50.000                                                  
G20  23463320.160   123300539.438          50.000                                                  
G21  22975920.060   120739273.734          50.000                                                  
G25  22149619.860   116396958.914          50.000    22149623.540    86919800.570          50.000  
G26  23342749.700   122666883.980          50.000    23342751.800    91601883.660          50.000  
G29  20408465.640   107247203.500          50.000                                                  
E 5  26548017.820   139510730.086          50.000    26548023.320   104180073.992          50.000  
E15  23492007.460   123451297.953          50.000    23492012.760    92187644.668          50.000  
E30  25094411.020   131871955.852          50.000    25094417.600    98475787.594          50.000  
> 2020  6  4 23 33 20.0000000  0 12       0.000000000000
G 5  22188420.020   116600845.449          50.000                                                  
G12  24021407.700   126233314.258          50.000                                                  
G13  24585529.940   129197851.344          50.000                                                  
G15  23924307.700   125722865.816          50.000                                                  
G20  23462661.220   123297076.641          50.000                                                  
G21  22975590.720   120737542.988          50.000                                                  
G25  22150213.140   116400076.641          50.000    22150216.820    86922128.738          50.000  
G26  23342313.240   122664590.383          50.000    23342315.340    91600170.910          50.000  
G29  20408411.420   107246918.637          50.000                                                  
E 5  26548003.460   139510654.609          50.000    26548008.960   104180017.633          50.000  
E15  23491980.240   123451154.906          50.000    23491985.540    92187537.848          50.000  
E30  25094977.360   131874932.051          50.000    25094983.960    98478010.078          50.000  
> 2020  6  4 23 33 21.0000000  0 12       0.000000000000
G 5  22188913.240   116603437.387          50.000                                                  
G12  24022134.420   126237133.180          50.000                                                  
G13  24585097.020   129195576.277          50.000                                                  
G15  23923746.660   125719917.520          50.000                                                  
G20  23462002.300   123293614.027          50.000                                                  
G21  22975261.400   120735812.438          50.000                                                  
G25  22150806.500   116403194.715          50.000    22150810.180    86924457.172          50.000  
G26  23341876.880   122662297.262          50.000    23341878.980    91598458.516          50.000  
G29  20408357.280   107246634.164          50.000                                                  
E 5  26547989.180   139510579.590          50.000    26547994.680   104179961.613          50.000  
E15  23491953.040   123451011.953          50.000    23491958.340    92187431.098          50.000  
E30  25095543.740   131877908.363          50.000    25095550.320    98480232.648          50.000  
> 2020  6  4 23 33 22.0000000  0 12       0.000000000000
G 5  22189406.560   116606029.781          50.000                                                  
G12  24022861.140   126240952.129          50.000                                                  
G13  24584664.120   129193301.445          50.000                                                  
G15  23923185.620   125716969.316          50.000                                                  
G20  23461343.420   123290151.578          50.000                                                  
G21  22974932.120   120734082.086          50.000                                                  
G25  22151399.900   116406313.094          50.000    22151403.580    86926785.828          50.000  
G26  23341440.600   122660004.605          50.000    23341442.700    91596746.469          50.000  
G29  20408303.220   107246350.066          50.000                                                  
E 5  26547974.980   139510505.035          50.000    26547980.500   104179905.938          50.000  
E15  23491925.860   123450869.090          50.000    23491931.160    92187324.414          50.000  
E30  25096110.140   131880884.766          50.000    25096116.720    98482455.285          50.000  
> 2020  6  4 23 33 23.0000000  0 12       0.000000000000
G 5  22189899.960   116608622.617          50.000                                                  
G12  24023587.880   126244771.191          50.000                                                  
G13  24584231.280   129191026.816          50.000                                                  
G15  23922624.620   125714021.223          50.000                                                  
G20  23460684.560   123286689.328          50.000                                                  
G21  22974602.880   120732351.918          50.000                                                  
G25  22151993.380   116409431.824          50.000    22151997.060    86929114.750          50.000  
G26  23341004.420   122657712.418          50.000    23341006.500    91595034.770          50.000  
G29  20408249.240   107246066.340          50.000                                                  
E 5  26547960.880   139510430.922          50.000    26547966.400   104179850.594          50.000  
E15  23491898.700   123450726.340          50.000    23491903.980    92187217.813          50.000  
E30  25096676.540   131883861.281          50.000    25096683.140    98484678.004          50.000  
> 2020  6  4 23 33 24.0000000  0 12       0.000000000000
G 5  22190393.440   116611215.895          50.000                                                  
G12  24024314.640   126248590.328          50.000                                                  
G13  24583798.480   129188752.426          50.000                                                  
G15  23922063.640   125711073.234          50.000                                                  
G20  23460025.760   123283227.242          50.000                                                  
G21  22974273.680   120730621.961          50.000                                                  
G25  22152586.920   116412550.875          50.000    22152590.600    86931443.906          50.000  
G26  23340568.320   122655420.699          50.000    23340570.400    91593323.422          50.000  
G29  20408195.320   107245782.992          50.000                                                  
E 5  26547946.860   139510357.270          50.000    26547952.380   104179795.594          50.000  
E15  23491871.540   123450583.688          50.000    23491876.840    92187111.289          50.000  
E30  25097242.980   131886837.898          50.000    25097249.560    98486900.801          50.000  
> 2020  6  4 23 33 25.0000000  0 12       0.000000000000
G 5  22190887.020   116613809.617          50.000                                                  
G12  24025041.420   126252409.543          50.000                                                  
G13  24583365.720   129186478.258          50.000                                                  
G15  23921502.660   125708125.348          50.000                                                  
G20  23459366.980   123279765.344          50.000                                                  
G21  22973944.520   120728892.207          50.000                                                  
G25  22153180.520   116415670.270          50.000    22153184.200    86933773.324          50.000  
G26  23340132.300   122653129.457          50.000    23340134.400    91591612.430          50.000  
G29  20408141.460   107245500.016          50.000                                                  
E 5  26547932.940   139510284.066          50.000    26547938.440   104179740.930          50.000  
E15  23491844.420   123450441.133          50.000    23491849.720    92187004.836          50.000  
E30  25097809.440   131889814.625          50.000    25097816.020    98489123.680          50.000  
> 2020  6  4 23 33 26.0000000  0 12       0.000000000000
G 5  22191380.680   116616403.781          50.000                                                  
G12  24025768.200   126256228.844          50.000                                                  
G13  24582933.000   129184204.313          50.000                                                  
G15  23920941.720   125705177.570          50.000                                                  
G20  23458708.220   123276303.613          50.000                                                  
G21  22973615.400   120727162.645          50.000                                                  
G25  22153774.180   116418789.992          50.000    22153777.860    86936102.984          50.000  
G26  23339696.380   122650838.680          50.000    23339698.480    91589901.785          50.000  
G29  20408087.700   107245217.422          50.000                                                  
E 5  26547919.100   139510211.316          50.000    26547924.600   104179686.602          50.000  
E15  23491817.320   123450298.676          50.000    23491822.600    92186898.457          50.000  
E30  25098375.900   131892791.449          50.000    25098382.500    98491346.629          50.000  
> 2020  6  4 23 33 27.0000000  0 12       0.000000000000
G 5  22191874.400   116618998.383          50.000                                                  
G12  24026495.020   126260048.219          50.000                                                  
G13  24582500.320   129181930.590          50.000                                                  
G15  23920380.800   125702229.910          50.000                                                  
G20  23458049.520   123272842.074          50.000                                                  
G21  22973286.320   120725433.281          50.000                                                  
G25  22154367.920   116421910.055          50.000    22154371.600    86938432.902          50.000  
G26  23339260.560   122648548.371          50.000    23339262.640    91588191.492          50.000  
G29  20408033.980   107244935.199          50.000                                                  
E 5  26547905.340   139510139.020          50.000    26547910.840   104179632.613          50.000  
E15  23491790.220   123450156.332          50.000    23491795.520    92186792.160          50.000  
E30  25098942.400   131895768.387          50.000    25098948.980    98493569.668          50.000  
> 2020  6  4 23 33 28.0000000  0 12       0.000000000000
G 5  22192368.220   116621593.434          50.000                                                  
G12  24027221.820   126263867.668          50.000                                                  
G13  24582067.680   129179657.094          50.000                                                  
G15  23919819.900   125699282.355          50.000                                                  
G20  23457390.840   123269380.715          50.000                                                  
G21  22972957.260   120723704.105          50.000                                                  
G25  22154961.700   116425030.453          50.000    22154965.400    86940763.066          50.000  
G26  23338824.800   122646258.527          50.000    23338826.900    91586481.547          50.000  
G29  20407980.360   107244653.348          50.000                                                  
E 5  26547891.660   139510067.176          50.000    26547897.180   104179578.969          50.000  
E15  23491763.160   123450014.074          50.000    23491768.440    92186685.930          50.000  
E30  25099508.920   131898745.418          50.000    25099515.500    98495792.770          50.000  
> 2020  6  4 23 33 29.0000000  0 12       0.000000000000
G 5  22192862.140   116624188.930          50.000                                                  
G12  24027948.660   126267687.188          50.000                                                  
G13  24581635.100   129177383.824          50.000                                                  
G15  23919259.020   125696334.910          50.000                                                  
G20  23456732.200   123265919.520          50.000                                                  
G21  22972628.240   120721975.145          50.000                                                  
G25  22155555.560   116428151.168          50.000    22155559.240    86943093.469          50.000  
G26  23338389.160   122643969.156          50.000    23338391.240    91584771.949          50.000  
G29  20407926.780   107244371.871          50.000                                                  
E 5  26547878.080   139509995.793          50.000    26547883.600   104179525.660          50.000  
E15  23491736.100   123449871.926          50.000    23491741.400    92186579.781          50.000  
E30  25100075.440   131901722.563          50.000    25100082.040    98498015.961          50.000  
> 2020  6  4 23 33 30.0000000  0 12       0.000000000000
G 5  22193356.120   116626784.867          50.000                                                  
G12  24028675.520   126271506.824          50.000                                                  
G13  24581202.560   129175110.785          50.000                                                  
G15  23918698.160   125693387.566          50.000                                                  
G20  23456073.580   123262458.516          50.000                                                  
G21  22972299.280   120720246.375          50.000                                                  
G25  22156149.480   116431272.215          50.000    22156153.160    86945424.121          50.000  
G26  23337953.600   122641680.262          50.000    23337955.680    91583062.711          50.000  
G29  20407873.300   107244090.777          50.000                                                  
E 5  26547864.580   139509924.855          50.000    26547870.100   104179472.688          50.000  
E15  23491709.080   123449729.875          50.000    23491714.360    92186473.703          50.000  
E30  25100642.000   131904699.813          50.000    25100648.580    98500239.234          50.000  
> 2020  6  4 23 33 31.0000000  0 12       0.000000000000
G 5  22193850.200   116629381.258          50.000                                                  
G12  24029402.380   126275326.500          50.000                                                  
G13  24580770.040   129172837.953          50.000                                                  
G15  23918137.320   125690440.336          50.000                                                  
G20  23455415.020   123258997.688          50.000                                                  
G21  22971970.340   120718517.816          50.000                                                  
G25  22156743.460   116434393.605          50.000    22156747.140    86947755.027          50.000  
G26  23337518.120   122639391.828          50.000    23337520.200    91581353.816          50.000  
G29  20407819.880   107243810.059          50.000                                                  
E 5  26547851.160   139509854.375          50.000    26547856.680   104179420.055          50.000  
E15  23491682.060   123449587.926          50.000    23491687.360    92186367.703          50.000  
E30  25101208.560   131907677.168          50.000    25101215.160    98502462.578          50.000  
> 2020  6  4 23 33 32.0000000  0 12       0.000000000000
G 5  22194344.360   116631978.090          50.000                                                  
G12  24030129.240   126279146.242          50.000                                                  
G13  24580337.580   129170565.359          50.000                                                  
G15  23917576.500   125687493.207          50.000                                                  
G20  23454756.460   123255537.035          50.000                                                  
G21  22971641.440   120716789.453          50.000                                                  
G25  22157337.500   116437515.309          50.000    22157341.180    86950086.168          50.000  
G26  23337082.740   122637103.863          50.000    23337084.820    91579645.273          50.000  
G29  20407766.540   107243529.719          50.000                                                  
E 5  26547837.840   139509784.355          50.000    26547843.360   104179367.770          50.000  
E15  23491655.060   123449446.074          50.000    23491660.360    92186261.773          50.000  
E30  25101775.160   131910654.621          50.000    25101781.760    98504686.000          50.000  
> 2020  6  4 23 33 33.0000000  0 12       0.000000000000
G 5  22194838.620   116634575.363          50.000                                                  
G12  24030856.140   126282966.098          50.000                                                  
G13  24579905.160   129168292.980          50.000                                                  
G15  23917015.700   125684546.188          50.000                                                  
G20  23454097.960   123252076.559          50.000                                                  
G21  22971312.580   120715061.281          50.000                                                  
G25  22157931.600   116440637.363          50.000    22157935.300    86952417.570          50.000  
G26  23336647.440   122634816.367          50.000    23336649.520    91577937.078          50.000  
G29  20407713.260   107243249.754          50.000                                                  
E 5  26547824.600   139509714.781          50.000    26547830.120   104179315.816          50.000  
E15  23491628.100   123449304.320          50.000    23491633.380    92186155.918          50.000  
E30  25102341.780   131913632.180          50.000    25102348.360    98506909.500          50.000  
> 2020  6  4 23 33 34.0000000  0 12       0.000000000000
G 5  22195332.940   116637173.090          50.000                                                  
G12  24031583.080   126286785.910          50.000                                                  
G13  24579472.780   129166020.863          50.000                                                  
G15  23916454.900   125681599.320          50.000                                                  
G20  23453439.480   123248616.375          50.000                                                  
G21  22970983.760   120713333.336          50.000                                                  
G25  22158525.780   116443759.742          50.000    22158529.460    86954749.215          50.000  
G26  23336212.220   122632529.348          50.000    23336214.320    91576229.246          50.000  
G29  20407660.060   107242970.168          50.000                                                  
E 5  26547811.460   139509645.652          50.000    26547816.960   104179264.191          50.000  
E15  23491601.140   123449162.668          50.000    23491606.420    92186050.137          50.000  
E30  25102908.420   131916609.777          50.000    25102915.020    98509132.984          50.000  
> 2020  6  4 23 33 35.0000000  0 12       0.000000000000
G 5  22195827.360   116639771.266          50.000                                                  
G12  24032310.000   126290605.918          50.000                                                  
G13  24579040.440   129163748.926          50.000                                                  
G15  23915894.140   125678652.520          50.000                                                  
G20  23452781.040   123245156.266          50.000                                                  
G21  22970654.980   120711605.574          50.000                                                  
G25  22159120.000   116446882.441          50.000    22159123.700    86957081.102          50.000  
G26  23335777.100   122630242.797          50.000    23335779.200    91574521.758          50.000  
G29  20407606.920   107242690.949          50.000                                                  
E 5  26547798.380   139509576.996          50.000    26547803.900   104179212.922          50.000  
E15  23491574.200   123449021.129          50.000    23491579.500    92185944.441          50.000  
E30  25103475.080   131919587.547          50.000    25103481.680    98511356.641          50.000  
> 2020  6  4 23 33 36.0000000  0 12       0.000000000000
G 5  22196321.860   116642369.871          50.000                                                  
G12  24033036.960   126294426.051          50.000                                                  
G13  24578608.160   129161477.227          50.000                                                  
G15  23915333.400   125675705.816          50.000                                                  
G20  23452122.640   123241696.352          50.000                                                  
G21  22970326.220   120709878.000          50.000                                                  
G25  22159714.300   116450005.488          50.000    22159718.000    86959413.246          50.000  
G26  23335342.080   122627956.703          50.000    23335344.160    91572814.609          50.000  
G29  20407553.860   107242412.102          50.000                                                  
E 5  26547785.400   139509508.777          50.000    26547790.920   104179161.980          50.000  
E15  23491547.280   123448879.668          50.000    23491552.580    92185838.809          50.000  
E30  25104041.740   131922565.410          50.000    25104048.340    98513580.371          50.000  
> 2020  6  4 23 33 37.0000000  0 12       0.000000000000
G 5  22196816.440   116644968.922          50.000                                                  
G12  24033763.900   126298246.195          50.000                                                  
G13  24578175.900   129159205.750          50.000                                                  
G15  23914772.680   125672759.234          50.000                                                  
G20  23451464.260   123238236.594          50.000                                                  
G21  22969997.520   120708150.621          50.000                                                  
G25  22160308.660   116453128.863          50.000    22160312.360    86961745.633          50.000  
G26  23334907.140   122625671.086          50.000    23334909.220    91571107.816          50.000  
G29  20407500.880   107242133.645          50.000                                                  
E 5  26547772.520   139509441.020          50.000    26547778.020   104179111.383          50.000  
E15  23491520.380   123448738.320          50.000    23491525.680    92185733.254          50.000  
E30  25104608.440   131925543.395          50.000    25104615.040    98515804.188          50.000  
> 2020  6  4 23 33 38.0000000  0 12       0.000000000000
G 5  22197311.100   116647568.414          50.000                                                  
G12  24034490.860   126302066.410          50.000                                                  
G13  24577743.700   129156934.496          50.000                                                  
G15  23914211.980   125669812.742          50.000                                                  
G20  23450805.920   123234777.027          50.000                                                  
G21  22969668.840   120706423.438          50.000                                                  
G25  22160903.080   116456252.566          50.000    22160906.780    86964078.266          50.000  
G26  23334472.280   122623385.930          50.000    23334474.380    91569401.371          50.000  
G29  20407447.960   107241855.547          50.000                                                  
E 5  26547759.700   139509373.711          50.000    26547765.220   104179061.121          50.000  
E15  23491493.500   123448597.082          50.000    23491498.800    92185627.785          50.000  
E30  25105175.140   131928521.461          50.000    25105181.740    98518028.066          50.000  
> 2020  6  4 23 33 39.0000000  0 16       0.000000000000
G 5  22197805.860   116650168.344          50.000                                                  
G12  24035217.840   126305886.730          50.000                                                  
G13  24577311.540   129154663.473          50.000                                                  
G15  23913651.300   125666866.371          50.000                                                  
G20  23450147.620   123231317.641          50.000                                                  
G21  22969340.220   120704696.461          50.000                                                  
G25  22161497.580   116459376.598          50.000    22161501.260    86966411.148          50.000  
G26  23334037.520   122621101.254          50.000    23334039.620    91567695.281          50.000  
G29  20407395.100   107241577.840          50.000                                                  
E 3  26016498.540   136717578.129          50.000    26016504.420   102094278.414          50.000  
E 5  26547746.980   139509306.863          50.000    26547752.500   104179011.199          50.000  
E13  26167760.140   137512467.480          50.000    26167765.760   102687863.973          50.000  
E15  23491466.640   123448455.922          50.000    23491471.940    92185522.371          50.000  
E21  26962790.120   141690378.902          50.000    26962795.700   105807734.512          50.000  
E27  24688672.780   129739813.930          50.000    24688677.940    96883611.750          50.000  
E30  25105741.880   131931499.637          50.000    25105748.480    98520252.027          50.000  
> 2020  6  4 23 33 40.0000000  0 16       0.000000000000
G 5  22198300.700   116652768.719          50.000                                                  
G12  24035944.860   126309707.188          50.000                                                  
G13  24576879.420   129152392.648          50.000                                                  
G15  23913090.660   125663920.113          50.000                                                  
G20  23449489.360   123227858.441          50.000                                                  
G21  22969011.620   120702969.668          50.000                                                  
G25  22162092.120   116462500.965          50.000    22162095.800    86968744.273          50.000  
G26  23333602.860   122618817.039          50.000    23333604.940    91565989.539          50.000  
G29  20407342.320   107241300.504          50.000                                                  
E 3  26016076.260   136715358.992          50.000    26016082.140   102092621.270          50.000  
E 5  26547734.340   139509240.465          50.000    26547739.860   104178961.617          50.000  
E13  26167447.900   137510826.660          50.000    26167453.520   102686638.688          50.000  
E15  23491439.800   123448314.879          50.000    23491445.100    92185417.047          50.000  
E21  26962504.620   141688878.672          50.000    26962510.220   105806614.211          50.000  
E27  24688878.800   129740896.543          50.000    24688883.960    96884420.195          50.000  
E30  25106308.620   131934477.926          50.000    25106315.240    98522476.070          50.000  
> 2020  6  4 23 33 41.0000000  0 16       0.000000000000
G 5  22198795.620   116655369.543          50.000                                                  
G12  24036671.860   126313527.648          50.000                                                  
G13  24576447.340   129150122.074          50.000                                                  
G15  23912530.020   125660973.961          50.000                                                  
G20  23448831.120   123224399.402          50.000                                                  
G21  22968683.060   120701243.082          50.000                                                  
G25  22162686.740   116465625.660          50.000    22162690.420    86971077.648          50.000  
G26  23333168.280   122616533.297          50.000    23333170.360    91564284.148          50.000  
G29  20407289.620   107241023.531          50.000                                                  
E 3  26015654.020   136713140.098          50.000    26015659.900   102090964.305          50.000  
E 5  26547721.800   139509174.520          50.000    26547727.300   104178912.371          50.000  
E13  26167135.660   137509185.902          50.000    26167141.300   102685413.449          50.000  
E15  23491412.980   123448173.922          50.000    23491418.280    92185311.789          50.000  
E21  26962219.220   141687378.848          50.000    26962224.820   105805494.215          50.000  
E27  24689084.900   129741979.602          50.000    24689090.060    96885228.973          50.000  
E30  25106875.400   131937456.309          50.000    25106882.000    98524700.188          50.000  
> 2020  6  4 23 33 42.0000000  0 16       0.000000000000
G 5  22199290.620   116657970.797          50.000                                                  
G12  24037398.900   126317348.188          50.000                                                  
G13  24576015.300   129147851.723          50.000                                                  
G15  23911969.400   125658027.914          50.000                                                  
G20  23448172.920   123220940.551          50.000                                                  
G21  22968354.540   120699516.691          50.000                                                  
G25  22163281.400   116468750.688          50.000    22163285.100    86973411.273          50.000  
G26  23332733.780   122614250.027          50.000    23332735.860    91562579.109          50.000  
G29  20407237.000   107240746.965          50.000                                                  
E 3  26015231.820   136710921.434          50.000    26015237.700   102089307.512          50.000  
E 5  26547709.340   139509109.035          50.000    26547714.840   104178863.473          50.000  
E13  26166823.460   137507545.199          50.000    26166829.080   102684188.250          50.000  
E15  23491386.180   123448033.082          50.000    23491391.480    92185206.613          50.000  
E21  26961933.900   141685879.441          50.000    26961939.480   105804374.527          50.000  
E27  24689291.080   129743063.105          50.000    24689296.240    96886038.082          50.000  
E30  25107442.180   131940434.809          50.000    25107448.800    98526924.391          50.000  
> 2020  6  4 23 33 43.0000000  0 16       0.000000000000
G 5  22199785.700   116660572.488          50.000                                                  
G12  24038125.940   126321168.840          50.000                                                  
G13  24575583.300   129145581.594          50.000                                                  
G15  23911408.800   125655081.977          50.000                                                  
G20  23447514.760   123217481.883          50.000                                                  
G21  22968026.040   120697790.500          50.000                                                  
G25  22163876.140   116471876.027          50.000    22163879.820    86975745.129          50.000  
G26  23332299.380   122611967.230          50.000    23332301.460    91560874.426          50.000  
G29  20407184.440   107240470.766          50.000                                                  
E 3  26014809.660   136708702.996          50.000    26014815.540   102087650.887          50.000  
E 5  26547696.960   139509043.992          50.000    26547702.460   104178814.902          50.000  
E13  26166511.240   137505904.551          50.000    26166516.880   102682963.090          50.000  
E15  23491359.400   123447892.336          50.000    23491364.700    92185101.512          50.000  
E21  26961648.640   141684380.441          50.000    26961654.240   105803255.145          50.000  
E27  24689497.360   129744147.063          50.000    24689502.520    96886847.527          50.000  
E30  25108009.000   131943413.398          50.000    25108015.600    98529148.660          50.000  
> 2020  6  4 23 33 44.0000000  0 16       0.000000000000
G 5  22200280.880   116663174.629          50.000                                                  
G12  24038853.000   126324989.551          50.000                                                  
G13  24575151.360   129143311.691          50.000                                                  
G15  23910848.240   125652136.152          50.000                                                  
G20  23446856.620   123214023.387          50.000                                                  
G21  22967697.600   120696064.500          50.000                                                  
G25  22164470.940   116475001.715          50.000    22164474.620    86978079.246          50.000  
G26  23331865.060   122609684.898          50.000    23331867.140    91559170.090          50.000  
G29  20407131.940   107240194.934          50.000                                                  
E 3  26014387.540   136706484.805          50.000    26014393.440   102085994.445          50.000  
E 5  26547684.660   139508979.410          50.000    26547690.180   104178766.676          50.000  
E13  26166199.060   137504263.973          50.000    26166204.680   102681737.984          50.000  
E15  23491332.640   123447751.688          50.000    23491337.920    92184996.484          50.000  
E21  26961363.460   141682881.852          50.000    26961369.060   105802136.070          50.000  
E27  24689703.700   129745231.473          50.000    24689708.860    96887657.313          50.000  
E30  25108575.820   131946392.098          50.000    25108582.420    98531373.012          50.000  
> 2020  6  4 23 33 45.0000000  0 16       0.000000000000
G 5  22200776.140   116665777.211          50.000                                                  
G12  24039580.080   126328810.352          50.000                                                  
G13  24574719.460   129141042.023          50.000                                                  
G15  23910287.680   125649190.434          50.000                                                  
G20  23446198.540   123210565.074          50.000                                                  
G21  22967369.200   120694338.707          50.000                                                  
G25  22165065.800   116478127.730          50.000    22165069.500    86980413.605          50.000  
G26  23331430.840   122607403.039          50.000    23331432.920    91557466.102          50.000  
G29  20407079.520   107239919.484          50.000                                                  
E 3  26013965.480   136704266.824          50.000    26013971.360   102084338.164          50.000  
E 5  26547672.460   139508915.281          50.000    26547677.980   104178718.785          50.000  
E13  26165886.880   137502623.449          50.000    26165892.500   102680512.922          50.000  
E15  23491305.880   123447611.137          50.000    23491311.180    92184891.527          50.000  
E21  26961078.380   141681383.684          50.000    26961083.960   105801017.309          50.000  
E27  24689910.140   129746316.332          50.000    24689915.320    96888467.434          50.000  
E30  25109142.660   131949370.895          50.000    25109149.280    98533597.438          50.000  
> 2020  6  4 23 33 46.0000000  0 16       0.000000000000
G 5  22201271.480   116668380.250          50.000                                                  
G12  24040307.160   126332631.207          50.000                                                  
G13  24574287.580   129138772.570          50.000                                                  
G15  23909727.160   125646244.836          50.000                                                  
G20  23445540.460   123207106.938          50.000                                                  
G21  22967040.820   120692613.117          50.000                                                  
G25  22165660.720   116481254.078          50.000    22165664.420    86982748.215          50.000  
G26  23330996.700   122605121.652          50.000    23330998.780    91555762.469          50.000  
G29  20407027.180   107239644.410          50.000                                                  
E 3  26013543.460   136702049.090          50.000    26013549.340   102082682.066          50.000  
E 5  26547660.340   139508851.602          50.000    26547665.860   104178671.234          50.000  
E13  26165574.700   137500982.984          50.000    26165580.340   102679287.898          50.000  
E15  23491279.160   123447470.680          50.000    23491284.460    92184786.641          50.000  
E21  26960793.360   141679885.922          50.000    26960798.960   105799898.848          50.000  
E27  24690116.680   129747401.637          50.000    24690121.840    96889277.891          50.000  
E30  25109709.540   131952349.797          50.000    25109716.140    98535821.938          50.000  
> 2020  6  4 23 33 47.0000000  0 16       0.000000000000
G 5  22201766.900   116670983.727          50.000                                                  
G12  24041034.260   126336452.125          50.000                                                  
G13  24573855.760   129136503.332          50.000                                                  
G15  23909166.640   125643299.328          50.000                                                  
G20  23444882.440   123203648.988          50.000                                                  
G21  22966712.480   120690887.715          50.000                                                  
G25  22166255.720   116484380.758          50.000    22166259.400    86985083.070          50.000  
G26  23330562.660   122602840.730          50.000    23330564.740    91554059.184          50.000  
G29  20406974.920   107239369.707          50.000                                                  
E 3  26013121.480   136699831.602          50.000    26013127.360   102081026.152          50.000  
E 5  26547648.320   139508788.391          50.000    26547653.820   104178624.031          50.000  
E13  26165262.540   137499342.582          50.000    26165268.180   102678062.922          50.000  
E15  23491252.460   123447330.336          50.000    23491257.740    92184681.840          50.000  
E21  26960508.420   141678388.578          50.000    26960514.020   105798780.703          50.000  
E27  24690323.280   129748487.387          50.000    24690328.460    96890088.676          50.000  
E30  25110276.420   131955328.816          50.000    25110283.040    98538046.527          50.000  
> 2020  6  4 23 33 48.0000000  0 16       0.000000000000
G 5  22202262.400   116673587.652          50.000                                                  
G12  24041761.380   126340273.164          50.000                                                  
G13  24573424.000   129134234.352          50.000                                                  
G15  23908606.140   125640353.938          50.000                                                  
G20  23444224.440   123200191.207          50.000                                                  
G21  22966384.200   120689162.516          50.000                                                  
G25  22166850.760   116487507.762          50.000    22166854.460    86987418.172          50.000  
G26  23330128.700   122600560.281          50.000    23330130.780    91552356.250          50.000  
G29  20406922.700   107239095.387          50.000                                                  
E 3  26012699.540   136697614.328          50.000    26012705.440   102079370.395          50.000  
E 5  26547636.380   139508725.621          50.000    26547641.880   104178577.156          50.000  
E13  26164950.400   137497702.230          50.000    26164956.020   102676837.988          50.000  
E15  23491225.760   123447190.094          50.000    23491231.060    92184577.113          50.000  
E21  26960223.560   141676891.637          50.000    26960229.160   105797662.863          50.000  
E27  24690529.980   129749573.590          50.000    24690535.140    96890899.801          50.000  
E30  25110843.340   131958307.922          50.000    25110849.940    98540271.184          50.000  
> 2020  6  4 23 33 49.0000000  0 16       0.000000000000
G 5  22202758.000   116676192.023          50.000                                                  
G12  24042488.520   126344094.258          50.000                                                  
G13  24572992.260   129131965.582          50.000                                                  
G15  23908045.680   125637408.660          50.000                                                  
G20  23443566.480   123196733.609          50.000                                                  
G21  22966055.940   120687437.508          50.000                                                  
G25  22167445.880   116490635.098          50.000    22167449.560    86989753.516          50.000  
G26  23329694.840   122598280.301          50.000    23329696.920    91550653.672          50.000  
G29  20406870.580   107238821.445          50.000                                                  
E 3  26012277.660   136695397.285          50.000    26012283.540   102077714.813          50.000  
E 5  26547624.520   139508663.313          50.000    26547630.020   104178530.629          50.000  
E13  26164638.260   137496061.949          50.000    26164643.880   102675613.102          50.000  
E15  23491199.100   123447049.945          50.000    23491204.400    92184472.457          50.000  
E21  26959938.780   141675395.125          50.000    26959944.380   105796545.336          50.000  
E27  24690736.780   129750660.250          50.000    24690741.940    96891711.266          50.000  
E30  25111410.260   131961287.137          50.000    25111416.860    98542495.922          50.000  
> 2020  6  4 23 33 50.0000000  0 16       0.000000000000
G 5  22203253.680   116678796.820          50.000                                                  
G12  24043215.660   126347915.434          50.000                                                  
G13  24572560.560   129129697.035          50.000                                                  
G15  23907485.240   125634463.492          50.000                                                  
G20  23442908.560   123193276.203          50.000                                                  
G21  22965727.720   120685712.695          50.000                                                  
G25  22168041.060   116493762.762          50.000    22168044.740    86992089.105          50.000  
G26  23329261.060   122596000.793          50.000    23329263.140    91548951.441          50.000  
G29  20406818.520   107238547.879          50.000                                                  
E 3  26011855.820   136693180.488          50.000    26011861.700   102076059.414          50.000  
E 5  26547612.740   139508601.445          50.000    26547618.260   104178484.430          50.000  
E13  26164326.140   137494421.719          50.000    26164331.760   102674388.258          50.000  
E15  23491172.440   123446909.891          50.000    23491177.740    92184367.871          50.000  
E21  26959654.080   141673899.023          50.000    26959659.680   105795428.117          50.000  
E27  24690943.640   129751747.363          50.000    24690948.800    96892523.074          50.000  
E30  25111977.200   131964266.457          50.000    25111983.820    98544720.734          50.000  
> 2020  6  4 23 33 51.0000000  0 16       0.000000000000
G 5  22203749.440   116681402.070          50.000                                                  
G12  24043942.820   126351736.676          50.000                                                  
G13  24572128.920   129127428.730          50.000                                                  
G15  23906924.800   125631518.438          50.000                                                  
G20  23442250.680   123189818.973          50.000                                                  
G21  22965399.540   120683988.090          50.000                                                  
G25  22168636.280   116496890.746          50.000    22168639.980    86994424.938          50.000  
G26  23328827.380   122593721.754          50.000    23328829.460    91547249.563          50.000  
G29  20406766.540   107238274.684          50.000                                                  
E 3  26011434.020   136690963.922          50.000    26011439.900   102074404.188          50.000  
E 5  26547601.060   139508540.043          50.000    26547606.560   104178438.578          50.000  
E13  26164014.020   137492781.551          50.000    26164019.640   102673163.457          50.000  
E15  23491145.820   123446769.945          50.000    23491151.100    92184263.363          50.000  
E21  26959369.460   141672403.305          50.000    26959375.060   105794311.188          50.000  
E27  24691150.600   129752834.906          50.000    24691155.760    96893335.199          50.000  
E30  25112544.180   131967245.875          50.000    25112550.780    98546945.625          50.000  
> 2020  6  4 23 33 52.0000000  0 16       0.000000000000
G 5  22204245.300   116684007.758          50.000                                                  
G12  24044670.000   126355558.000          50.000                                                  
G13  24571697.320   129125160.633          50.000                                                  
G15  23906364.400   125628573.480          50.000                                                  
G20  23441592.820   123186361.930          50.000                                                  
G21  22965071.380   120682263.672          50.000                                                  
G25  22169231.580   116500019.059          50.000    22169235.280    86996761.016          50.000  
G26  23328393.780   122591443.188          50.000    23328395.860    91545548.035          50.000  
G29  20406714.620   107238001.879          50.000                                                  
E 3  26011012.260   136688747.582          50.000    26011018.140   102072749.129          50.000  
E 5  26547589.460   139508479.082          50.000    26547594.960   104178393.055          50.000  
E13  26163701.920   137491141.441          50.000    26163707.540   102671938.699          50.000  
E15  23491119.200   123446630.090          50.000    23491124.500    92184158.930          50.000  
E21  26959084.920   141670908.027          50.000    26959090.520   105793194.582          50.000  
E27  24691357.640   129753922.914          50.000    24691362.800    96894147.672          50.000  
E30  25113111.160   131970225.398          50.000    25113117.760    98549170.590          50.000  
> 2020  6  4 23 33 53.0000000  0 16       0.000000000000
G 5  22204741.220   116686613.887          50.000                                                  
G12  24045397.180   126359379.402          50.000                                                  
G13  24571265.760   129122892.754          50.000                                                  
G15  23905804.020   125625628.645          50.000                                                  
G20  23440935.000   123182905.047          50.000                                                  
G21  22964743.280   120680539.449          50.000                                                  
G25  22169826.960   116503147.719          50.000    22169830.640    86999097.352          50.000  
G26  23327960.280   122589165.094          50.000    23327962.360    91543846.863          50.000  
G29  20406662.780   107237729.434          50.000                                                  
E 3  26010590.560   136686531.492          50.000    26010596.420   102071094.258          50.000  
E 5  26547577.940   139508418.590          50.000    26547583.460   104178347.883          50.000  
E13  26163389.820   137489501.398          50.000    26163395.460   102670713.992          50.000  
E15  23491092.600   123446490.352          50.000    23491097.900    92184054.578          50.000  
E21  26958800.460   141669413.152          50.000    26958806.040   105792078.281          50.000  
E27  24691564.760   129755011.371          50.000    24691569.920    96894960.480          50.000  
E30  25113678.160   131973205.016          50.000    25113684.780    98551395.629          50.000  
> 2020  6  4 23 33 54.0000000  0 16       0.000000000000
G 5  22205237.240   116689220.465          50.000                                                  
G12  24046124.380   126363200.867          50.000                                                  
G13  24570834.240   129120625.133          50.000                                                  
G15  23905243.640   125622683.910          50.000                                                  
G20  23440277.200   123179448.359          50.000                                                  
G21  22964415.200   120678815.441          50.000                                                  
G25  22170422.380   116506276.695          50.000    22170426.080    87001433.922          50.000  
G26  23327526.860   122586887.465          50.000    23327528.940    91542146.039          50.000  
G29  20406611.000   107237457.383          50.000                                                  
E 3  26010168.880   136684315.617          50.000    26010174.760   102069439.551          50.000  
E 5  26547566.520   139508358.547          50.000    26547572.040   104178303.047          50.000  
E13  26163077.740   137487861.402          50.000    26163083.380   102669489.324          50.000  
E15  23491066.040   123446350.695          50.000    23491071.320    92183950.289          50.000  
E21  26958516.080   141667918.699          50.000    26958521.660   105790962.297          50.000  
E27  24691771.980   129756100.281          50.000    24691777.140    96895773.625          50.000  
E30  25114245.180   131976184.746          50.000    25114251.800    98553620.746          50.000  
> 2020  6  4 23 33 55.0000000  0 16       0.000000000000
G 5  22205733.340   116691827.480          50.000                                                  
G12  24046851.600   126367022.434          50.000                                                  
G13  24570402.760   129118357.723          50.000                                                  
G15  23904683.300   125619739.293          50.000                                                  
G20  23439619.460   123175991.852          50.000                                                  
G21  22964087.180   120677091.617          50.000                                                  
G25  22171017.860   116509406.000          50.000    22171021.560    87003770.738          50.000  
G26  23327093.520   122584610.305          50.000    23327095.600    91540445.563          50.000  
G29  20406559.300   107237185.703          50.000                                                  
E 3  26009747.260   136682099.988          50.000    26009753.140   102067785.020          50.000  
E 5  26547555.180   139508298.957          50.000    26547560.700   104178258.547          50.000  
E13  26162765.680   137486221.488          50.000    26162771.300   102668264.711          50.000  
E15  23491039.480   123446211.148          50.000    23491044.780    92183846.082          50.000  
E21  26958231.760   141666424.660          50.000    26958237.360   105789846.617          50.000  
E27  24691979.280   129757189.625          50.000    24691984.440    96896587.094          50.000  
E30  25114812.220   131979164.578          50.000    25114818.840    98555845.945          50.000  
> 2020  6  4 23 33 56.0000000  0 16       0.000000000000
G 5  22206229.520   116694434.934          50.000                                                  
G12  24047578.840   126370844.063          50.000                                                  
G13  24569971.320   129116090.523          50.000                                                  
G15  23904122.980   125616794.781          50.000                                                  
G20  23438961.740   123172535.527          50.000                                                  
G21  22963759.180   120675367.984          50.000                                                  
G25  22171613.420   116512535.656          50.000    22171617.120    87006107.816          50.000  
G26  23326660.280   122582333.637          50.000    23326662.360    91538745.453          50.000  
G29  20406507.680   107236914.395          50.000                                                  
E 3  26009325.680   136679884.586          50.000    26009331.560   102066130.664          50.000  
E 5  26547543.920   139508239.820          50.000    26547549.440   104178214.387          50.000  
E13  26162453.620   137484581.613          50.000    26162459.240   102667040.129          50.000  
E15  23491012.940   123446071.699          50.000    23491018.240    92183741.949          50.000  
E21  26957947.540   141664931.027          50.000    26957953.120   105788731.242          50.000  
E27  24692186.660   129758279.434          50.000    24692191.820    96897400.914          50.000  
E30  25115379.300   131982144.504          50.000    25115385.900    98558071.215          50.000  
> 2020  6  4 23 33 57.0000000  0 16       0.000000000000
G 5  22206725.780   116697042.836          50.000                                                  
G12  24048306.080   126374665.766          50.000                                                  
G13  24569539.940   129113823.559          50.000                                                  
G15  23903562.680   125613850.387          50.000                                                  
G20  23438304.040   123169079.387          50.000                                                  
G21  22963431.220   120673644.559          50.000                                                  
G25  22172209.040   116515665.621          50.000    22172212.740    87008445.129          50.000  
G26  23326227.140   122580057.410          50.000    23326229.220    91537045.676          50.000  
G29  20406456.120   107236643.465          50.000                                                  
E 3  26008904.140   136677669.414          50.000    26008910.020   102064476.477          50.000  
E 5  26547532.760   139508181.137          50.000    26547538.280   104178170.563          50.000  
E13  26162141.580   137482941.793          50.000    26162147.200   102665815.594          50.000  
E15  23490986.420   123445932.352          50.000    23490991.720    92183637.891          50.000  
E21  26957663.380   141663437.801          50.000    26957668.980   105787616.172          50.000  
E27  24692394.120   129759369.676          50.000    24692399.280    96898215.055          50.000  
E30  25115946.380   131985124.543          50.000    25115952.980    98560296.566          50.000  
> 2020  6  4 23 33 58.0000000  0 16       0.000000000000
G 5  22207222.140   116699651.180          50.000                                                  
G12  24049033.340   126378487.551          50.000                                                  
G13  24569108.600   129111556.832          50.000                                                  
G15  23903002.400   125610906.102          50.000                                                  
G20  23437646.400   123165623.406          50.000                                                  
G21  22963103.300   120671921.328          50.000                                                  
G25  22172804.720   116518795.914          50.000    22172808.400    87010782.684          50.000  
G26  23325794.080   122577781.672          50.000    23325796.160    91535346.262          50.000  
G29  20406404.640   107236372.926          50.000                                                  
E 3  26008482.660   136675454.484          50.000    26008488.540   102062822.473          50.000  
E 5  26547521.680   139508122.902          50.000    26547527.180   104178127.078          50.000  
E13  26161829.540   137481302.051          50.000    26161835.160   102664591.109          50.000  
E15  23490959.920   123445793.105          50.000    23490965.220    92183533.906          50.000  
E21  26957379.320   141661944.996          50.000    26957384.900   105786501.414          50.000  
E27  24692601.680   129760460.367          50.000    24692606.840    96899029.531          50.000  
E30  25116513.480   131988104.676          50.000    25116520.100    98562521.988          50.000  
> 2020  6  4 23 33 59.0000000  0 16       0.000000000000
G 5  22207718.580   116702259.965          50.000                                                  
G12  24049760.620   126382309.410          50.000                                                  
G13  24568677.300   129109290.316          50.000                                                  
G15  23902442.140   125607961.926          50.000                                                  
G20  23436988.780   123162167.617          50.000                                                  
G21  22962775.420   120670198.293          50.000                                                  
G25  22173400.460   116521926.543          50.000    22173404.140    87013120.488          50.000  
G26  23325361.100   122575506.402          50.000    23325363.180    91533647.195          50.000  
G29  20406353.220   107236102.754          50.000                                                  
E 3  26008061.220   136673239.785          50.000    26008067.100   102061168.641          50.000  
E 5  26547510.680   139508065.129          50.000    26547516.200   104178083.934          50.000  
E13  26161517.520   137479662.352          50.000    26161523.140   102663366.660          50.000  
E15  23490933.440   123445653.949          50.000    23490938.740    92183429.992          50.000  
E21  26957095.320   141660452.605          50.000    26957100.900   105785386.969          50.000  
E27  24692809.320   129761551.512          50.000    24692814.480    96899844.348          50.000  
E30  25117080.600   131991084.910          50.000    25117087.220    98564747.484          50.000  
> 2020  6  4 23 34  0.0000000  0 16       0.000000000000
G 5  22208215.100   116704869.184          50.000                                                  
G12  24050487.920   126386131.355          50.000                                                  
G13  24568246.040   129107024.043          50.000                                                  
G15  23901881.900   125605017.863          50.000                                                  
G20  23436331.200   123158712.016          50.000                                                  
G21  22962447.560   120668475.453          50.000                                                  
G25  22173996.260   116525057.500          50.000    22173999.960    87015458.539          50.000  
G26  23324928.220   122573231.605          50.000    23324930.300    91531948.484          50.000  
G29  20406301.880   107235832.949          50.000                                                  
E 3  26007639.820   136671025.324          50.000    26007645.700   102059514.988          50.000  
E 5  26547499.780   139508007.805          50.000    26547505.280   104178041.129          50.000  
E13  26161205.500   137478022.730          50.000    26161211.120   102662142.270          50.000  
E15  23490906.980   123445514.906          50.000    23490912.280    92183326.164          50.000  
E21  26956811.400   141658960.629          50.000    26956817.000   105784272.832          50.000  
E27  24693017.040   129762643.117          50.000    24693022.200    96900659.504          50.000  
E30  25117647.740   131994065.262          50.000    25117654.360    98566973.070          50.000  
> 2020  6  4 23 34  1.0000000  0 16       0.000000000000
G 5  22208711.700   116707478.844          50.000                                                  
G12  24051215.220   126389953.383          50.000                                                  
G13  24567814.820   129104757.988          50.000                                                  
G15  23901321.680   125602073.926          50.000                                                  
G20  23435673.660   123155256.594          50.000                                                  
G21  22962119.760   120666752.816          50.000                                                  
G25  22174592.120   116528188.781          50.000    22174595.820    87017796.832          50.000  
G26  23324495.440   122570957.273          50.000    23324497.520    91530250.125          50.000  
G29  20406250.620   107235563.539          50.000                                                  
E 3  26007218.460   136668811.086          50.000    26007224.340   102057861.500          50.000  
E 5  26547488.960   139507950.938          50.000    26547494.460   104177998.664          50.000  
E13  26160893.500   137476383.148          50.000    26160899.120   102660917.906          50.000  
E15  23490880.540   123445375.961          50.000    23490885.840    92183222.402          50.000  
E21  26956527.560   141657469.059          50.000    26956533.160   105783158.996          50.000  
E27  24693224.840   129763735.160          50.000    24693230.020    96901474.992          50.000  
E30  25118214.900   131997045.699          50.000    25118221.520    98569198.723          50.000  
> 2020  6  4 23 34  2.0000000  0 16       0.000000000000
G 5  22209208.380   116710088.945          50.000                                                  
G12  24051942.560   126393775.504          50.000                                                  
G13  24567383.640   129102492.172          50.000                                                  
G15  23900761.480   125599130.078          50.000                                                  
G20  23435016.140   123151801.352          50.000                                                  
G21  22961791.980   120665030.371          50.000                                                  
G25  22175188.040   116531320.383          50.000    22175191.740    87020135.363          50.000  
G26  23324062.740   122568683.410          50.000    23324064.800    91528552.109          50.000  
G29  20406199.420   107235294.500          50.000                                                  
E 3  26006797.160   136666597.090          50.000    26006803.020   102056208.191          50.000  
E 5  26547478.220   139507894.523          50.000    26547483.720   104177956.535          50.000  
E13  26160581.520   137474743.641          50.000    26160587.140   102659693.598          50.000  
E15  23490854.120   123445237.098          50.000    23490859.420    92183118.707          50.000  
E21  26956243.800   141655977.906          50.000    26956249.400   105782045.477          50.000  
E27  24693432.740   129764827.652          50.000    24693437.900    96902290.813          50.000  
E30  25118782.080   132000026.238          50.000    25118788.700    98571424.445          50.000  
> 2020  6  4 23 34  3.0000000  0 16       0.000000000000
G 5  22209705.160   116712699.496          50.000                                                  
G12  24052669.900   126397597.684          50.000                                                  
G13  24566952.520   129100226.578          50.000                                                  
G15  23900201.320   125596186.352          50.000                                                  
G20  23434358.660   123148346.293          50.000                                                  
G21  22961464.260   120663308.129          50.000                                                  
G25  22175784.040   116534452.328          50.000    22175787.740    87022474.152          50.000  
G26  23323630.120   122566410.031          50.000    23323632.200    91526854.457          50.000  
G29  20406148.300   107235025.828          50.000                                                  
E 3  26006375.880   136664383.332          50.000    26006381.760   102054555.063          50.000  
E 5  26547467.580   139507838.563          50.000    26547473.080   104177914.746          50.000  
E13  26160269.540   137473104.184          50.000    26160275.160   102658469.332          50.000  
E15  23490827.720   123445098.359          50.000    23490833.020    92183015.105          50.000  
E21  26955960.120   141654487.164          50.000    26955965.720   105780932.258          50.000  
E27  24693640.720   129765920.594          50.000    24693645.880    96903106.969          50.000  
E30  25119349.280   132003006.883          50.000    25119355.900    98573650.250          50.000  
> 2020  6  4 23 34  4.0000000  0 16       0.000000000000
G 5  22210202.000   116715310.469          50.000                                                  
G12  24053397.240   126401419.941          50.000                                                  
G13  24566521.420   129097961.211          50.000                                                  
G15  23899641.160   125593242.742          50.000                                                  
G20  23433701.220   123144891.414          50.000                                                  
G21  22961136.560   120661586.078          50.000                                                  
G25  22176380.080   116537584.594          50.000    22176383.780    87024813.180          50.000  
G26  23323197.600   122564137.121          50.000    23323199.680    91525157.152          50.000  
G29  20406097.240   107234757.543          50.000                                                  
E 3  26005954.660   136662169.805          50.000    26005960.540   102052902.105          50.000  
E 5  26547457.000   139507783.059          50.000    26547462.520   104177873.301          50.000  
E13  26159957.560   137471464.789          50.000    26159963.180   102657245.109          50.000  
E15  23490801.340   123444959.703          50.000    23490806.620    92182911.563          50.000  
E21  26955676.520   141652996.840          50.000    26955682.120   105779819.355          50.000  
E27  24693848.780   129767013.984          50.000    24693853.960    96903923.461          50.000  
E30  25119916.500   132005987.633          50.000    25119923.120    98575876.133          50.000  
> 2020  6  4 23 34  5.0000000  0 16       0.000000000000
G 5  22210698.940   116717921.871          50.000                                                  
G12  24054124.620   126405242.293          50.000                                                  
G13  24566090.380   129095696.063          50.000                                                  
G15  23899081.040   125590299.230          50.000                                                  
G20  23433043.820   123141436.730          50.000                                                  
G21  22960808.900   120659864.234          50.000                                                  
G25  22176976.200   116540717.176          50.000    22176979.900    87027152.445          50.000  
G26  23322765.160   122561864.676          50.000    23322767.240    91523460.199          50.000  
G29  20406046.260   107234489.617          50.000                                                  
E 3  26005533.480   136659956.516          50.000    26005539.360   102051249.324          50.000  
E 5  26547446.540   139507728.008          50.000    26547452.040   104177832.188          50.000  
E13  26159645.600   137469825.453          50.000    26159651.240   102656020.930          50.000  
E15  23490774.980   123444821.152          50.000    23490780.260    92182808.102          50.000  
E21  26955393.000   141651506.926          50.000    26955398.600   105778706.758          50.000  
E27  24694056.940   129768107.824          50.000    24694062.100    96904740.293          50.000  
E30  25120483.740   132008968.480          50.000    25120490.360    98578102.090          50.000  
> 2020  6  4 23 34  6.0000000  0 16       0.000000000000
G 5  22211195.960   116720533.738          50.000                                                  
G12  24054852.000   126409064.703          50.000                                                  
G13  24565659.380   129093431.152          50.000                                                  
G15  23898520.920   125587355.848          50.000                                                  
G20  23432386.440   123137982.223          50.000                                                  
G21  22960481.280   120658142.582          50.000                                                  
G25  22177572.380   116543850.105          50.000    22177576.080    87029491.969          50.000  
G26  23322332.820   122559592.707          50.000    23322334.900    91521763.602          50.000  
G29  20405995.360   107234222.086          50.000                                                  
E 3  26005112.360   136657743.449          50.000    26005118.240   102049596.715          50.000  
E 5  26547436.140   139507673.410          50.000    26547441.660   104177791.418          50.000  
E13  26159333.660   137468186.172          50.000    26159339.280   102654796.793          50.000  
E15  23490748.620   123444682.703          50.000    23490753.920    92182704.711          50.000  
E21  26955109.560   141650017.422          50.000    26955115.160   105777594.465          50.000  
E27  24694265.180   129769202.113          50.000    24694270.340    96905557.453          50.000  
E30  25121051.000   132011949.430          50.000    25121057.620    98580328.121          50.000  
> 2020  6  4 23 34  7.0000000  0 16       0.000000000000
G 5  22211693.060   116723146.055          50.000                                                  
G12  24055579.380   126412887.164          50.000                                                  
G13  24565228.420   129091166.477          50.000                                                  
G15  23897960.840   125584412.570          50.000                                                  
G20  23431729.100   123134527.891          50.000                                                  
G21  22960153.700   120656421.129          50.000                                                  
G25  22178168.620   116546983.355          50.000    22178172.320    87031831.730          50.000  
G26  23321900.580   122557321.211          50.000    23321902.660    91520067.355          50.000  
G29  20405944.520   107233954.934          50.000                                                  
E 3  26004691.260   136655530.625          50.000    26004697.140   102047944.281          50.000  
E 5  26547425.840   139507619.266          50.000    26547431.340   104177750.984          50.000  
E13  26159021.740   137466546.957          50.000    26159027.360   102653572.707          50.000  
E15  23490722.300   123444544.355          50.000    23490727.600    92182601.402          50.000  
E21  26954826.200   141648528.336          50.000    26954831.800   105776482.488          50.000  
E27  24694473.500   129770296.855          50.000    24694478.660    96906374.957          50.000  
E30  25121618.260   132014930.488          50.000    25121624.880    98582554.230          50.000  
> 2020  6  4 23 34  8.0000000  0 16       0.000000000000
G 5  22212190.260   116725758.797          50.000                                                  
G12  24056306.800   126416709.719          50.000                                                  
G13  24564797.520   129088902.020          50.000                                                  
G15  23897400.760   125581469.406          50.000                                                  
G20  23431071.800   123131073.738          50.000                                                  
G21  22959826.160   120654699.871          50.000                                                  
G25  22178764.920   116550116.926          50.000    22178768.620    87034171.730          50.000  
G26  23321468.420   122555050.191          50.000    23321470.480    91518371.465          50.000  
G29  20405893.740   107233688.156          50.000                                                  
E 3  26004270.220   136653318.035          50.000    26004276.100   102046292.023          50.000  
E 5  26547415.620   139507565.574          50.000    26547421.140   104177710.895          50.000  
E13  26158709.800   137464907.797          50.000    26158715.440   102652348.660          50.000  
E15  23490695.980   123444406.105          50.000    23490701.280    92182498.164          50.000  
E21  26954542.920   141647039.672          50.000    26954548.500   105775370.824          50.000  
E27  24694681.900   129771392.043          50.000    24694687.080    96907192.789          50.000  
E30  25122185.560   132017911.637          50.000    25122192.180    98584780.414          50.000  
> 2020  6  4 23 34  9.0000000  0 16       0.000000000000
G 5  22212687.540   116728371.992          50.000                                                  
G12  24057034.220   126420532.348          50.000                                                  
G13  24564366.640   129086637.797          50.000                                                  
G15  23896840.720   125578526.352          50.000                                                  
G20  23430414.520   123127619.766          50.000                                                  
G21  22959498.640   120652978.813          50.000                                                  
G25  22179361.280   116553250.836          50.000    22179364.980    87036511.992          50.000  
G26  23321036.340   122552779.633          50.000    23321038.420    91516675.918          50.000  
G29  20405843.060   107233421.762          50.000                                                  
E 3  26003849.220   136651105.684          50.000    26003855.100   102044639.945          50.000  
E 5  26547405.500   139507512.344          50.000    26547411.000   104177671.141          50.000  
E13  26158397.900   137463268.707          50.000    26158403.520   102651124.664          50.000  
E15  23490669.700   123444267.965          50.000    23490675.000    92182395.004          50.000  
E21  26954259.720   141645551.418          50.000    26954265.300   105774259.465          50.000  
E27  24694890.400   129772487.680          50.000    24694895.560    96908010.961          50.000  
E30  25122752.880   132020892.906          50.000    25122759.500    98587006.684          50.000  
> 2020  6  4 23 34 10.0000000  0 16       0.000000000000
G 5  22213184.900   116730985.617          50.000                                                  
G12  24057761.660   126424355.047          50.000                                                  
G13  24563935.820   129084373.801          50.000                                                  
G15  23896280.700   125575583.410          50.000                                                  
G20  23429757.300   123124165.977          50.000                                                  
G21  22959171.180   120651257.957          50.000                                                  
G25  22179957.700   116556385.063          50.000    22179961.400    87038852.484          50.000  
G26  23320604.360   122550509.555          50.000    23320606.440    91514980.730          50.000  
G29  20405792.440   107233155.738          50.000                                                  
E 3  26003428.280   136648893.563          50.000    26003434.140   102042988.039          50.000  
E 5  26547395.440   139507459.563          50.000    26547400.960   104177631.730          50.000  
E13  26158086.000   137461629.652          50.000    26158091.620   102649900.695          50.000  
E15  23490643.440   123444129.906          50.000    23490648.720    92182291.910          50.000  
E21  26953976.580   141644063.559          50.000    26953982.160   105773148.402          50.000  
E27  24695098.980   129773583.762          50.000    24695104.140    96908829.461          50.000  
E30  25123320.220   132023874.254          50.000    25123326.840    98589233.012          50.000  
> 2020  6  4 23 34 11.0000000  0 16       0.000000000000
G 5  22213682.340   116733599.691          50.000                                                  
G12  24058489.120   126428177.832          50.000                                                  
G13  24563505.040   129082110.031          50.000                                                  
G15  23895720.700   125572640.586          50.000                                                  
G20  23429100.100   123120712.371          50.000                                                  
G21  22958843.740   120649537.293          50.000                                                  
G25  22180554.180   116559519.621          50.000    22180557.880    87041193.223          50.000  
G26  23320172.460   122548239.941          50.000    23320174.540    91513285.891          50.000  
G29  20405741.880   107232890.090          50.000                                                  
E 3  26003007.360   136646681.684          50.000    26003013.240   102041336.309          50.000  
E 5  26547385.500   139507407.234          50.000    26547391.000   104177592.652          50.000  
E13  26157774.120   137459990.691          50.000    26157779.740   102648676.797          50.000  
E15  23490617.180   123443991.965          50.000    23490622.480    92182188.898          50.000  
E21  26953693.540   141642576.137          50.000    26953699.120   105772037.664          50.000  
E27  24695307.640   129774680.297          50.000    24695312.800    96909648.301          50.000  
E30  25123887.560   132026855.711          50.000    25123894.200    98591459.422          50.000  
> 2020  6  4 23 34 12.0000000  0 16       0.000000000000
G 5  22214179.860   116736214.199          50.000                                                  
G12  24059216.580   126432000.680          50.000                                                  
G13  24563074.300   129079846.492          50.000                                                  
G15  23895160.720   125569697.859          50.000                                                  
G20  23428442.920   123117258.941          50.000                                                  
G21  22958516.360   120647816.832          50.000                                                  
G25  22181150.740   116562654.520          50.000    22181154.440    87043534.215          50.000  
G26  23319740.660   122545970.809          50.000    23319742.740    91511591.410          50.000  
G29  20405691.400   107232624.828          50.000                                                  
E 3  26002586.500   136644470.027          50.000    26002592.380   102039684.750          50.000  
E 5  26547375.620   139507355.359          50.000    26547381.120   104177553.918          50.000  
E13  26157462.240   137458351.762          50.000    26157467.860   102647452.922          50.000  
E15  23490590.940   123443854.113          50.000    23490596.240    92182085.961          50.000  
E21  26953410.560   141641089.121          50.000    26953416.160   105770927.230          50.000  
E27  24695516.400   129775777.281          50.000    24695521.560    96910467.477          50.000  
E30  25124454.940   132029837.262          50.000    25124461.560    98593685.902          50.000  
> 2020  6  4 23 34 13.0000000  0 16       0.000000000000
G 5  22214677.460   116738829.145          50.000                                                  
G12  24059944.060   126435823.605          50.000                                                  
G13  24562643.620   129077583.191          50.000                                                  
G15  23894600.740   125566755.258          50.000                                                  
G20  23427785.800   123113805.711          50.000                                                  
G21  22958189.000   120646096.566          50.000                                                  
G25  22181747.360   116565789.734          50.000    22181751.060    87045875.445          50.000  
G26  23319308.940   122543702.145          50.000    23319311.020    91509897.277          50.000  
G29  20405641.000   107232359.938          50.000                                                  
E 3  26002165.680   136642258.617          50.000    26002171.560   102038033.375          50.000  
E 5  26547365.840   139507303.945          50.000    26547371.340   104177515.523          50.000  
E13  26157150.360   137456712.910          50.000    26157155.980   102646229.105          50.000  
E15  23490564.740   123443716.363          50.000    23490570.020    92181983.094          50.000  
E21  26953127.680   141639602.520          50.000    26953133.260   105769817.109          50.000  
E27  24695725.220   129776874.715          50.000    24695730.400    96911286.988          50.000  
E30  25125022.340   132032818.926          50.000    25125028.960    98595912.469          50.000  
> 2020  6  4 23 34 14.0000000  0 16       0.000000000000
G 5  22215175.160   116741444.508          50.000                                                  
G12  24060671.560   126439646.617          50.000                                                  
G13  24562212.960   129075320.098          50.000                                                  
G15  23894040.820   125563812.770          50.000                                                  
G20  23427128.700   123110352.641          50.000                                                  
G21  22957861.680   120644376.496          50.000                                                  
G25  22182344.020   116568925.281          50.000    22182347.740    87048216.922          50.000  
G26  23318877.320   122541433.953          50.000    23318879.400    91508203.496          50.000  
G29  20405590.660   107232095.430          50.000                                                  
E 3  26001744.900   136640047.438          50.000    26001750.780   102036382.172          50.000  
E 5  26547356.140   139507252.984          50.000    26547361.640   104177477.469          50.000  
E13  26156838.520   137455074.098          50.000    26156844.140   102645005.316          50.000  
E15  23490538.540   123443578.711          50.000    23490543.840    92181880.305          50.000  
E21  26952844.860   141638116.328          50.000    26952850.440   105768707.293          50.000  
E27  24695934.140   129777972.594          50.000    24695939.320    96912106.832          50.000  
E30  25125589.740   132035800.688          50.000    25125596.360    98598139.109          50.000  
> 2020  6  4 23 34 15.0000000  0 16       0.000000000000
G 5  22215672.920   116744060.328          50.000                                                  
G12  24061399.060   126443469.691          50.000                                                  
G13  24561782.360   129073057.254          50.000                                                  
G15  23893480.900   125560870.391          50.000                                                  
G20  23426471.640   123106899.758          50.000                                                  
G21  22957534.400   120642656.617          50.000                                                  
G25  22182940.760   116572061.156          50.000    22182944.480    87050558.648          50.000  
G26  23318445.800   122539166.230          50.000    23318447.860    91506510.070          50.000  
G29  20405540.400   107231831.301          50.000                                                  
E 3  26001324.180   136637836.496          50.000    26001330.060   102034731.145          50.000  
E 5  26547346.520   139507202.469          50.000    26547352.040   104177439.746          50.000  
E13  26156526.660   137453435.355          50.000    26156532.300   102643781.582          50.000  
E15  23490512.360   123443441.160          50.000    23490517.660    92181777.586          50.000  
E21  26952562.120   141636630.555          50.000    26952567.720   105767597.785          50.000  
E27  24696143.160   129779070.918          50.000    24696148.320    96912927.012          50.000  
E30  25126157.180   132038782.551          50.000    25126163.800    98600365.820          50.000  
> 2020  6  4 23 34 16.0000000  0 16       0.000000000000
G 5  22216170.780   116746676.598          50.000                                                  
G12  24062126.580   126447292.848          50.000                                                  
G13  24561351.780   129070794.633          50.000                                                  
G15  23892921.000   125557928.117          50.000                                                  
G20  23425814.600   123103447.059          50.000                                                  
G21  22957207.160   120640936.941          50.000                                                  
G25  22183537.560   116575197.355          50.000    22183541.280    87052900.613          50.000  
G26  23318014.340   122536898.980          50.000    23318016.420    91504816.996          50.000  
G29  20405490.200   107231567.543          50.000                                                  
E 3  26000903.500   136635625.785          50.000    26000909.360   102033080.293          50.000  
E 5  26547337.000   139507152.418          50.000    26547342.500   104177402.367          50.000  
E13  26156214.840   137451796.672          50.000    26156220.460   102642557.895          50.000  
E15  23490486.220   123443303.711          50.000    23490491.500    92181674.945          50.000  
E21  26952279.460   141635145.188          50.000    26952285.060   105766488.582          50.000  
E27  24696352.240   129780169.691          50.000    24696357.400    96913747.523          50.000  
E30  25126724.620   132041764.504          50.000    25126731.240    98602592.605          50.000  
> 2020  6  4 23 34 17.0000000  0 16       0.000000000000
G 5  22216668.720   116749293.301          50.000                                                  
G12  24062854.120   126451116.078          50.000                                                  
G13  24560921.260   129068532.250          50.000                                                  
G15  23892361.120   125554985.969          50.000                                                  
G20  23425157.620   123099994.547          50.000                                                  
G21  22956879.940   120639217.465          50.000                                                  
G25  22184134.420   116578333.879          50.000    22184138.140    87055242.820          50.000  
G26  23317583.000   122534632.215          50.000    23317585.080    91503124.281          50.000  
G29  20405440.080   107231304.164          50.000                                                  
E 3  26000482.860   136633415.309          50.000    26000488.720   102031429.613          50.000  
E 5  26547327.560   139507102.809          50.000    26547333.060   104177365.324          50.000  
E13  26155903.020   137450158.051          50.000    26155908.640   102641334.246          50.000  
E15  23490460.080   123443166.359          50.000    23490465.360    92181572.379          50.000  
E21  26951996.900   141633660.242          50.000    26952002.480   105765379.699          50.000  
E27  24696561.420   129781268.910          50.000    24696566.580    96914568.367          50.000  
E30  25127292.100   132044746.570          50.000    25127298.720    98604819.469          50.000  
> 2020  6  4 23 34 18.0000000  0 16       0.000000000000
G 5  22217166.760   116751910.457          50.000                                                  
G12  24063581.680   126454939.359          50.000                                                  
G13  24560490.800   129066270.090          50.000                                                  
G15  23891801.280   125552043.934          50.000                                                  
G20  23424500.660   123096542.219          50.000                                                  
G21  22956552.780   120637498.184          50.000                                                  
G25  22184731.360   116581470.727          50.000    22184735.060    87057585.270          50.000  
G26  23317151.740   122532365.914          50.000    23317153.800    91501431.914          50.000  
G29  20405390.040   107231041.164          50.000                                                  
E 3  26000062.260   136631205.066          50.000    26000068.120   102029779.105          50.000  
E 5  26547318.200   139507053.660          50.000    26547323.720   104177328.621          50.000  
E13  26155591.200   137448519.488          50.000    26155596.820   102640110.645          50.000  
E15  23490433.960   123443029.109          50.000    23490439.240    92181469.887          50.000  
E21  26951714.400   141632175.719          50.000    26951719.980   105764271.125          50.000  
E27  24696770.680   129782368.582          50.000    24696775.840    96915389.551          50.000  
E30  25127859.580   132047728.734          50.000    25127866.200    98607046.406          50.000  
> 2020  6  4 23 34 19.0000000  0 16       0.000000000000
G 5  22217664.860   116754528.043          50.000                                                  
G12  24064309.240   126458762.738          50.000                                                  
G13  24560060.360   129064008.184          50.000                                                  
G15  23891241.440   125549102.008          50.000                                                  
G20  23423843.740   123093090.070          50.000                                                  
G21  22956225.640   120635779.102          50.000                                                  
G25  22185328.340   116584607.906          50.000    22185332.040    87059927.969          50.000  
G26  23316720.560   122530100.078          50.000    23316722.640    91499739.895          50.000  
G29  20405340.060   107230778.535          50.000                                                  
E 3  25999641.700   136628995.063          50.000    25999647.580   102028128.781          50.000  
E 5  26547308.940   139507004.969          50.000    26547314.440   104177292.262          50.000  
E13  26155279.420   137446880.980          50.000    26155285.040   102638887.086          50.000  
E15  23490407.860   123442891.957          50.000    23490413.140    92181367.469          50.000  
E21  26951431.980   141630691.602          50.000    26951437.560   105763162.855          50.000  
E27  24696980.020   129783468.703          50.000    24696985.200    96916211.066          50.000  
E30  25128427.080   132050711.000          50.000    25128433.720    98609273.422          50.000  
> 2020  6  4 23 34 20.0000000  0 16       0.000000000000
G 5  22218163.060   116757146.070          50.000                                                  
G12  24065036.820   126462586.203          50.000                                                  
G13  24559629.980   129061746.492          50.000                                                  
G15  23890681.620   125546160.191          50.000                                                  
G20  23423186.840   123089638.109          50.000                                                  
G21  22955898.540   120634060.215          50.000                                                  
G25  22185925.380   116587745.402          50.000    22185929.100    87062270.898          50.000  
G26  23316289.480   122527834.723          50.000    23316291.540    91498048.234          50.000  
G29  20405290.160   107230516.293          50.000                                                  
E 3  25999221.200   136626785.297          50.000    25999227.080   102026478.633          50.000  
E 5  26547299.760   139506956.730          50.000    26547305.260   104177256.238          50.000  
E13  26154967.620   137445242.535          50.000    26154973.240   102637663.570          50.000  
E15  23490381.780   123442754.906          50.000    23490387.060    92181265.125          50.000  
E21  26951149.640   141629207.906          50.000    26951155.220   105762054.906          50.000  
E27  24697189.460   129784569.266          50.000    24697194.620    96917032.914          50.000  
E30  25128994.620   132053693.371          50.000    25129001.240    98611500.516          50.000  
> 2020  6  4 23 34 21.0000000  0 16       0.000000000000
G 5  22218661.340   116759764.539          50.000                                                  
G12  24065764.420   126466409.734          50.000                                                  
G13  24559199.640   129059485.023          50.000                                                  
G15  23890121.840   125543218.496          50.000                                                  
G20  23422530.000   123086186.340          50.000                                                  
G21  22955571.500   120632341.523          50.000                                                  
G25  22186522.500   116590883.227          50.000    22186526.200    87064614.078          50.000  
G26  23315858.480   122525569.832          50.000    23315860.560    91496356.922          50.000  
G29  20405240.320   107230254.422          50.000                                                  
E 3  25998800.740   136624575.766          50.000    25998806.600   102024828.660          50.000  
E 5  26547290.660   139506908.941          50.000    26547296.180   104177220.555          50.000  
E13  26154655.840   137443604.145          50.000    26154661.460   102636440.098          50.000  
E15  23490355.720   123442617.961          50.000    23490361.000    92181162.859          50.000  
E21  26950867.380   141627724.605          50.000    26950872.960   105760947.246          50.000  
E27  24697398.980   129785670.285          50.000    24697404.140    96917855.105          50.000  
E30  25129562.160   132056675.836          50.000    25129568.780    98613727.680          50.000  
> 2020  6  4 23 34 22.0000000  0 16       0.000000000000
G 5  22219159.700   116762383.453          50.000                                                  
G12  24066492.020   126470233.313          50.000                                                  
G13  24558769.340   129057223.785          50.000                                                  
G15  23889562.080   125540276.918          50.000                                                  
G20  23421873.180   123082734.742          50.000                                                  
G21  22955244.480   120630623.031          50.000                                                  
G25  22187119.660   116594021.383          50.000    22187123.380    87066957.508          50.000  
G26  23315427.580   122523305.426          50.000    23315429.660    91494665.969          50.000  
G29  20405190.560   107229992.938          50.000                                                  
E 3  25998380.320   136622366.469          50.000    25998386.200   102023178.863          50.000  
E 5  26547281.660   139506861.605          50.000    26547287.160   104177185.207          50.000  
E13  26154344.080   137441965.816          50.000    26154349.700   102635216.676          50.000  
E15  23490329.680   123442481.105          50.000    23490334.960    92181060.664          50.000  
E21  26950585.200   141626241.730          50.000    26950590.780   105759839.902          50.000  
E27  24697608.580   129786771.758          50.000    24697613.740    96918677.633          50.000  
E30  25130129.720   132059658.398          50.000    25130136.360    98615954.914          50.000  
> 2020  6  4 23 34 23.0000000  0 16       0.000000000000
G 5  22219658.160   116765002.797          50.000                                                  
G12  24067219.640   126474056.965          50.000                                                  
G13  24558339.080   129054962.777          50.000                                                  
G15  23889002.340   125537335.441          50.000                                                  
G20  23421216.400   123079283.336          50.000                                                  
G21  22954917.500   120628904.730          50.000                                                  
G25  22187716.900   116597159.867          50.000    22187720.600    87069301.180          50.000  
G26  23314996.760   122521041.496          50.000    23314998.840    91492975.375          50.000  
G29  20405140.880   107229731.809          50.000                                                  
E 3  25997959.960   136620157.410          50.000    25997965.820   102021529.242          50.000  
E 5  26547272.740   139506814.730          50.000    26547278.240   104177150.199          50.000  
E13  26154032.340   137440327.551          50.000    26154037.940   102633993.297          50.000  
E15  23490303.660   123442344.355          50.000    23490308.940    92180958.543          50.000  
E21  26950303.080   141624759.270          50.000    26950308.680   105758732.871          50.000  
E27  24697818.260   129787873.676          50.000    24697823.440    96919500.496          50.000  
E30  25130697.320   132062641.070          50.000    25130703.940    98618182.234          50.000  
> 2020  6  4 23 34 24.0000000  0 16       0.000000000000
G 5  22220156.680   116767622.590          50.000                                                  
G12  24067947.260   126477880.691          50.000                                                  
G13  24557908.860   129052702.000          50.000                                                  
G15  23888442.600   125534394.090          50.000                                                  
G20  23420559.640   123075832.105          50.000                                                  
G21  22954590.540   120627186.629          50.000                                                  
G25  22188314.200   116600298.676          50.000    22188317.900    87071645.094          50.000  
G26  23314566.040   122518778.035          50.000    23314568.120    91491285.125          50.000  
G29  20405091.260   107229471.078          50.000                                                  
E 3  25997539.620   136617948.582          50.000    25997545.500   102019879.797          50.000  
E 5  26547263.900   139506768.309          50.000    26547269.420   104177115.535          50.000  
E13  26153720.580   137438689.336          50.000    26153726.200   102632769.953          50.000  
E15  23490277.640   123442207.703          50.000    23490282.940    92180856.500          50.000  
E21  26950021.060   141623277.219          50.000    26950026.660   105757626.148          50.000  
E27  24698028.040   129788976.035          50.000    24698033.200    96920323.684          50.000  
E30  25131264.920   132065623.836          50.000    25131271.540    98620409.621          50.000  
> 2020  6  4 23 34 25.0000000  0 16       0.000000000000
G 5  22220655.300   116770242.816          50.000                                                  
G12  24068674.920   126481704.512          50.000                                                  
G13  24557478.700   129050441.465          50.000                                                  
G15  23887882.900   125531452.852          50.000                                                  
G20  23419902.920   123072381.063          50.000                                                  
G21  22954263.640   120625468.727          50.000                                                  
G25  22188911.560   116603437.809          50.000    22188915.260    87073989.250          50.000  
G26  23314135.400   122516515.035          50.000    23314137.480    91489595.223          50.000  
G29  20405041.720   107229210.727          50.000                                                  
E 3  25997119.340   136615739.996          50.000    25997125.220   102018230.527          50.000  
E 5  26547255.160   139506722.344          50.000    26547260.660   104177081.211          50.000  
E13  26153408.860   137437051.180          50.000    26153414.480   102631546.656          50.000  
E15  23490251.660   123442071.156          50.000    23490256.960    92180754.531          50.000  
E21  26949739.120   141621795.590          50.000    26949744.700   105756519.734          50.000  
E27  24698237.900   129790078.844          50.000    24698243.060    96921147.211          50.000  
E30  25131832.540   132068606.711          50.000    25131839.160    98622637.090          50.000  
> 2020  6  4 23 34 26.0000000  0 16       0.000000000000
G 5  22221154.000   116772863.484          50.000                                                  
G12  24069402.580   126485528.395          50.000                                                  
G13  24557048.580   129048181.148          50.000                                                  
G15  23887323.220   125528511.723          50.000                                                  
G20  23419246.260   123068930.199          50.000                                                  
G21  22953936.780   120623751.023          50.000                                                  
G25  22189508.980   116606577.266          50.000    22189512.680    87076333.645          50.000  
G26  23313704.860   122514252.527          50.000    23313706.940    91487905.691          50.000  
G29  20404992.240   107228950.754          50.000                                                  
E 3  25996699.100   136613531.641          50.000    25996704.980   102016581.434          50.000  
E 5  26547246.500   139506676.828          50.000    26547252.000   104177047.223          50.000  
E13  26153097.140   137435413.094          50.000    26153102.760   102630323.410          50.000  
E15  23490225.700   123441934.695          50.000    23490230.980    92180652.629          50.000  
E21  26949457.260   141620314.371          50.000    26949462.840   105755413.633          50.000  
E27  24698447.840   129791182.102          50.000    24698453.000    96921971.070          50.000  
E30  25132400.180   132071589.676          50.000    25132406.800    98624864.629          50.000  
> 2020  6  4 23 34 27.0000000  0 16       0.000000000000
G 5  22221652.780   116775484.586          50.000                                                  
G12  24070130.260   126489352.352          50.000                                                  
G13  24556618.500   129045921.070          50.000                                                  
G15  23886763.580   125525570.711          50.000                                                  
G20  23418589.600   123065479.520          50.000                                                  
G21  22953609.940   120622033.512          50.000                                                  
G25  22190106.460   116609717.063          50.000    22190110.160    87078678.297          50.000  
G26  23313274.420   122511990.480          50.000    23313276.480    91486216.504          50.000  
G29  20404942.840   107228691.145          50.000                                                  
E 3  25996278.920   136611323.516          50.000    25996284.780   102014932.508          50.000  
E 5  26547237.920   139506631.762          50.000    26547243.420   104177013.570          50.000  
E13  26152785.440   137433775.063          50.000    26152791.040   102629100.211          50.000  
E15  23490199.740   123441798.348          50.000    23490205.040    92180550.813          50.000  
E21  26949175.460   141618833.566          50.000    26949181.060   105754307.836          50.000  
E27  24698657.860   129792285.805          50.000    24698663.040    96922795.262          50.000  
E30  25132967.840   132074572.734          50.000    25132974.460    98627092.234          50.000  
> 2020  6  4 23 34 28.0000000  0 16       0.000000000000
G 5  22222151.640   116778106.121          50.000                                                  
G12  24070857.940   126493176.387          50.000                                                  
G13  24556188.460   129043661.219          50.000                                                  
G15  23886203.940   125522629.809          50.000                                                  
G20  23417933.000   123062029.027          50.000                                                  
G21  22953283.140   120620316.203          50.000                                                  
G25  22190704.000   116612857.176          50.000    22190707.720    87081023.188          50.000  
G26  23312844.040   122509728.910          50.000    23312846.120    91484527.668          50.000  
G29  20404893.520   107228431.922          50.000                                                  
E 3  25995858.780   136609115.645          50.000    25995864.640   102013283.773          50.000  
E 5  26547229.440   139506587.164          50.000    26547234.940   104176980.266          50.000  
E13  26152473.740   137432137.078          50.000    26152479.340   102627877.039          50.000  
E15  23490173.820   123441662.090          50.000    23490179.120    92180449.063          50.000  
E21  26948893.760   141617353.180          50.000    26948899.340   105753202.355          50.000  
E27  24698867.980   129793389.953          50.000    24698873.140    96923619.789          50.000  
E30  25133535.520   132077555.906          50.000    25133542.140    98629319.926          50.000  
> 2020  6  4 23 34 29.0000000  0 16       0.000000000000
G 5  22222650.580   116780728.105          50.000                                                  
G12  24071585.640   126497000.477          50.000                                                  
G13  24555758.460   129041401.594          50.000                                                  
G15  23885644.320   125519689.027          50.000                                                  
G20  23417276.420   123058578.715          50.000                                                  
G21  22952956.380   120618599.086          50.000                                                  
G25  22191301.620   116615997.613          50.000    22191305.320    87083368.316          50.000  
G26  23312413.780   122507467.816          50.000    23312415.840    91482839.188          50.000  
G29  20404844.260   107228173.082          50.000                                                  
E 3  25995438.660   136606908.004          50.000    25995444.540   102011635.215          50.000  
E 5  26547221.040   139506543.012          50.000    26547226.540   104176947.297          50.000  
E13  26152162.040   137430499.168          50.000    26152167.660   102626653.926          50.000  
E15  23490147.920   123441525.941          50.000    23490153.200    92180347.391          50.000  
E21  26948612.120   141615873.199          50.000    26948617.700   105752097.176          50.000  
E27  24699078.180   129794494.555          50.000    24699083.340    96924444.652          50.000  
E30  25134103.220   132080539.176          50.000    25134109.840    98631547.688          50.000  
> 2020  6  4 23 34 30.0000000  0 16       0.000000000000
G 5  22223149.580   116783350.645          50.000                                                  
G12  24072313.420   126500824.344          50.000                                                  
G13  24555328.520   129039142.238          50.000                                                  
G15  23885084.720   125516748.430          50.000                                                  
G20  23416619.860   123055128.691          50.000                                                  
G21  22952629.680   120616882.105          50.000                                                  
G25  22191899.280   116619138.324          50.000    22191902.980    87085713.684          50.000  
G26  23311983.600   122505207.195          50.000    23311985.660    91481151.121          50.000  
G29  20404795.080   107227914.566          50.000                                                  
E 3  25995018.620   136604700.582          50.000    25995024.480   102009986.813          50.000  
E 5  26547212.720   139506499.363          50.000    26547218.220   104176914.727          50.000  
E13  26151850.400   137428861.168          50.000    26151856.040   102625430.656          50.000  
E15  23490122.020   123441389.895          50.000    23490127.320    92180245.809          50.000  
E21  26948330.580   141614393.684          50.000    26948336.160   105750992.363          50.000  
E27  24699288.480   129795599.590          50.000    24699293.640    96925269.828          50.000  
E30  25134670.940   132083522.492          50.000    25134677.580    98633775.461          50.000  
> 2020  6  4 23 34 31.0000000  0 16       0.000000000000
G 5  22223648.700   116785973.508          50.000                                                  
G12  24073041.160   126504648.602          50.000                                                  
G13  24554898.620   129036883.082          50.000                                                  
G15  23884525.160   125513807.883          50.000                                                  
G20  23415963.360   123051678.730          50.000                                                  
G21  22952303.000   120615165.383          50.000                                                  
G25  22192497.020   116622279.418          50.000    22192500.720    87088059.309          50.000  
G26  23311553.500   122502947.047          50.000    23311555.560    91479463.352          50.000  
G29  20404745.980   107227656.473          50.000                                                  
E 3  25994598.600   136602493.406          50.000    25994604.460   102008338.602          50.000  
E 5  26547204.480   139506456.117          50.000    26547209.980   104176882.434          50.000  
E13  26151538.740   137427223.367          50.000    26151544.380   102624207.625          50.000  
E15  23490096.160   123441253.941          50.000    23490101.440    92180144.281          50.000  
E21  26948049.100   141612914.527          50.000    26948054.680   105749887.797          50.000  
E27  24699498.840   129796705.078          50.000    24699504.020    96926095.355          50.000  
E30  25135238.680   132086505.961          50.000    25135245.320    98636003.375          50.000  
> 2020  6  4 23 34 32.0000000  0 16       0.000000000000
G 5  22224147.900   116788596.789          50.000                                                  
G12  24073768.900   126508472.902          50.000                                                  
G13  24554468.760   129034624.148          50.000                                                  
G15  23883965.600   125510867.441          50.000                                                  
G20  23415306.900   123048228.973          50.000                                                  
G21  22951976.360   120613448.852          50.000                                                  
G25  22193094.820   116625420.828          50.000    22193098.520    87090405.164          50.000  
G26  23311123.500   122500687.367          50.000    23311125.560    91477775.926          50.000  
G29  20404696.940   107227398.766          50.000                                                  
E 3  25994178.640   136600286.465          50.000    25994184.500   102006690.559          50.000  
E 5  26547196.340   139506413.324          50.000    26547201.840   104176850.477          50.000  
E13  26151227.100   137425585.621          50.000    26151232.740   102622984.633          50.000  
E15  23490070.300   123441118.082          50.000    23490075.600    92180042.828          50.000  
E21  26947767.700   141611435.805          50.000    26947773.280   105748783.555          50.000  
E27  24699709.300   129797811.027          50.000    24699714.460    96926921.227          50.000  
E30  25135806.440   132089489.527          50.000    25135813.080    98638231.359          50.000  
> 2020  6  4 23 34 33.0000000  0 16       0.000000000000
G 5  22224647.180   116791220.516          50.000                                                  
G12  24074496.660   126512297.285          50.000                                                  
G13  24554038.940   129032365.449          50.000                                                  
G15  23883406.080   125507927.117          50.000                                                  
G20  23414650.460   123044779.379          50.000                                                  
G21  22951649.760   120611732.512          50.000                                                  
G25  22193692.680   116628562.566          50.000    22193696.380    87092751.266          50.000  
G26  23310693.600   122498428.156          50.000    23310695.640    91476088.855          50.000  
G29  20404647.980   107227141.434          50.000                                                  
E 3  25993758.720   136598079.758          50.000    25993764.580   102005042.695          50.000  
E 5  26547188.280   139506370.984          50.000    26547193.780   104176818.863          50.000  
E13  26150915.460   137423947.934          50.000    26150921.080   102621761.684          50.000  
E15  23490044.460   123440982.316          50.000    23490049.760    92179941.449          50.000  
E21  26947486.400   141609957.477          50.000    26947491.980   105747679.609          50.000  
E27  24699919.840   129798917.410          50.000    24699925.000    96927747.418          50.000  
E30  25136374.220   132092473.180          50.000    25136380.860    98640459.410          50.000  
> 2020  6  4 23 34 34.0000000  0 16       0.000000000000
G 5  22225146.540   116793844.672          50.000                                                  
G12  24075224.440   126516121.746          50.000                                                  
G13  24553609.160   129030106.977          50.000                                                  
G15  23882846.580   125504986.902          50.000                                                  
G20  23413994.060   123041329.988          50.000                                                  
G21  22951323.180   120610016.371          50.000                                                  
G25  22194290.580   116631704.629          50.000    22194294.300    87095097.609          50.000  
G26  23310263.780   122496169.430          50.000    23310265.820    91474402.145          50.000  
G29  20404599.080   107226884.473          50.000                                                  
E 3  25993338.840   136595873.293          50.000    25993344.700   102003395.012          50.000  
E 5  26547180.320   139506329.090          50.000    26547185.820   104176787.578          50.000  
E13  26150603.820   137422310.313          50.000    26150609.460   102620538.789          50.000  
E15  23490018.660   123440846.660          50.000    23490023.940    92179840.145          50.000  
E21  26947205.160   141608479.566          50.000    26947210.740   105746575.980          50.000  
E27  24700130.460   129800024.250          50.000    24700135.640    96928573.953          50.000  
E30  25136942.000   132095456.941          50.000    25136948.640    98642687.543          50.000  
> 2020  6  4 23 34 35.0000000  0 16       0.000000000000
G 5  22225645.980   116796469.270          50.000                                                  
G12  24075952.220   126519946.273          50.000                                                  
G13  24553179.440   129027848.730          50.000                                                  
G15  23882287.100   125502046.813          50.000                                                  
G20  23413337.700   123037880.766          50.000                                                  
G21  22950996.660   120608300.426          50.000                                                  
G25  22194888.560   116634846.996          50.000    22194892.260    87097444.180          50.000  
G26  23309834.040   122493911.168          50.000    23309836.100    91472715.781          50.000  
G29  20404550.260   107226627.902          50.000                                                  
E 3  25992919.000   136593667.051          50.000    25992924.880   102001747.496          50.000  
E 5  26547172.440   139506287.660          50.000    26547177.940   104176756.641          50.000  
E13  26150292.200   137420672.742          50.000    26150297.840   102619315.930          50.000  
E15  23489992.860   123440711.090          50.000    23489998.140    92179738.906          50.000  
E21  26946924.000   141607002.066          50.000    26946929.580   105745472.648          50.000  
E27  24700341.180   129801131.527          50.000    24700346.340    96929400.816          50.000  
E30  25137509.820   132098440.797          50.000    25137516.460    98644915.746          50.000  
> 2020  6  4 23 34 36.0000000  0 16       0.000000000000
G 5  22226145.520   116799094.309          50.000                                                  
G12  24076680.020   126523770.863          50.000                                                  
G13  24552749.760   129025590.719          50.000                                                  
G15  23881727.640   125499106.824          50.000                                                  
G20  23412681.380   123034431.742          50.000                                                  
G21  22950670.160   120606584.680          50.000                                                  
G25  22195486.600   116637989.711          50.000    22195490.300    87099791.012          50.000  
G26  23309404.400   122491653.395          50.000    23309406.460    91471029.781          50.000  
G29  20404501.500   107226371.695          50.000                                                  
E 3  25992499.220   136591461.070          50.000    25992505.080   102000100.176          50.000  
E 5  26547164.640   139506246.684          50.000    26547170.140   104176726.039          50.000  
E13  26149980.600   137419035.234          50.000    26149986.240   102618093.117          50.000  
E15  23489967.080   123440575.637          50.000    23489972.380    92179637.758          50.000  
E21  26946642.920   141605525.000          50.000    26946648.500   105744369.645          50.000  
E27  24700551.980   129802239.273          50.000    24700557.140    96930228.027          50.000  
E30  25138077.660   132101424.758          50.000    25138084.300    98647144.027          50.000  
> 2020  6  4 23 34 37.0000000  0 16       0.000000000000
G 5  22226645.140   116801719.789          50.000                                                  
G12  24077407.840   126527595.535          50.000                                                  
G13  24552320.100   129023332.938          50.000                                                  
G15  23881168.200   125496166.973          50.000                                                  
G20  23412025.080   123030982.895          50.000                                                  
G21  22950343.700   120604869.137          50.000                                                  
G25  22196084.700   116641132.734          50.000    22196088.400    87102138.070          50.000  
G26  23308974.860   122489396.082          50.000    23308976.900    91469344.129          50.000  
G29  20404452.820   107226115.852          50.000                                                  
E 3  25992079.480   136589255.305          50.000    25992085.340   101998453.016          50.000  
E 5  26547156.920   139506206.156          50.000    26547162.420   104176695.777          50.000  
E13  26149669.000   137417397.789          50.000    26149674.640   102616870.348          50.000  
E15  23489941.320   123440440.262          50.000    23489946.620    92179536.664          50.000  
E21  26946361.920   141604048.336          50.000    26946367.500   105743266.945          50.000  
E27  24700762.860   129803347.445          50.000    24700768.020    96931055.559          50.000  
E30  25138645.500   132104408.813          50.000    25138652.140    98649372.375          50.000  
> 2020  6  4 23 34 38.0000000  0 16       0.000000000000
G 5  22227144.840   116804345.707          50.000                                                  
G12  24078135.660   126531420.277          50.000                                                  
G13  24551890.520   129021075.391          50.000                                                  
G15  23880608.800   125493227.227          50.000                                                  
G20  23411368.820   123027534.238          50.000                                                  
G21  22950017.280   120603153.789          50.000                                                  
G25  22196682.860   116644276.082          50.000    22196686.580    87104485.375          50.000  
G26  23308545.400   122487139.246          50.000    23308547.440    91467658.828          50.000  
G29  20404404.220   107225860.422          50.000                                                  
E 3  25991659.780   136587049.781          50.000    25991665.640   101996806.035          50.000  
E 5  26547149.300   139506166.094          50.000    26547154.800   104176665.859          50.000  
E13  26149357.420   137415760.387          50.000    26149363.060   102615647.613          50.000  
E15  23489915.580   123440305.004          50.000    23489920.880    92179435.660          50.000  
E21  26946081.000   141602572.082          50.000    26946086.580   105742164.547          50.000  
E27  24700973.820   129804456.082          50.000    24700979.000    96931883.438          50.000  
E30  25139213.380   132107392.973          50.000    25139220.020    98651600.805          50.000  
> 2020  6  4 23 34 39.0000000  0 16       0.000000000000
G 5  22227644.620   116806972.063          50.000                                                  
G12  24078863.500   126535245.090          50.000                                                  
G13  24551460.960   129018818.070          50.000                                                  
G15  23880049.400   125490287.590          50.000                                                  
G20  23410712.600   123024085.754          50.000                                                  
G21  22949690.900   120601438.633          50.000                                                  
G25  22197281.100   116647419.789          50.000    22197284.800    87106832.945          50.000  
G26  23308116.020   122484882.883          50.000    23308118.080    91465973.883          50.000  
G29  20404355.680   107225605.348          50.000                                                  
E 3  25991240.140   136584844.500          50.000    25991246.000   101995159.234          50.000  
E 5  26547141.760   139506126.477          50.000    26547147.260   104176636.273          50.000  
E13  26149045.840   137414123.051          50.000    26149051.480   102614424.930          50.000  
E15  23489889.860   123440169.840          50.000    23489895.160    92179334.727          50.000  
E21  26945800.160   141601096.258          50.000    26945805.740   105741062.473          50.000  
E27  24701184.880   129805565.148          50.000    24701190.040    96932711.637          50.000  
E30  25139781.260   132110377.238          50.000    25139787.900    98653829.313          50.000  
> 2020  6  4 23 34 40.0000000  0 16       0.000000000000
G 5  22228144.480   116809598.852          50.000                                                  
G12  24079591.360   126539069.965          50.000                                                  
G13  24551031.460   129016560.988          50.000                                                  
G15  23879490.020   125487348.070          50.000                                                  
G20  23410056.400   123020637.457          50.000                                                  
G21  22949364.560   120599723.680          50.000                                                  
G25  22197879.380   116650563.793          50.000    22197883.100    87109180.742          50.000  
G26  23307686.740   122482627.000          50.000    23307688.800    91464289.297          50.000  
G29  20404307.220   107225350.660          50.000                                                  
E 3  25990820.520   136582639.449          50.000    25990826.400   101993512.605          50.000  
E 5  26547134.320   139506087.313          50.000    26547139.820   104176607.031          50.000  
E13  26148734.280   137412485.781          50.000    26148739.920   102613202.297          50.000  
E15  23489864.160   123440034.777          50.000    23489869.460    92179233.867          50.000  
E21  26945519.400   141599620.832          50.000    26945524.980   105739960.695          50.000  
E27  24701396.020   129806674.668          50.000    24701401.180    96933540.176          50.000  
E30  25140349.160   132113361.590          50.000    25140355.820    98656057.887          50.000  
> 2020  6  4 23 34 41.0000000  0 16       0.000000000000
G 5  22228644.420   116812226.078          50.000                                                  
G12  24080319.220   126542894.891          50.000                                                  
G13  24550601.980   129014304.137          50.000                                                  
G15  23878930.680   125484408.676          50.000                                                  
G20  23409400.260   123017189.352          50.000                                                  
G21  22949038.240   120598008.918          50.000                                                  
G25  22198477.740   116653708.125          50.000    22198481.440    87111528.781          50.000  
G26  23307257.560   122480371.590          50.000    23307259.600    91462605.063          50.000  
G29  20404258.820   107225096.355          50.000                                                  
E 3  25990400.960   136580434.641          50.000    25990406.840   101991866.160          50.000  
E 5  26547126.960   139506048.617          50.000    26547132.460   104176578.133          50.000  
E13  26148422.740   137410848.574          50.000    26148428.380   102611979.707          50.000  
E15  23489838.480   123439899.816          50.000    23489843.780    92179133.086          50.000  
E21  26945238.720   141598145.828          50.000    26945244.300   105738859.230          50.000  
E27  24701607.240   129807784.633          50.000    24701612.400    96934369.043          50.000  
E30  25140917.100   132116346.047          50.000    25140923.740    98658286.535          50.000  
> 2020  6  4 23 34 42.0000000  0 16       0.000000000000
G 5  22229144.460   116814853.734          50.000                                                  
G12  24081047.100   126546719.934          50.000                                                  
G13  24550172.580   129012047.520          50.000                                                  
G15  23878371.360   125481469.387          50.000                                                  
G20  23408744.140   123013741.430          50.000                                                  
G21  22948711.980   120596294.371          50.000                                                  
G25  22199076.140   116656852.781          50.000    22199079.860    87113877.059          50.000  
G26  23306828.460   122478116.656          50.000    23306830.520    91460921.184          50.000  
G29  20404210.500   107224842.418          50.000                                                  
E 3  25989981.460   136578230.059          50.000    25989987.320   101990219.887          50.000  
E 5  26547119.680   139506010.359          50.000    26547125.180   104176549.563          50.000  
E13  26148111.200   137409211.406          50.000    26148116.840   102610757.148          50.000  
E15  23489812.820   123439764.949          50.000    23489818.120    92179032.375          50.000  
E21  26944958.120   141596671.246          50.000    26944963.700   105737758.082          50.000  
E27  24701818.540   129808895.055          50.000    24701823.720    96935198.254          50.000  
E30  25141485.040   132119330.598          50.000    25141491.680    98660515.258          50.000  
> 2020  6  4 23 34 43.0000000  0 16       0.000000000000
G 5  22229644.560   116817481.836          50.000                                                  
G12  24081775.000   126550545.039          50.000                                                  
G13  24549743.200   129009791.129          50.000                                                  
G15  23877812.040   125478530.223          50.000                                                  
G20  23408088.060   123010293.691          50.000                                                  
G21  22948385.760   120594580.012          50.000                                                  
G25  22199674.620   116659997.766          50.000    22199678.320    87116225.582          50.000  
G26  23306399.440   122475862.195          50.000    23306401.500    91459237.660          50.000  
G29  20404162.260   107224588.871          50.000                                                  
E 3  25989561.980   136576025.730          50.000    25989567.840   101988573.797          50.000  
E 5  26547112.480   139505972.570          50.000    26547117.980   104176521.344          50.000  
E13  26147799.660   137407574.320          50.000    26147805.300   102609534.648          50.000  
E15  23489787.180   123439630.188          50.000    23489792.480    92178931.742          50.000  
E21  26944677.600   141595197.074          50.000    26944683.180   105736657.242          50.000  
E27  24702029.940   129810005.922          50.000    24702035.100    96936027.793          50.000  
E30  25142053.000   132122315.246          50.000    25142059.640    98662744.051          50.000  
> 2020  6  4 23 34 44.0000000  0 16       0.000000000000
G 5  22230144.760   116820110.383          50.000                                                  
G12  24082502.920   126554370.207          50.000                                                  
G13  24549313.860   129007534.977          50.000                                                  
G15  23877252.760   125475591.176          50.000                                                  
G20  23407432.000   123006846.137          50.000                                                  
G21  22948059.560   120592865.844          50.000                                                  
G25  22200273.160   116663143.070          50.000    22200276.860    87118574.348          50.000  
G26  23305970.520   122473608.211          50.000    23305972.580    91457554.488          50.000  
G29  20404114.080   107224335.707          50.000                                                  
E 3  25989142.560   136573821.629          50.000    25989148.420   101986927.879          50.000  
E 5  26547105.380   139505935.223          50.000    26547110.880   104176493.457          50.000  
E13  26147488.160   137405937.281          50.000    26147493.780   102608312.184          50.000  
E15  23489761.560   123439495.520          50.000    23489766.840    92178831.180          50.000  
E21  26944397.160   141593723.316          50.000    26944402.740   105735556.707          50.000  
E27  24702241.420   129811117.238          50.000    24702246.580    96936857.672          50.000  
E30  25142620.980   132125300.004          50.000    25142627.640    98664972.926          50.000  
> 2020  6  4 23 34 45.0000000  0 16       0.000000000000
G 5  22230645.040   116822739.336          50.000                                                  
G12  24083230.840   126558195.445          50.000                                                  
G13  24548884.580   129005279.051          50.000                                                  
G15  23876693.500   125472652.250          50.000                                                  
G20  23406776.000   123003398.770          50.000                                                  
G21  22947733.400   120591151.883          50.000                                                  
G25  22200871.740   116666288.688          50.000    22200875.460    87120923.348          50.000  
G26  23305541.700   122471354.699          50.000    23305543.760    91455871.672          50.000  
G29  20404065.980   107224082.918          50.000                                                  
E 3  25988723.180   136571617.773          50.000    25988729.040   101985282.141          50.000  
E 5  26547098.360   139505898.340          50.000    26547103.860   104176465.914          50.000  
E13  26147176.640   137404300.313          50.000    26147182.280   102607089.773          50.000  
E15  23489735.960   123439360.969          50.000    23489741.240    92178730.699          50.000  
E21  26944116.780   141592249.980          50.000    26944122.360   105734456.492          50.000  
E27  24702452.980   129812229.000          50.000    24702458.160    96937687.883          50.000  
E30  25143188.980   132128284.859          50.000    25143195.640    98667201.875          50.000  
> 2020  6  4 23 34 46.0000000  0 16       0.000000000000
G 5  22231145.400   116825368.754          50.000                                                  
G12  24083958.760   126562020.758          50.000                                                  
G13  24548455.340   129003023.363          50.000                                                  
G15  23876134.260   125469713.434          50.000                                                  
G20  23406120.020   122999951.582          50.000                                                  
G21  22947407.280   120589438.109          50.000                                                  
G25  22201470.400   116669434.641          50.000    22201474.120    87123272.598          50.000  
G26  23305112.960   122469101.664          50.000    23305115.020    91454189.211          50.000  
G29  20404017.960   107223830.516          50.000                                                  
E 3  25988303.840   136569414.141          50.000    25988309.700   101983636.574          50.000  
E 5  26547091.440   139505861.902          50.000    26547096.940   104176438.707          50.000  
E13  26146865.160   137402663.383          50.000    26146870.780   102605867.395          50.000  
E15  23489710.360   123439226.496          50.000    23489715.660    92178630.281          50.000  
E21  26943836.500   141590777.055          50.000    26943842.080   105733356.578          50.000  
E27  24702664.620   129813341.203          50.000    24702669.800    96938518.426          50.000  
E30  25143757.000   132131269.801          50.000    25143763.660    98669430.887          50.000  
> 2020  6  4 23 34 47.0000000  0 16       0.000000000000
G 5  22231645.860   116827998.598          50.000                                                  
G12  24084686.720   126565846.168          50.000                                                  
G13  24548026.140   129000767.902          50.000                                                  
G15  23875575.060   125466774.750          50.000                                                  
G20  23405464.080   122996504.586          50.000                                                  
G21  22947081.200   120587724.539          50.000                                                  
G25  22202069.140   116672580.930          50.000    22202072.840    87125622.098          50.000  
G26  23304684.320   122466849.098          50.000    23304686.380    91452507.102          50.000  
G29  20403970.000   107223578.488          50.000                                                  
E 3  25987884.560   136567210.758          50.000    25987890.420   101981991.195          50.000  
E 5  26547084.600   139505825.926          50.000    26547090.100   104176411.840          50.000  
E13  26146553.660   137401026.520          50.000    26146559.300   102604645.063          50.000  
E15  23489684.800   123439092.129          50.000    23489690.100    92178529.945          50.000  
E21  26943556.300   141589304.547          50.000    26943561.860   105732256.977          50.000  
E27  24702876.360   129814453.848          50.000    24702881.540    96939349.297          50.000  
E30  25144325.040   132134254.859          50.000    25144331.700    98671659.988          50.000  
> 2020  6  4 23 34 48.0000000  0 16       0.000000000000
G 5  22232146.380   116830628.879          50.000                                                  
G12  24085414.680   126569671.602          50.000                                                  
G13  24547596.980   128998512.680          50.000                                                  
G15  23875015.860   125463836.156          50.000                                                  
G20  23404808.180   122993057.773          50.000                                                  
G21  22946755.160   120586011.164          50.000                                                  
G25  22202667.920   116675727.531          50.000    22202671.620    87127971.832          50.000  
G26  23304255.760   122464597.012          50.000    23304257.820    91450825.352          50.000  
G29  20403922.100   107223326.840          50.000                                                  
E 3  25987465.320   136565007.613          50.000    25987471.160   101980345.988          50.000  
E 5  26547077.840   139505790.406          50.000    26547083.340   104176385.316          50.000  
E13  26146242.200   137399389.727          50.000    26146247.840   102603422.781          50.000  
E15  23489659.260   123438957.867          50.000    23489664.540    92178429.684          50.000  
E21  26943276.160   141587832.449          50.000    26943281.740   105731157.688          50.000  
E27  24703088.180   129815566.953          50.000    24703093.360    96940180.512          50.000  
E30  25144893.100   132137240.004          50.000    25144899.760    98673889.152          50.000  
> 2020  6  4 23 34 49.0000000  0 16       0.000000000000
G 5  22232646.980   116833259.594          50.000                                                  
G12  24086142.660   126573497.137          50.000                                                  
G13  24547167.880   128996257.688          50.000                                                  
G15  23874456.700   125460897.695          50.000                                                  
G20  23404152.300   122989611.148          50.000                                                  
G21  22946429.160   120584297.988          50.000                                                  
G25  22203266.760   116678874.457          50.000    22203270.460    87130321.805          50.000  
G26  23303827.300   122462345.402          50.000    23303829.340    91449143.953          50.000  
G29  20403874.300   107223075.570          50.000                                                  
E 3  25987046.120   136562804.703          50.000    25987051.960   101978700.957          50.000  
E 5  26547071.160   139505755.340          50.000    26547076.660   104176359.125          50.000  
E13  26145930.740   137397752.973          50.000    26145936.360   102602200.531          50.000  
E15  23489633.720   123438823.711          50.000    23489639.020    92178329.500          50.000  
E21  26942996.120   141586360.770          50.000    26943001.700   105730058.703          50.000  
E27  24703300.080   129816680.504          50.000    24703305.260    96941012.055          50.000  
E30  25145461.180   132140225.254          50.000    25145467.820    98676118.395          50.000  
> 2020  6  4 23 34 50.0000000  0 16       0.000000000000
G 5  22233147.680   116835890.758          50.000                                                  
G12  24086870.660   126577322.730          50.000                                                  
G13  24546738.800   128994002.930          50.000                                                  
G15  23873897.540   125457959.348          50.000                                                  
G20  23403496.460   122986164.711          50.000                                                  
G21  22946103.180   120582585.000          50.000                                                  
G25  22203865.660   116682021.703          50.000    22203869.360    87132672.020          50.000  
G26  23303398.920   122460094.266          50.000    23303400.980    91447462.914          50.000  
G29  20403826.560   107222824.684          50.000                                                  
E 3  25986626.960   136560602.027          50.000    25986632.820   101977056.102          50.000  
E 5  26547064.580   139505720.730          50.000    26547070.080   104176333.277          50.000  
E13  26145619.280   137396116.297          50.000    26145624.920   102600978.336          50.000  
E15  23489608.220   123438689.645          50.000    23489613.500    92178229.383          50.000  
E21  26942716.140   141584889.508          50.000    26942721.720   105728960.031          50.000  
E27  24703512.060   129817794.500          50.000    24703517.240    96941843.934          50.000  
E30  25146029.280   132143210.605          50.000    25146035.920    98678347.707          50.000  
> 2020  6  4 23 34 51.0000000  0 16       0.000000000000
G 5  22233648.460   116838522.367          50.000                                                  
G12  24087598.660   126581148.406          50.000                                                  
G13  24546309.780   128991748.406          50.000                                                  
G15  23873338.420   125455021.109          50.000                                                  
G20  23402840.660   122982718.449          50.000                                                  
G21  22945777.260   120580872.211          50.000                                                  
G25  22204464.620   116685169.277          50.000    22204468.340    87135022.480          50.000  
G26  23302970.640   122457843.602          50.000    23302972.680    91445782.223          50.000  
G29  20403778.880   107222574.176          50.000                                                  
E 3  25986207.840   136558399.598          50.000    25986213.700   101975411.426          50.000  
E 5  26547058.080   139505686.570          50.000    26547063.580   104176307.766          50.000  
E13  26145307.840   137394479.680          50.000    26145313.480   102599756.180          50.000  
E15  23489582.720   123438555.680          50.000    23489588.020    92178129.340          50.000  
E21  26942436.240   141583418.668          50.000    26942441.820   105727861.672          50.000  
E27  24703724.140   129818908.941          50.000    24703729.320    96942676.141          50.000  
E30  25146597.380   132146196.047          50.000    25146604.040    98680577.090          50.000  
> 2020  6  4 23 34 52.0000000  0 16       0.000000000000
G 5  22234149.340   116841154.426          50.000                                                  
G12  24088326.680   126584974.152          50.000                                                  
G13  24545880.800   128989494.121          50.000                                                  
G15  23872779.320   125452083.008          50.000                                                  
G20  23402184.900   122979272.387          50.000                                                  
G21  22945451.360   120579159.633          50.000                                                  
G25  22205063.640   116688317.164          50.000    22205067.360    87137373.168          50.000  
G26  23302542.440   122455593.422          50.000    23302544.500    91444101.891          50.000  
G29  20403731.280   107222324.051          50.000                                                  
E 3  25985788.780   136556197.406          50.000    25985794.640   101973766.930          50.000  
E 5  26547051.660   139505652.867          50.000    26547057.160   104176282.594          50.000  
E13  26144996.420   137392843.113          50.000    26145002.060   102598534.066          50.000  
E15  23489557.240   123438421.816          50.000    23489562.540    92178029.371          50.000  
E21  26942156.440   141581948.242          50.000    26942162.020   105726763.625          50.000  
E27  24703936.300   129820023.852          50.000    24703941.480    96943508.699          50.000  
E30  25147165.520   132149181.602          50.000    25147172.180    98682806.559          50.000  
> 2020  6  4 23 34 53.0000000  0 16       0.000000000000
G 5  22234650.280   116843786.926          50.000                                                  
G12  24089054.700   126588799.965          50.000                                                  
G13  24545451.880   128987240.066          50.000                                                  
G15  23872220.240   125449145.020          50.000                                                  
G20  23401529.180   122975826.504          50.000                                                  
G21  22945125.500   120577447.250          50.000                                                  
G25  22205662.740   116691465.383          50.000    22205666.440    87139724.105          50.000  
G26  23302114.340   122453343.719          50.000    23302116.380    91442421.914          50.000  
G29  20403683.760   107222074.301          50.000                                                  
E 3  25985369.760   136553995.449          50.000    25985375.620   101972122.609          50.000  
E 5  26547045.340   139505619.625          50.000    26547050.840   104176257.770          50.000  
E13  26144685.000   137391206.605          50.000    26144690.640   102597312.000          50.000  
E15  23489531.800   123438288.055          50.000    23489537.080    92177929.480          50.000  
E21  26941876.700   141580478.230          50.000    26941882.280   105725665.887          50.000  
E27  24704148.540   129821139.195          50.000    24704153.720    96944341.578          50.000  
E30  25147733.680   132152167.246          50.000    25147740.320    98685036.090          50.000  
> 2020  6  4 23 34 54.0000000  0 16       0.000000000000
G 5  22235151.320   116846419.859          50.000                                                  
G12  24089782.740   126592625.848          50.000                                                  
G13  24545022.980   128984986.242          50.000                                                  
G15  23871661.160   125446207.141          50.000                                                  
G20  23400873.480   122972380.813          50.000                                                  
G21  22944799.680   120575735.055          50.000                                                  
G25  22206261.880   116694613.934          50.000    22206265.600    87142075.289          50.000  
G26  23301686.320   122451094.484          50.000    23301688.380    91440742.289          50.000  
G29  20403636.320   107221824.934          50.000                                                  
E 3  25984950.780   136551793.734          50.000    25984956.640   101970478.473          50.000  
E 5  26547039.100   139505586.828          50.000    26547044.600   104176233.273          50.000  
E13  26144373.600   137389570.172          50.000    26144379.240   102596089.984          50.000  
E15  23489506.360   123438154.391          50.000    23489511.660    92177829.664          50.000  
E21  26941597.040   141579008.629          50.000    26941602.620   105724568.453          50.000  
E27  24704360.860   129822254.973          50.000    24704366.040    96945174.785          50.000  
E30  25148301.840   132155152.984          50.000    25148308.500    98687265.695          50.000  
> 2020  6  4 23 34 55.0000000  0 16       0.000000000000
G 5  22235652.420   116849053.246          50.000                                                  
G12  24090510.800   126596451.777          50.000                                                  
G13  24544594.140   128982732.664          50.000                                                  
G15  23871102.140   125443269.379          50.000                                                  
G20  23400217.820   122968935.301          50.000                                                  
G21  22944473.900   120574023.063          50.000                                                  
G25  22206861.100   116697762.797          50.000    22206864.820    87144426.711          50.000  
G26  23301258.400   122448845.727          50.000    23301260.440    91439063.020          50.000  
G29  20403588.920   107221575.945          50.000                                                  
E 3  25984531.860   136549592.258          50.000    25984537.720   101968834.508          50.000  
E 5  26547032.940   139505554.496          50.000    26547038.440   104176209.125          50.000  
E13  26144062.200   137387933.766          50.000    26144067.840   102594867.988          50.000  
E15  23489480.940   123438020.820          50.000    23489486.240    92177729.918          50.000  
E21  26941317.460   141577539.438          50.000    26941323.040   105723471.324          50.000  
E27  24704573.280   129823371.215          50.000    24704578.460    96946008.336          50.000  
E30  25148870.020   132158138.820          50.000    25148876.680    98689495.371          50.000  
> 2020  6  4 23 34 56.0000000  0 16       0.000000000000
G 5  22236153.620   116851687.051          50.000                                                  
G12  24091238.860   126600277.805          50.000                                                  
G13  24544165.340   128980479.328          50.000                                                  
G15  23870543.120   125440331.746          50.000                                                  
G20  23399562.200   122965489.980          50.000                                                  
G21  22944148.160   120572311.266          50.000                                                  
G25  22207460.360   116700911.980          50.000    22207464.080    87146778.367          50.000  
G26  23300830.560   122446597.449          50.000    23300832.620    91437384.105          50.000  
G29  20403541.620   107221327.336          50.000                                                  
E 3  25984112.980   136547391.008          50.000    25984118.840   101967190.715          50.000  
E 5  26547026.880   139505522.602          50.000    26547032.380   104176185.305          50.000  
E13  26143750.820   137386297.441          50.000    26143756.460   102593646.055          50.000  
E15  23489455.540   123437887.348          50.000    23489460.840    92177630.242          50.000  
E21  26941037.960   141576070.668          50.000    26941043.560   105722374.512          50.000  
E27  24704785.780   129824487.883          50.000    24704790.960    96946842.207          50.000  
E30  25149438.240   132161124.754          50.000    25149444.900    98691725.121          50.000  
> 2020  6  4 23 34 57.0000000  0 16       0.000000000000
G 5  22236654.900   116854321.301          50.000                                                  
G12  24091966.940   126604103.902          50.000                                                  
G13  24543736.580   128978226.203          50.000                                                  
G15  23869984.120   125437394.234          50.000                                                  
G20  23398906.600   122962044.840          50.000                                                  
G21  22943822.460   120570599.668          50.000                                                  
G25  22208059.700   116704061.496          50.000    22208063.420    87149130.273          50.000  
G26  23300402.820   122444349.652          50.000    23300404.880    91435705.551          50.000  
G29  20403494.380   107221079.117          50.000                                                  
E 3  25983694.140   136545190.008          50.000    25983700.000   101965547.105          50.000  
E 5  26547020.900   139505491.176          50.000    26547026.400   104176161.832          50.000  
E13  26143439.440   137384661.172          50.000    26143445.080   102592424.160          50.000  
E15  23489430.160   123437753.984          50.000    23489435.460    92177530.648          50.000  
E21  26940758.540   141574602.316          50.000    26940764.140   105721278.016          50.000  
E27  24704998.360   129825605.012          50.000    24705003.540    96947676.426          50.000  
E30  25150006.460   132164110.789          50.000    25150013.120    98693954.945          50.000  
> 2020  6  4 23 34 58.0000000  0 16       0.000000000000
G 5  22237156.260   116856955.980          50.000                                                  
G12  24092695.040   126607930.059          50.000                                                  
G13  24543307.880   128975973.324          50.000                                                  
G15  23869425.160   125434456.832          50.000                                                  
G20  23398251.040   122958599.883          50.000                                                  
G21  22943496.780   120568888.262          50.000                                                  
G25  22208659.100   116707211.336          50.000    22208662.820    87151482.422          50.000  
G26  23299975.160   122442102.316          50.000    23299977.220    91434027.348          50.000  
G29  20403447.220   107220831.277          50.000                                                  
E 3  25983275.340   136542989.230          50.000    25983281.200   101963903.668          50.000  
E 5  26547015.000   139505460.199          50.000    26547020.500   104176138.695          50.000  
E13  26143128.080   137383024.953          50.000    26143133.720   102591202.309          50.000  
E15  23489404.800   123437620.707          50.000    23489410.100    92177431.121          50.000  
E21  26940479.200   141573134.379          50.000    26940484.800   105720181.824          50.000  
E27  24705211.020   129826722.594          50.000    24705216.220    96948510.977          50.000  
E30  25150574.700   132167096.922          50.000    25150581.360    98696184.844          50.000  
> 2020  6  4 23 34 59.0000000  0 16       0.000000000000
G 5  22237657.720   116859591.090          50.000                                                  
G12  24093423.160   126611756.297          50.000                                                  
G13  24542879.220   128973720.672          50.000                                                  
G15  23868866.200   125431519.547          50.000                                                  
G20  23397595.520   122955155.121          50.000                                                  
G21  22943171.140   120567177.059          50.000                                                  
G25  22209258.560   116710361.496          50.000    22209262.280    87153834.809          50.000  
G26  23299547.600   122439855.461          50.000    23299549.660    91432349.496          50.000  
G29  20403400.140   107220583.813          50.000                                                  
E 3  25982856.600   136540788.707          50.000    25982862.460   101962260.418          50.000  
E 5  26547009.180   139505429.680          50.000    26547014.700   104176115.902          50.000  
E13  26142816.740   137381388.805          50.000    26142822.380   102589980.504          50.000  
E15  23489379.460   123437487.543          50.000    23489384.760    92177331.676          50.000  
E21  26940199.960   141571666.867          50.000    26940205.540   105719085.953          50.000  
E27  24705423.780   129827840.609          50.000    24705428.960    96949345.852          50.000  
E30  25151142.960   132170083.164          50.000    25151149.620    98698414.824          50.000  
> 2020  6  4 23 35  0.0000000  0 16       0.000000000000
G 5  22238159.240   116862226.621          50.000                                                  
G12  24094151.280   126615582.605          50.000                                                  
G13  24542450.600   128971468.262          50.000                                                  
G15  23868307.280   125428582.383          50.000                                                  
G20  23396940.040   122951710.535          50.000                                                  
G21  22942845.560   120565466.043          50.000                                                  
G25  22209858.060   116713511.977          50.000    22209861.800    87156187.434          50.000  
G26  23299120.120   122437609.090          50.000    23299122.180    91430672.008          50.000  
G29  20403353.120   107220336.730          50.000                                                  
E 3  25982437.900   136538588.426          50.000    25982443.760   101960617.348          50.000  
E 5  26547003.460   139505399.613          50.000    26547008.980   104176093.445          50.000  
E13  26142505.400   137379752.711          50.000    26142511.040   102588758.746          50.000  
E15  23489354.140   123437354.477          50.000    23489359.440    92177232.305          50.000  
E21  26939920.760   141570199.762          50.000    26939926.360   105717990.383          50.000  
E27  24705636.620   129828959.074          50.000    24705641.800    96950181.066          50.000  
E30  25151711.240   132173069.492          50.000    25151717.920    98700644.871          50.000  
> 2020  6  4 23 35  1.0000000  0 16       0.000000000000
G 5  22238660.860   116864862.605          50.000                                                  
G12  24094879.400   126619408.945          50.000                                                  
G13  24542022.020   128969216.121          50.000                                                  
G15  23867748.380   125425645.336          50.000                                                  
G20  23396284.600   122948266.125          50.000                                                  
G21  22942520.000   120563755.234          50.000                                                  
G25  22210457.640   116716662.777          50.000    22210461.380    87158540.301          50.000  
G26  23298692.740   122435363.195          50.000    23298694.800    91428994.879          50.000  
G29  20403306.160   107220090.031          50.000                                                  
E 3  25982019.240   136536388.375          50.000    25982025.100   101958974.449          50.000  
E 5  26546997.840   139505370.008          50.000    26547003.340   104176071.336          50.000  
E13  26142194.060   137378116.676          50.000    26142199.700   102587537.027          50.000  
E15  23489328.840   123437221.512          50.000    23489334.140    92177133.008          50.000  
E21  26939641.660   141568733.086          50.000    26939647.260   105716895.133          50.000  
E27  24705849.540   129830077.996          50.000    24705854.740    96951016.621          50.000  
E30  25152279.540   132176055.922          50.000    25152286.220    98702874.988          50.000  
> 2020  6  4 23 35  2.0000000  0 16       0.000000000000
G 5  22239162.540   116867499.008          50.000                                                  
G12  24095607.560   126623235.391          50.000                                                  
G13  24541593.500   128966964.180          50.000                                                  
G15  23867189.500   125422708.406          50.000                                                  
G20  23395629.180   122944821.910          50.000                                                  
G21  22942194.480   120562044.613          50.000                                                  
G25  22211057.280   116719813.902          50.000    22211061.020    87160893.406          50.000  
G26  23298265.460   122433117.777          50.000    23298267.520    91427318.102          50.000  
G29  20403259.300   107219843.707          50.000                                                  
E 3  25981600.620   136534188.555          50.000    25981606.500   101957331.723          50.000  
E 5  26546992.280   139505340.852          50.000    26546997.800   104176049.559          50.000  
E13  26141882.740   137376480.699          50.000    26141888.400   102586315.355          50.000  
E15  23489303.560   123437088.633          50.000    23489308.860    92177033.773          50.000  
E21  26939362.640   141567266.813          50.000    26939368.240   105715800.188          50.000  
E27  24706062.560   129831197.363          50.000    24706067.740    96951852.508          50.000  
E30  25152847.860   132179042.441          50.000    25152854.540    98705105.176          50.000  
> 2020  6  4 23 35  3.0000000  0 16       0.000000000000
G 5  22239664.320   116870135.848          50.000                                                  
G12  24096335.720   126627061.906          50.000                                                  
G13  24541165.000   128964712.477          50.000                                                  
G15  23866630.640   125419771.594          50.000                                                  
G20  23394973.800   122941377.883          50.000                                                  
G21  22941869.000   120560334.195          50.000                                                  
G25  22211656.980   116722965.344          50.000    22211660.720    87163246.750          50.000  
G26  23297838.260   122430872.832          50.000    23297840.320    91425641.676          50.000  
G29  20403212.500   107219597.758          50.000                                                  
E 3  25981182.060   136531988.988          50.000    25981187.920   101955689.188          50.000  
E 5  26546986.820   139505312.152          50.000    26546992.340   104176028.121          50.000  
E13  26141571.440   137374844.781          50.000    26141577.080   102585093.723          50.000  
E15  23489278.280   123436955.867          50.000    23489283.600    92176934.629          50.000  
E21  26939083.700   141565800.957          50.000    26939089.300   105714705.551          50.000  
E27  24706275.640   129832317.176          50.000    24706280.840    96952688.727          50.000  
E30  25153416.200   132182029.066          50.000    25153422.860    98707335.441          50.000  
> 2020  6  4 23 35  4.0000000  0 16       0.000000000000
G 5  22240166.180   116872773.117          50.000                                                  
G12  24097063.900   126630888.496          50.000                                                  
G13  24540736.560   128962461.004          50.000                                                  
G15  23866071.800   125416834.902          50.000                                                  
G20  23394318.460   122937934.043          50.000                                                  
G21  22941543.540   120558623.969          50.000                                                  
G25  22212256.760   116726117.113          50.000    22212260.480    87165600.340          50.000  
G26  23297411.160   122428628.363          50.000    23297413.220    91423965.609          50.000  
G29  20403165.760   107219352.195          50.000                                                  
E 3  25980763.540   136529789.652          50.000    25980769.400   101954046.828          50.000  
E 5  26546981.440   139505283.898          50.000    26546986.960   104176007.020          50.000  
E13  26141260.140   137373208.914          50.000    26141265.800   102583872.133          50.000  
E15  23489253.040   123436823.195          50.000    23489258.340    92176835.551          50.000  
E21  26938804.840   141564335.516          50.000    26938810.420   105713611.227          50.000  
E27  24706488.820   129833437.438          50.000    24706494.020    96953525.281          50.000  
E30  25153984.560   132185015.777          50.000    25153991.220    98709565.773          50.000  
> 2020  6  4 23 35  5.0000000  0 16       0.000000000000
G 5  22240668.120   116875410.828          50.000                                                  
G12  24097792.080   126634715.113          50.000                                                  
G13  24540308.160   128960209.777          50.000                                                  
G15  23865513.000   125413898.340          50.000                                                  
G20  23393663.160   122934490.391          50.000                                                  
G21  22941218.140   120556913.930          50.000                                                  
G25  22212856.580   116729269.199          50.000    22212860.300    87167954.164          50.000  
G26  23296984.140   122426384.371          50.000    23296986.200    91422289.898          50.000  
G29  20403119.100   107219107.023          50.000                                                  
E 3  25980345.060   136527590.566          50.000    25980350.940   101952404.652          50.000  
E 5  26546976.160   139505256.121          50.000    26546981.680   104175986.277          50.000  
E13  26140948.860   137371573.129          50.000    26140954.500   102582650.605          50.000  
E15  23489227.820   123436690.633          50.000    23489233.120    92176736.563          50.000  
E21  26938526.060   141562870.500          50.000    26938531.640   105712517.219          50.000  
E27  24706702.080   129834558.133          50.000    24706707.280    96954362.164          50.000  
E30  25154552.920   132188002.590          50.000    25154559.600    98711796.184          50.000  
> 2020  6  4 23 35  6.0000000  0 16       0.000000000000
G 5  22241170.140   116878048.969          50.000                                                  
G12  24098520.280   126638541.863          50.000                                                  
G13  24539879.820   128957958.785          50.000                                                  
G15  23864954.200   125410961.867          50.000                                                  
G20  23393007.880   122931046.926          50.000                                                  
G21  22940892.760   120555204.090          50.000                                                  
G25  22213456.460   116732421.613          50.000    22213460.180    87170308.234          50.000  
G26  23296557.200   122424140.859          50.000    23296559.280    91420614.547          50.000  
G29  20403072.520   107218862.199          50.000                                                  
E 3  25979926.640   136525391.703          50.000    25979932.500   101950762.645          50.000  
E 5  26546970.960   139505228.773          50.000    26546976.480   104175965.855          50.000  
E13  26140637.600   137369937.383          50.000    26140643.240   102581429.109          50.000  
E15  23489202.600   123436558.152          50.000    23489207.900    92176637.629          50.000  
E21  26938247.340   141561405.887          50.000    26938252.940   105711423.520          50.000  
E27  24706915.440   129835679.277          50.000    24706920.620    96955199.383          50.000  
E30  25155121.320   132190989.512          50.000    25155128.000    98714026.676          50.000  
> 2020  6  4 23 35  7.0000000  0 16       0.000000000000
G 5  22241672.240   116880687.559          50.000                                                  
G12  24099248.500   126642368.645          50.000                                                  
G13  24539451.520   128955708.020          50.000                                                  
G15  23864395.440   125408025.535          50.000                                                  
G20  23392352.640   122927603.641          50.000                                                  
G21  22940567.420   120553494.453          50.000                                                  
G25  22214056.400   116735574.352          50.000    22214060.140    87172662.547          50.000  
G26  23296130.360   122421897.809          50.000    23296132.440    91418939.539          50.000  
G29  20403026.000   107218617.777          50.000                                                  
E 3  25979508.260   136523193.090          50.000    25979514.120   101949120.828          50.000  
E 5  26546965.840   139505201.895          50.000    26546971.360   104175945.785          50.000  
E13  26140326.340   137368301.695          50.000    26140331.980   102580207.656          50.000  
E15  23489177.420   123436425.781          50.000    23489182.720    92176538.781          50.000  
E21  26937968.720   141559941.703          50.000    26937974.320   105710330.137          50.000  
E27  24707128.860   129836800.879          50.000    24707134.060    96956036.941          50.000  
E30  25155689.720   132193976.516          50.000    25155696.400    98716257.227          50.000  
> 2020  6  4 23 35  8.0000000  0 16       0.000000000000
G 5  22242174.440   116883326.590          50.000                                                  
G12  24099976.720   126646195.488          50.000                                                  
G13  24539023.260   128953457.504          50.000                                                  
G15  23863836.680   125405089.305          50.000                                                  
G20  23391697.440   122924160.547          50.000                                                  
G21  22940242.140   120551785.020          50.000                                                  
G25  22214656.420   116738727.410          50.000    22214660.140    87175017.098          50.000  
G26  23295703.620   122419655.250          50.000    23295705.680    91417264.898          50.000  
G29  20402979.560   107218373.727          50.000                                                  
E 3  25979089.920   136520994.703          50.000    25979095.780   101947479.176          50.000  
E 5  26546960.820   139505175.465          50.000    26546966.320   104175926.051          50.000  
E13  26140015.080   137366666.070          50.000    26140020.720   102578986.246          50.000  
E15  23489152.240   123436293.504          50.000    23489157.540    92176440.004          50.000  
E21  26937690.180   141558477.926          50.000    26937695.760   105709237.055          50.000  
E27  24707342.380   129837922.918          50.000    24707347.580    96956874.828          50.000  
E30  25156258.160   132196963.617          50.000    25156264.820    98718487.852          50.000  
> 2020  6  4 23 35  9.0000000  0 16       0.000000000000
G 5  22242676.700   116885966.051          50.000                                                  
G12  24100704.960   126650022.422          50.000                                                  
G13  24538595.040   128951207.227          50.000                                                  
G15  23863277.960   125402153.211          50.000                                                  
G20  23391042.280   122920717.645          50.000                                                  
G21  22939916.880   120550075.793          50.000                                                  
G25  22215256.480   116741880.793          50.000    22215260.220    87177371.891          50.000  
G26  23295276.960   122417413.164          50.000    23295279.040    91415590.609          50.000  
G29  20402933.200   107218130.063          50.000                                                  
E 3  25978671.620   136518796.570          50.000    25978677.480   101945837.715          50.000  
E 5  26546955.860   139505149.480          50.000    26546961.380   104175906.648          50.000  
E13  26139703.840   137365030.500          50.000    26139709.480   102577764.883          50.000  
E15  23489127.100   123436161.328          50.000    23489132.400    92176341.301          50.000  
E21  26937411.700   141557014.566          50.000    26937417.300   105708144.289          50.000  
E27  24707555.980   129839045.406          50.000    24707561.180    96957713.051          50.000  
E30  25156826.600   132199950.828          50.000    25156833.280    98720718.563          50.000  
> 2020  6  4 23 35 10.0000000  0 16       0.000000000000
G 5  22243179.060   116888605.930          50.000                                                  
G12  24101433.220   126653849.414          50.000                                                  
G13  24538166.860   128948957.172          50.000                                                  
G15  23862719.260   125399217.230          50.000                                                  
G20  23390387.140   122917274.922          50.000                                                  
G21  22939591.660   120548366.738          50.000                                                  
G25  22215856.620   116745034.496          50.000    22215860.360    87179726.926          50.000  
G26  23294850.400   122415171.555          50.000    23294852.460    91413916.676          50.000  
G29  20402886.900   107217886.773          50.000                                                  
E 3  25978253.380   136516598.668          50.000    25978259.240   101944196.426          50.000  
E 5  26546951.020   139505123.969          50.000    26546956.520   104175887.594          50.000  
E13  26139392.620   137363394.992          50.000    26139398.260   102576543.563          50.000  
E15  23489101.960   123436029.254          50.000    23489107.260    92176242.676          50.000  
E21  26937133.320   141555551.637          50.000    26937138.900   105707051.840          50.000  
E27  24707769.680   129840168.336          50.000    24707774.860    96958551.598          50.000  
E30  25157395.080   132202938.125          50.000    25157401.740    98722949.332          50.000  
> 2020  6  4 23 35 11.0000000  0 16       0.000000000000
G 5  22243681.500   116891246.246          50.000                                                  
G12  24102161.480   126657676.484          50.000                                                  
G13  24537738.740   128946707.348          50.000                                                  
G15  23862160.580   125396281.375          50.000                                                  
G20  23389732.060   122913832.383          50.000                                                  
G21  22939266.480   120546657.887          50.000                                                  
G25  22216456.800   116748188.516          50.000    22216460.540    87182082.195          50.000  
G26  23294423.920   122412930.426          50.000    23294426.000    91412243.102          50.000  
G29  20402840.680   107217643.871          50.000                                                  
E 3  25977835.180   136514401.000          50.000    25977841.040   101942555.309          50.000  
E 5  26546946.240   139505098.898          50.000    26546951.760   104175868.875          50.000  
E13  26139081.400   137361759.539          50.000    26139087.040   102575322.285          50.000  
E15  23489076.840   123435897.277          50.000    23489082.140    92176144.121          50.000  
E21  26936855.000   141554089.102          50.000    26936860.600   105705959.688          50.000  
E27  24707983.440   129841291.715          50.000    24707988.640    96959390.484          50.000  
E30  25157963.560   132205925.516          50.000    25157970.220    98725180.172          50.000  
> 2020  6  4 23 35 12.0000000  0 16       0.000000000000
G 5  22244184.020   116893886.996          50.000                                                  
G12  24102889.760   126661503.613          50.000                                                  
G13  24537310.660   128944457.762          50.000                                                  
G15  23861601.920   125393345.625          50.000                                                  
G20  23389077.000   122910390.031          50.000                                                  
G21  22938941.320   120544949.223          50.000                                                  
G25  22217057.060   116751342.855          50.000    22217060.800    87184437.703          50.000  
G26  23293997.540   122410689.770          50.000    23293999.620    91410569.883          50.000  
G29  20402794.520   107217401.352          50.000                                                  
E 3  25977417.020   136512203.578          50.000    25977422.880   101940914.379          50.000  
E 5  26546941.560   139505074.293          50.000    26546947.080   104175850.500          50.000  
E13  26138770.200   137360124.148          50.000    26138775.840   102574101.051          50.000  
E15  23489051.740   123435765.398          50.000    23489057.060    92176045.641          50.000  
E21  26936576.780   141552626.992          50.000    26936582.360   105704867.855          50.000  
E27  24708197.300   129842415.531          50.000    24708202.500    96960229.695          50.000  
E30  25158532.060   132208913.004          50.000    25158538.740    98727411.090          50.000  
> 2020  6  4 23 35 13.0000000  0 16       0.000000000000
G 5  22244686.620   116896528.180          50.000                                                  
G12  24103618.060   126665330.813          50.000                                                  
G13  24536882.620   128942208.430          50.000                                                  
G15  23861043.300   125390410.008          50.000                                                  
G20  23388421.980   122906947.867          50.000                                                  
G21  22938616.220   120543240.770          50.000                                                  
G25  22217657.380   116754497.512          50.000    22217661.120    87186793.445          50.000  
G26  23293571.260   122408449.590          50.000    23293573.320    91408897.020          50.000  
G29  20402748.440   107217159.207          50.000                                                  
E 3  25976998.900   136510006.391          50.000    25977004.760   101939273.625          50.000  
E 5  26546936.960   139505050.137          50.000    26546942.480   104175832.461          50.000  
E13  26138459.000   137358488.816          50.000    26138464.640   102572879.863          50.000  
E15  23489026.680   123435633.621          50.000    23489031.980    92175947.234          50.000  
E21  26936298.620   141551165.305          50.000    26936304.220   105703776.336          50.000  
E27  24708411.240   129843539.805          50.000    24708416.440    96961069.254          50.000  
E30  25159100.580   132211900.602          50.000    25159107.260    98729642.086          50.000  
> 2020  6  4 23 35 14.0000000  0 16       0.000000000000
G 5  22245189.300   116899169.805          50.000                                                  
G12  24104346.360   126669158.086          50.000                                                  
G13  24536454.620   128939959.324          50.000                                                  
G15  23860484.680   125387474.504          50.000                                                  
G20  23387766.980   122903505.895          50.000                                                  
G21  22938291.140   120541532.492          50.000                                                  
G25  22218257.740   116757652.480          50.000    22218261.480    87189149.422          50.000  
G26  23293145.040   122406209.883          50.000    23293147.120    91407224.504          50.000  
G29  20402702.440   107216917.453          50.000                                                  
E 3  25976580.840   136507809.445          50.000    25976586.700   101937633.051          50.000  
E 5  26546932.460   139505026.430          50.000    26546937.960   104175814.758          50.000  
E13  26138147.820   137356853.531          50.000    26138153.460   102571658.711          50.000  
E15  23489001.620   123435501.938          50.000    23489006.920    92175848.902          50.000  
E21  26936020.560   141549704.027          50.000    26936026.140   105702685.121          50.000  
E27  24708625.280   129844664.523          50.000    24708630.460    96961909.137          50.000  
E30  25159669.120   132214888.289          50.000    25159675.800    98731873.148          50.000  
> 2020  6  4 23 35 15.0000000  0 16       0.000000000000
G 5  22245692.060   116901811.855          50.000                                                  
G12  24105074.680   126672985.422          50.000                                                  
G13  24536026.680   128937710.469          50.000                                                  
G15  23859926.100   125384539.117          50.000                                                  
G20  23387112.040   122900064.113          50.000                                                  
G21  22937966.100   120539824.422          50.000                                                  
G25  22218858.180   116760807.781          50.000    22218861.920    87191505.648          50.000  
G26  23292718.940   122403970.656          50.000    23292721.020    91405552.352          50.000  
G29  20402656.520   107216676.074          50.000                                                  
E 3  25976162.820   136505612.746          50.000    25976168.680   101935992.660          50.000  
E 5  26546928.040   139505003.191          50.000    26546933.540   104175797.406          50.000  
E13  26137836.640   137355218.313          50.000    26137842.280   102570437.605          50.000  
E15  23488976.580   123435370.363          50.000    23488981.880    92175750.648          50.000  
E21  26935742.560   141548243.164          50.000    26935748.140   105701594.219          50.000  
E27  24708839.380   129845789.691          50.000    24708844.580    96962749.359          50.000  
E30  25160237.680   132217876.066          50.000    25160244.360    98734104.277          50.000  
> 2020  6  4 23 35 16.0000000  0 16       0.000000000000
G 5  22246194.920   116904454.340          50.000                                                  
G12  24105803.020   126676812.844          50.000                                                  
G13  24535598.780   128935461.828          50.000                                                  
G15  23859367.540   125381603.859          50.000                                                  
G20  23386457.120   122896622.516          50.000                                                  
G21  22937641.100   120538116.543          50.000                                                  
G25  22219458.680   116763963.410          50.000    22219462.420    87193862.117          50.000  
G26  23292292.920   122401731.910          50.000    23292295.000    91403880.559          50.000  
G29  20402610.660   107216435.082          50.000                                                  
E 3  25975744.840   136503416.277          50.000    25975750.700   101934352.441          50.000  
E 5  26546923.700   139504980.402          50.000    26546929.200   104175780.387          50.000  
E13  26137525.480   137353583.164          50.000    26137531.120   102569216.555          50.000  
E15  23488951.560   123435238.887          50.000    23488956.860    92175652.465          50.000  
E21  26935464.640   141546782.723          50.000    26935470.240   105700503.629          50.000  
E27  24709053.580   129846915.305          50.000    24709058.780    96963589.914          50.000  
E30  25160806.240   132220863.945          50.000    25160812.920    98736335.484          50.000  
> 2020  6  4 23 35 17.0000000  0 16       0.000000000000
G 5  22246697.840   116907097.246          50.000                                                  
G12  24106531.360   126680640.316          50.000                                                  
G13  24535170.920   128933213.418          50.000                                                  
G15  23858809.000   125378668.719          50.000                                                  
G20  23385802.240   122893181.098          50.000                                                  
G21  22937316.140   120536408.859          50.000                                                  
G25  22220059.240   116767119.348          50.000    22220062.980    87196218.820          50.000  
G26  23291866.980   122399493.641          50.000    23291869.060    91402209.121          50.000  
G29  20402564.860   107216194.461          50.000                                                  
E 3  25975326.920   136501220.047          50.000    25975332.780   101932712.398          50.000  
E 5  26546919.440   139504958.063          50.000    26546924.960   104175763.707          50.000  
E13  26137214.320   137351948.055          50.000    26137219.960   102567995.531          50.000  
E15  23488926.560   123435107.496          50.000    23488931.860    92175554.352          50.000  
E21  26935186.820   141545322.691          50.000    26935192.400   105699413.348          50.000  
E27  24709267.860   129848041.363          50.000    24709273.060    96964430.801          50.000  
E30  25161374.840   132223851.918          50.000    25161381.520    98738566.762          50.000  
> 2020  6  4 23 35 18.0000000  0 16       0.000000000000
G 5  22247200.860   116909740.590          50.000                                                  
G12  24107259.720   126684467.871          50.000                                                  
G13  24534743.100   128930965.254          50.000                                                  
G15  23858250.480   125375733.699          50.000                                                  
G20  23385147.400   122889739.859          50.000                                                  
G21  22936991.220   120534701.379          50.000                                                  
G25  22220659.840   116770275.613          50.000    22220663.600    87198575.766          50.000  
G26  23291441.160   122397255.848          50.000    23291443.220    91400538.039          50.000  
G29  20402519.140   107215954.227          50.000                                                  
E 3  25974909.040   136499024.063          50.000    25974914.900   101931072.543          50.000  
E 5  26546915.280   139504936.184          50.000    26546920.800   104175747.367          50.000  
E13  26136903.200   137350313.012          50.000    26136908.840   102566774.559          50.000  
E15  23488901.580   123434976.215          50.000    23488906.880    92175456.316          50.000  
E21  26934909.060   141543863.086          50.000    26934914.640   105698323.383          50.000  
E27  24709482.220   129849167.855          50.000    24709487.420    96965272.012          50.000  
E30  25161943.460   132226839.992          50.000    25161950.140    98740798.113          50.000  
> 2020  6  4 23 35 19.0000000  0 16       0.000000000000
G 5  22247703.960   116912384.375          50.000                                                  
G12  24107988.100   126688295.492          50.000                                                  
G13  24534315.340   128928717.332          50.000                                                  
G15  23857692.000   125372798.813          50.000                                                  
G20  23384492.580   122886298.820          50.000                                                  
G21  22936666.340   120532994.090          50.000                                                  
G25  22221260.520   116773432.199          50.000    22221264.280    87200932.949          50.000  
G26  23291015.400   122395018.527          50.000    23291017.480    91398867.309          50.000  
G29  20402473.500   107215714.371          50.000                                                  
E 3  25974491.200   136496828.324          50.000    25974497.060   101929432.867          50.000  
E 5  26546911.200   139504914.758          50.000    26546916.720   104175731.367          50.000  
E13  26136592.060   137348678.023          50.000    26136597.700   102565553.629          50.000  
E15  23488876.600   123434845.035          50.000    23488881.920    92175358.355          50.000  
E21  26934631.380   141542403.898          50.000    26934636.980   105697233.730          50.000  
E27  24709696.680   129850294.816          50.000    24709701.880    96966113.578          50.000  
E30  25162512.080   132229828.160          50.000    25162518.760    98743029.535          50.000  
> 2020  6  4 23 35 20.0000000  0 16       0.000000000000
G 5  22248207.120   116915028.590          50.000                                                  
G12  24108716.480   126692123.168          50.000                                                  
G13  24533887.620   128926469.641          50.000                                                  
G15  23857133.520   125369864.035          50.000                                                  
G20  23383837.800   122882857.969          50.000                                                  
G21  22936341.480   120531287.004          50.000                                                  
G25  22221861.260   116776589.105          50.000    22221865.020    87203290.375          50.000  
G26  23290589.740   122392781.703          50.000    23290591.820    91397196.949          50.000  
G29  20402427.940   107215474.898          50.000                                                  
E 3  25974073.400   136494632.813          50.000    25974079.260   101927793.363          50.000  
E 5  26546907.220   139504893.785          50.000    26546912.720   104175715.707          50.000  
E13  26136280.940   137347043.102          50.000    26136286.580   102564332.746          50.000  
E15  23488851.660   123434713.953          50.000    23488856.960    92175260.469          50.000  
E21  26934353.780   141540945.121          50.000    26934359.380   105696144.383          50.000  
E27  24709911.220   129851422.211          50.000    24709916.420    96966955.461          50.000  
E30  25163080.740   132232816.438          50.000    25163087.420    98745261.039          50.000  
> 2020  6  4 23 35 21.0000000  0 16       0.000000000000
G 5  22248710.380   116917673.242          50.000                                                  
G12  24109444.880   126695950.926          50.000                                                  
G13  24533459.940   128924222.195          50.000                                                  
G15  23856575.080   125366929.375          50.000                                                  
G20  23383183.060   122879417.297          50.000                                                  
G21  22936016.680   120529580.113          50.000                                                  
G25  22222462.060   116779746.332          50.000    22222465.820    87205648.039          50.000  
G26  23290164.180   122390545.344          50.000    23290166.260    91395526.938          50.000  
G29  20402382.440   107215235.801          50.000                                                  
E 3  25973655.660   136492437.555          50.000    25973661.520   101926154.051          50.000  
E 5  26546903.300   139504873.266          50.000    26546908.820   104175700.383          50.000  
E13  26135969.840   137345408.234          50.000    26135975.480   102563111.906          50.000  
E15  23488826.740   123434582.965          50.000    23488832.040    92175162.656          50.000  
E21  26934076.260   141539486.758          50.000    26934081.860   105695055.348          50.000  
E27  24710125.840   129852550.051          50.000    24710131.040    96967797.680          50.000  
E30  25163649.400   132235804.793          50.000    25163656.080    98747492.602          50.000  
> 2020  6  4 23 35 22.0000000  0 16       0.000000000000
G 5  22249213.740   116920318.316          50.000                                                  
G12  24110173.300   126699778.738          50.000                                                  
G13  24533032.300   128921974.965          50.000                                                  
G15  23856016.640   125363994.836          50.000                                                  
G20  23382528.360   122875976.816          50.000                                                  
G21  22935691.900   120527873.414          50.000                                                  
G25  22223062.940   116782903.879          50.000    22223066.680    87208005.941          50.000  
G26  23289738.700   122388309.449          50.000    23289740.780    91393857.277          50.000  
G29  20402337.020   107214997.086          50.000                                                  
E 3  25973237.960   136490242.520          50.000    25973243.820   101924514.902          50.000  
E 5  26546899.480   139504853.207          50.000    26546905.000   104175685.406          50.000  
E13  26135658.740   137343773.430          50.000    26135664.380   102561891.109          50.000  
E15  23488801.840   123434452.086          50.000    23488807.140    92175064.922          50.000  
E21  26933798.840   141538028.832          50.000    26933804.420   105693966.637          50.000  
E27  24710340.540   129853678.348          50.000    24710345.740    96968640.234          50.000  
E30  25164218.080   132238793.250          50.000    25164224.760    98749724.238          50.000  
> 2020  6  4 23 35 23.0000000  0 16       0.000000000000
G 5  22249717.160   116922963.832          50.000                                                  
G12  24110901.720   126703606.629          50.000                                                  
G13  24532604.720   128919727.984          50.000                                                  
G15  23855458.240   125361060.430          50.000                                                  
G20  23381873.700   122872536.512          50.000                                                  
G21  22935367.160   120526166.922          50.000                                                  
G25  22223663.860   116786061.750          50.000    22223667.620    87210364.086          50.000  
G26  23289313.320   122386074.059          50.000    23289315.400    91392187.988          50.000  
G29  20402291.660   107214758.754          50.000                                                  
E 3  25972820.300   136488047.738          50.000    25972826.160   101922875.945          50.000  
E 5  26546895.760   139504833.605          50.000    26546901.280   104175670.766          50.000  
E13  26135347.660   137342138.680          50.000    26135353.300   102560670.355          50.000  
E15  23488776.940   123434321.293          50.000    23488782.240    92174967.254          50.000  
E21  26933521.480   141536571.309          50.000    26933527.060   105692878.227          50.000  
E27  24710555.340   129854807.086          50.000    24710560.540    96969483.125          50.000  
E30  25164786.800   132241781.805          50.000    25164793.480    98751955.949          50.000  
> 2020  6  4 23 35 24.0000000  0 16       0.000000000000
G 5  22250220.660   116925609.789          50.000                                                  
G12  24111630.160   126707434.566          50.000                                                  
G13  24532177.180   128917481.262          50.000                                                  
G15  23854899.860   125358126.121          50.000                                                  
G20  23381219.060   122869096.414          50.000                                                  
G21  22935042.460   120524460.617          50.000                                                  
G25  22224264.840   116789219.938          50.000    22224268.600    87212722.469          50.000  
G26  23288888.040   122383839.133          50.000    23288890.120    91390519.051          50.000  
G29  20402246.380   107214520.797          50.000                                                  
E 3  25972402.700   136485853.199          50.000    25972408.560   101921237.164          50.000  
E 5  26546892.120   139504814.453          50.000    26546897.620   104175656.465          50.000  
E13  26135036.600   137340503.992          50.000    26135042.240   102559449.648          50.000  
E15  23488752.080   123434190.625          50.000    23488757.380    92174869.672          50.000  
E21  26933244.200   141535114.203          50.000    26933249.780   105691790.129          50.000  
E27  24710770.220   129855936.258          50.000    24710775.400    96970326.336          50.000  
E30  25165355.520   132244770.465          50.000    25165362.200    98754187.738          50.000  
> 2020  6  4 23 35 25.0000000  0 16       0.000000000000
G 5  22250724.260   116928256.172          50.000                                                  
G12  24112358.600   126711262.598          50.000                                                  
G13  24531749.680   128915234.750          50.000                                                  
G15  23854341.500   125355191.953          50.000                                                  
G20  23380564.460   122865656.496          50.000                                                  
G21  22934717.800   120522754.512          50.000                                                  
G25  22224865.880   116792378.441          50.000    22224869.640    87215081.094          50.000  
G26  23288462.840   122381604.688          50.000    23288464.900    91388850.469          50.000  
G29  20402201.160   107214283.227          50.000                                                  
E 3  25971985.120   136483658.891          50.000    25971990.980   101919598.563          50.000  
E 5  26546888.560   139504795.758          50.000    26546894.060   104175642.504          50.000  
E13  26134725.540   137338869.359          50.000    26134731.160   102558228.984          50.000  
E15  23488727.220   123434060.035          50.000    23488732.520    92174772.156          50.000  
E21  26932967.000   141533657.512          50.000    26932972.580   105690702.344          50.000  
E27  24710985.180   129857065.883          50.000    24710990.380    96971169.887          50.000  
E30  25165924.260   132247759.211          50.000    25165930.940    98756419.594          50.000  
> 2020  6  4 23 35 26.0000000  0 16       0.000000000000
G 5  22251227.960   116930902.816          50.000                                                  
G12  24113087.120   126715090.352          50.000                                                  
G13  24531322.220   128912988.531          50.000                                                  
G15  23853783.180   125352257.898          50.000                                                  
G20  23379909.900   122862216.809          50.000                                                  
G21  22934393.160   120521048.633          50.000                                                  
G25  22225467.000   116795537.188          50.000    22225470.740    87217439.957          50.000  
G26  23288037.740   122379370.660          50.000    23288039.780    91387182.293          50.000  
G29  20402156.040   107214046.023          50.000                                                  
E 3  25971567.620   136481464.824          50.000    25971573.480   101917960.137          50.000  
E 5  26546885.080   139504777.547          50.000    26546890.580   104175628.930          50.000  
E13  26134414.480   137337234.789          50.000    26134420.120   102557008.367          50.000  
E15  23488702.400   123433929.535          50.000    23488707.700    92174674.707          50.000  
E21  26932689.900   141532201.164          50.000    26932695.480   105689614.777          50.000  
E27  24711200.240   129858195.898          50.000    24711205.440    96972013.699          50.000  
E30  25166493.040   132250747.988          50.000    25166499.720    98758651.438          50.000  
> 2020  6  4 23 35 27.0000000  0 16       0.000000000000
G 5  22251731.720   116933550.059          50.000                                                  
G12  24113815.600   126718918.508          50.000                                                  
G13  24530894.820   128910742.500          50.000                                                  
G15  23853224.860   125349323.965          50.000                                                  
G20  23379255.380   122858777.258          50.000                                                  
G21  22934068.580   120519342.918          50.000                                                  
G25  22226068.180   116798696.324          50.000    22226071.920    87219799.055          50.000  
G26  23287612.720   122377137.172          50.000    23287614.760    91385514.430          50.000  
G29  20402110.960   107213809.211          50.000                                                  
E 3  25971150.140   136479270.996          50.000    25971156.000   101916321.887          50.000  
E 5  26546881.700   139504759.758          50.000    26546887.200   104175615.648          50.000  
E13  26134103.440   137335600.266          50.000    26134109.080   102555787.785          50.000  
E15  23488677.580   123433799.152          50.000    23488682.880    92174577.340          50.000  
E21  26932412.840   141530745.301          50.000    26932418.440   105688527.605          50.000  
E27  24711415.360   129859326.410          50.000    24711420.560    96972857.914          50.000  
E30  25167061.800   132253736.914          50.000    25167068.500    98760883.426          50.000  
> 2020  6  4 23 35 28.0000000  0 16       0.000000000000
G 5  22252235.560   116936197.730          50.000                                                  
G12  24114544.080   126722746.715          50.000                                                  
G13  24530467.460   128908496.695          50.000                                                  
G15  23852666.580   125346390.160          50.000                                                  
G20  23378600.880   122855337.895          50.000                                                  
G21  22933744.040   120517637.387          50.000                                                  
G25  22226669.400   116801855.777          50.000    22226673.140    87222158.387          50.000  
G26  23287187.780   122374904.160          50.000    23287189.840    91383846.922          50.000  
G29  20402065.980   107213572.770          50.000                                                  
E 3  25970732.720   136477077.402          50.000    25970738.580   101914683.816          50.000  
E 5  26546878.400   139504742.426          50.000    26546883.900   104175602.703          50.000  
E13  26133792.420   137333965.805          50.000    26133798.060   102554567.246          50.000  
E15  23488652.800   123433668.852          50.000    23488658.100    92174480.039          50.000  
E21  26932135.900   141529289.863          50.000    26932141.480   105687440.754          50.000  
E27  24711630.580   129860457.371          50.000    24711635.780    96973702.465          50.000  
E30  25167630.600   132256725.941          50.000    25167637.300    98763115.488          50.000  
> 2020  6  4 23 35 29.0000000  0 16       0.000000000000
G 5  22252739.480   116938845.836          50.000                                                  
G12  24115272.600   126726575.008          50.000                                                  
G13  24530040.140   128906251.137          50.000                                                  
G15  23852108.320   125343456.465          50.000                                                  
G20  23377946.440   122851898.727          50.000                                                  
G21  22933419.520   120515932.055          50.000                                                  
G25  22227270.700   116805015.563          50.000    22227274.440    87224517.961          50.000  
G26  23286762.940   122372671.617          50.000    23286765.000    91382179.762          50.000  
G29  20402021.060   107213336.715          50.000                                                  
E 3  25970315.340   136474884.055          50.000    25970321.200   101913045.926          50.000  
E 5  26546875.180   139504725.543          50.000    26546880.700   104175590.098          50.000  
E13  26133481.400   137332331.414          50.000    26133487.040   102553346.758          50.000  
E15  23488628.020   123433538.660          50.000    23488633.320    92174382.820          50.000  
E21  26931859.020   141527834.844          50.000    26931864.600   105686354.215          50.000  
E27  24711845.880   129861588.773          50.000    24711851.080    96974547.340          50.000  
E30  25168199.420   132259715.074          50.000    25168206.120    98765347.629          50.000  
> 2020  6  4 23 35 30.0000000  0 16       0.000000000000
G 5  22253243.480   116941494.371          50.000                                                  
G12  24116001.100   126730403.359          50.000                                                  
G13  24529612.880   128904005.813          50.000                                                  
G15  23851550.080   125340522.902          50.000                                                  
G20  23377292.020   122848459.738          50.000                                                  
G21  22933095.040   120514226.930          50.000                                                  
G25  22227872.040   116808175.672          50.000    22227875.780    87226877.785          50.000  
G26  23286338.200   122370439.555          50.000    23286340.260    91380512.961          50.000  
G29  20401976.220   107213101.051          50.000                                                  
E 3  25969898.000   136472690.949          50.000    25969903.860   101911408.219          50.000  
E 5  26546872.060   139504709.117          50.000    26546877.560   104175577.828          50.000  
E13  26133170.400   137330697.059          50.000    26133176.040   102552126.301          50.000  
E15  23488603.260   123433408.563          50.000    23488608.560    92174285.668          50.000  
E21  26931582.220   141526380.242          50.000    26931587.800   105685267.984          50.000  
E27  24712061.260   129862720.621          50.000    24712066.460    96975392.551          50.000  
E30  25168768.260   132262704.293          50.000    25168774.940    98767579.840          50.000  
> 2020  6  4 23 35 31.0000000  0 16       0.000000000000
G 5  22253747.560   116944143.344          50.000                                                  
G12  24116729.640   126734231.785          50.000                                                  
G13  24529185.640   128901760.723          50.000                                                  
G15  23850991.860   125337589.461          50.000                                                  
G20  23376637.640   122845020.941          50.000                                                  
G21  22932770.600   120512521.988          50.000                                                  
G25  22228473.460   116811336.074          50.000    22228477.200    87229237.820          50.000  
G26  23285913.540   122368207.980          50.000    23285915.600    91378846.527          50.000  
G29  20401931.440   107212865.758          50.000                                                  
E 3  25969480.720   136470498.078          50.000    25969486.580   101909770.688          50.000  
E 5  26546869.020   139504693.145          50.000    26546874.540   104175565.902          50.000  
E13  26132859.400   137329062.766          50.000    26132865.040   102550905.887          50.000  
E15  23488578.540   123433278.578          50.000    23488583.840    92174188.602          50.000  
E21  26931305.480   141524926.043          50.000    26931311.080   105684182.059          50.000  
E27  24712276.740   129863852.910          50.000    24712281.940    96976238.090          50.000  
E30  25169337.100   132265693.613          50.000    25169343.800    98769812.121          50.000  
> 2020  6  4 23 35 32.0000000  0 16       0.000000000000
G 5  22254251.740   116946792.750          50.000                                                  
G12  24117458.180   126738060.273          50.000                                                  
G13  24528758.460   128899515.871          50.000                                                  
G15  23850433.680   125334656.141          50.000                                                  
G20  23375983.300   122841582.332          50.000                                                  
G21  22932446.200   120510817.246          50.000                                                  
G25  22229074.920   116814496.816          50.000    22229078.660    87231598.113          50.000  
G26  23285488.980   122365976.871          50.000    23285491.040    91377180.441          50.000  
G29  20401886.740   107212630.848          50.000                                                  
E 3  25969063.480   136468305.453          50.000    25969069.340   101908133.340          50.000  
E 5  26546866.080   139504677.629          50.000    26546871.580   104175554.316          50.000  
E13  26132548.420   137327428.539          50.000    26132554.060   102549685.523          50.000  
E15  23488553.820   123433148.672          50.000    23488559.120    92174091.594          50.000  
E21  26931028.840   141523472.262          50.000    26931034.440   105683096.441          50.000  
E27  24712492.300   129864985.652          50.000    24712497.500    96977083.969          50.000  
E30  25169905.980   132268683.016          50.000    25169912.660    98772044.465          50.000  
> 2020  6  4 23 35 33.0000000  0 16       0.000000000000
G 5  22254755.980   116949442.590          50.000                                                  
G12  24118186.720   126741888.832          50.000                                                  
G13  24528331.340   128897271.258          50.000                                                  
G15  23849875.500   125331722.934          50.000                                                  
G20  23375328.980   122838143.922          50.000                                                  
G21  22932121.840   120509112.695          50.000                                                  
G25  22229676.460   116817657.867          50.000    22229680.200    87233958.637          50.000  
G26  23285064.520   122363746.254          50.000    23285066.560    91375514.723          50.000  
G29  20401842.120   107212396.316          50.000                                                  
E 3  25968646.280   136466113.078          50.000    25968652.140   101906496.176          50.000  
E 5  26546863.220   139504662.574          50.000    26546868.720   104175543.074          50.000  
E13  26132237.460   137325794.363          50.000    26132243.080   102548465.199          50.000  
E15  23488529.120   123433018.875          50.000    23488534.420    92173994.668          50.000  
E21  26930752.280   141522018.910          50.000    26930757.880   105682011.148          50.000  
E27  24712707.940   129866118.840          50.000    24712713.140    96977930.180          50.000  
E30  25170474.860   132271672.523          50.000    25170481.560    98774276.887          50.000  
> 2020  6  4 23 35 34.0000000  0 16       0.000000000000
G 5  22255260.320   116952092.863          50.000                                                  
G12  24118915.300   126745717.461          50.000                                                  
G13  24527904.240   128895026.883          50.000                                                  
G15  23849317.360   125328789.863          50.000                                                  
G20  23374674.720   122834705.691          50.000                                                  
G21  22931797.520   120507408.348          50.000                                                  
G25  22230278.040   116820819.242          50.000    22230281.800    87236319.402          50.000  
G26  23284640.140   122361516.109          50.000    23284642.180    91373849.355          50.000  
G29  20401797.560   107212162.172          50.000                                                  
E 3  25968229.140   136463920.930          50.000    25968234.980   101904859.188          50.000  
E 5  26546860.440   139504647.965          50.000    26546865.940   104175532.168          50.000  
E13  26131926.500   137324160.250          50.000    26131932.120   102547244.922          50.000  
E15  23488504.440   123432889.184          50.000    23488509.740    92173897.820          50.000  
E21  26930475.800   141520565.977          50.000    26930481.400   105680926.168          50.000  
E27  24712923.660   129867252.477          50.000    24712928.860    96978776.723          50.000  
E30  25171043.760   132274662.129          50.000    25171050.460    98776509.383          50.000  
> 2020  6  4 23 35 35.0000000  0 16       0.000000000000
G 5  22255764.720   116954743.563          50.000                                                  
G12  24119643.880   126749546.156          50.000                                                  
G13  24527477.200   128892782.742          50.000                                                  
G15  23848759.240   125325856.914          50.000                                                  
G20  23374020.480   122831267.652          50.000                                                  
G21  22931473.220   120505704.195          50.000                                                  
G25  22230879.700   116823980.941          50.000    22230883.440    87238680.406          50.000  
G26  23284215.840   122359286.457          50.000    23284217.900    91372184.352          50.000  
G29  20401753.080   107211928.410          50.000                                                  
E 3  25967812.020   136461729.027          50.000    25967817.880   101903222.375          50.000  
E 5  26546857.740   139504633.816          50.000    26546863.240   104175521.598          50.000  
E13  26131615.540   137322526.195          50.000    26131621.180   102546024.688          50.000  
E15  23488479.780   123432759.574          50.000    23488485.080    92173801.035          50.000  
E21  26930199.400   141519113.453          50.000    26930204.980   105679841.492          50.000  
E27  24713139.460   129868386.551          50.000    24713144.680    96979623.598          50.000  
E30  25171612.680   132277651.816          50.000    25171619.380    98778741.938          50.000  
> 2020  6  4 23 35 36.0000000  0 16       0.000000000000
G 5  22256269.220   116957394.703          50.000                                                  
G12  24120372.460   126753374.914          50.000                                                  
G13  24527050.200   128890538.840          50.000                                                  
G15  23848201.140   125322924.086          50.000                                                  
G20  23373366.280   122827829.824          50.000                                                  
G21  22931148.980   120504000.254          50.000                                                  
G25  22231481.420   116827142.965          50.000    22231485.160    87241041.652          50.000  
G26  23283791.640   122357057.273          50.000    23283793.700    91370519.699          50.000  
G29  20401708.660   107211695.027          50.000                                                  
E 3  25967394.960   136459537.371          50.000    25967400.820   101901585.750          50.000  
E 5  26546855.140   139504620.117          50.000    26546860.640   104175511.371          50.000  
E13  26131304.600   137320892.207          50.000    26131310.240   102544804.500          50.000  
E15  23488455.140   123432630.082          50.000    23488460.440    92173704.336          50.000  
E21  26929923.060   141517661.344          50.000    26929928.660   105678757.125          50.000  
E27  24713355.360   129869521.078          50.000    24713360.560    96980470.809          50.000  
E30  25172181.640   132280641.617          50.000    25172188.320    98780974.582          50.000  
> 2020  6  4 23 35 37.0000000  0 16       0.000000000000
G 5  22256773.800   116960046.273          50.000                                                  
G12  24121101.060   126757203.746          50.000                                                  
G13  24526623.240   128888295.184          50.000                                                  
G15  23847643.060   125319991.387          50.000                                                  
G20  23372712.100   122824392.164          50.000                                                  
G21  22930824.760   120502296.500          50.000                                                  
G25  22232083.180   116830305.301          50.000    22232086.940    87243403.133          50.000  
G26  23283367.540   122354828.570          50.000    23283369.600    91368855.402          50.000  
G29  20401664.340   107211462.031          50.000                                                  
E 3  25966977.960   136457345.945          50.000    25966983.820   101899949.301          50.000  
E 5  26546852.620   139504606.875          50.000    26546858.120   104175501.480          50.000  
E13  26130993.680   137319258.266          50.000    26130999.320   102543584.352          50.000  
E15  23488430.520   123432500.680          50.000    23488435.820    92173607.703          50.000  
E21  26929646.820   141516209.664          50.000    26929652.420   105677673.078          50.000  
E27  24713571.340   129870656.043          50.000    24713576.540    96981318.348          50.000  
E30  25172750.600   132283631.500          50.000    25172757.280    98783207.281          50.000  
> 2020  6  4 23 35 38.0000000  0 16       0.000000000000
G 5  22257278.460   116962698.281          50.000                                                  
G12  24121829.680   126761032.648          50.000                                                  
G13  24526196.340   128886051.762          50.000                                                  
G15  23847085.020   125317058.809          50.000                                                  
G20  23372057.980   122820954.695          50.000                                                  
G21  22930500.580   120500592.949          50.000                                                  
G25  22232685.020   116833467.941          50.000    22232688.760    87245764.840          50.000  
G26  23282943.520   122352600.348          50.000    23282945.580    91367191.469          50.000  
G29  20401620.060   107211229.406          50.000                                                  
E 3  25966561.000   136455154.773          50.000    25966566.840   101898313.035          50.000  
E 5  26546850.180   139504594.094          50.000    26546855.700   104175491.938          50.000  
E13  26130682.760   137317624.402          50.000    26130688.400   102542364.258          50.000  
E15  23488405.920   123432371.383          50.000    23488411.220    92173511.148          50.000  
E21  26929370.660   141514758.395          50.000    26929376.260   105676589.336          50.000  
E27  24713787.400   129871791.457          50.000    24713792.620    96982166.219          50.000  
E30  25173319.560   132286621.480          50.000    25173326.260    98785440.055          50.000  
> 2020  6  4 23 35 39.0000000  0 16       0.000000000000
G 5  22257783.200   116965350.707          50.000                                                  
G12  24122558.320   126764861.594          50.000                                                  
G13  24525769.460   128883808.578          50.000                                                  
G15  23846526.980   125314126.352          50.000                                                  
G20  23371403.880   122817517.426          50.000                                                  
G21  22930176.440   120498889.590          50.000                                                  
G25  22233286.920   116836630.922          50.000    22233290.660    87248126.797          50.000  
G26  23282519.600   122350372.602          50.000    23282521.660    91365527.887          50.000  
G29  20401575.880   107210997.168          50.000                                                  
E 3  25966144.060   136452963.832          50.000    25966149.920   101896676.941          50.000  
E 5  26546847.840   139504581.758          50.000    26546853.340   104175482.723          50.000  
E13  26130371.860   137315990.582          50.000    26130377.500   102541144.191          50.000  
E15  23488381.320   123432242.184          50.000    23488386.620    92173414.668          50.000  
E21  26929094.580   141513307.543          50.000    26929100.160   105675505.906          50.000  
E27  24714003.560   129872927.316          50.000    24714008.760    96983014.422          50.000  
E30  25173888.560   132289611.563          50.000    25173895.260    98787672.906          50.000  
> 2020  6  4 23 35 40.0000000  0 16       0.000000000000
G 5  22258288.020   116968003.566          50.000                                                  
G12  24123286.960   126768690.633          50.000                                                  
G13  24525342.640   128881565.633          50.000                                                  
G15  23845968.980   125311194.016          50.000                                                  
G20  23370749.820   122814080.336          50.000                                                  
G21  22929852.340   120497186.418          50.000                                                  
G25  22233888.880   116839794.223          50.000    22233892.620    87250488.996          50.000  
G26  23282095.760   122348145.336          50.000    23282097.820    91363864.664          50.000  
G29  20401531.740   107210765.305          50.000                                                  
E 3  25965727.200   136450773.137          50.000    25965733.040   101895041.031          50.000  
E 5  26546845.580   139504569.895          50.000    26546851.100   104175473.855          50.000  
E13  26130060.960   137314356.813          50.000    26130066.600   102539924.168          50.000  
E15  23488356.760   123432113.078          50.000    23488362.060    92173318.254          50.000  
E21  26928818.560   141511857.117          50.000    26928824.160   105674422.793          50.000  
E27  24714219.780   129874063.625          50.000    24714225.000    96983862.957          50.000  
E30  25174457.580   132292601.734          50.000    25174464.280    98789905.820          50.000  
> 2020  6  4 23 35 41.0000000  0 16       0.000000000000
G 5  22258792.920   116970656.863          50.000                                                  
G12  24124015.600   126772519.734          50.000                                                  
G13  24524915.880   128879322.918          50.000                                                  
G15  23845411.000   125308261.816          50.000                                                  
G20  23370095.800   122810643.422          50.000                                                  
G21  22929528.280   120495483.449          50.000                                                  
G25  22234490.900   116842957.832          50.000    22234494.640    87252851.426          50.000  
G26  23281672.020   122345918.555          50.000    23281674.080    91362201.805          50.000  
G29  20401487.700   107210533.828          50.000                                                  
E 3  25965310.360   136448582.695          50.000    25965316.220   101893405.305          50.000  
E 5  26546843.420   139504558.477          50.000    26546848.920   104175465.328          50.000  
E13  26129750.080   137312723.105          50.000    26129755.720   102538704.191          50.000  
E15  23488332.220   123431984.086          50.000    23488337.520    92173221.922          50.000  
E21  26928542.640   141510407.098          50.000    26928548.220   105673339.980          50.000  
E27  24714436.100   129875200.371          50.000    24714441.320    96984711.824          50.000  
E30  25175026.600   132295592.000          50.000    25175033.300    98792138.805          50.000  
> 2020  6  4 23 35 42.0000000  0 16       0.000000000000
G 5  22259297.920   116973310.586          50.000                                                  
G12  24124744.280   126776348.895          50.000                                                  
G13  24524489.140   128877080.457          50.000                                                  
G15  23844853.040   125305329.723          50.000                                                  
G20  23369441.820   122807206.711          50.000                                                  
G21  22929204.260   120493780.668          50.000                                                  
G25  22235092.960   116846121.754          50.000    22235096.720    87255214.090          50.000  
G26  23281248.360   122343692.234          50.000    23281250.420    91360539.293          50.000  
G29  20401443.720   107210302.723          50.000                                                  
E 3  25964893.580   136446392.477          50.000    25964899.440   101891769.750          50.000  
E 5  26546841.320   139504547.512          50.000    26546846.840   104175457.137          50.000  
E13  26129439.200   137311089.469          50.000    26129444.840   102537484.262          50.000  
E15  23488307.680   123431855.184          50.000    23488312.980    92173125.660          50.000  
E21  26928266.780   141508957.504          50.000    26928272.380   105672257.488          50.000  
E27  24714652.500   129876337.570          50.000    24714657.720    96985561.027          50.000  
E30  25175595.660   132298582.371          50.000    25175602.360    98794371.867          50.000  
> 2020  6  4 23 35 43.0000000  0 16       0.000000000000
G 5  22259802.980   116975964.723          50.000                                                  
G12  24125472.960   126780178.113          50.000                                                  
G13  24524062.460   128874838.227          50.000                                                  
G15  23844295.100   125302397.773          50.000                                                  
G20  23368787.860   122803770.172          50.000                                                  
G21  22928880.260   120492078.086          50.000                                                  
G25  22235695.100   116849286.000          50.000    22235698.860    87257576.996          50.000  
G26  23280824.800   122341466.418          50.000    23280826.860    91358877.152          50.000  
G29  20401399.820   107210071.996          50.000                                                  
E 3  25964476.840   136444202.504          50.000    25964482.700   101890134.379          50.000  
E 5  26546839.320   139504537.000          50.000    26546844.840   104175449.285          50.000  
E13  26129128.340   137309455.883          50.000    26129133.980   102536264.375          50.000  
E15  23488283.160   123431726.371          50.000    23488288.480    92173029.465          50.000  
E21  26927991.020   141507508.328          50.000    26927996.620   105671175.313          50.000  
E27  24714869.000   129877475.223          50.000    24714874.200    96986410.566          50.000  
E30  25176164.720   132301572.816          50.000    25176171.420    98796604.988          50.000  
> 2020  6  4 23 35 44.0000000  0 16       0.000000000000
G 5  22260308.140   116978619.316          50.000                                                  
G12  24126201.640   126784007.410          50.000                                                  
G13  24523635.820   128872596.246          50.000                                                  
G15  23843737.200   125299465.934          50.000                                                  
G20  23368133.960   122800333.836          50.000                                                  
G21  22928556.300   120490375.703          50.000                                                  
G25  22236297.300   116852450.563          50.000    22236301.060    87259940.141          50.000  
G26  23280401.320   122339241.070          50.000    23280403.400    91357215.363          50.000  
G29  20401355.980   107209841.672          50.000                                                  
E 3  25964060.140   136442012.781          50.000    25964066.000   101888499.195          50.000  
E 5  26546837.420   139504526.945          50.000    26546842.920   104175441.770          50.000  
E13  26128817.500   137307822.348          50.000    26128823.120   102535044.523          50.000  
E15  23488258.680   123431597.664          50.000    23488263.980    92172933.352          50.000  
E21  26927715.320   141506059.570          50.000    26927720.920   105670093.441          50.000  
E27  24715085.560   129878613.293          50.000    24715090.780    96987260.418          50.000  
E30  25176733.800   132304563.379          50.000    25176740.520    98798838.191          50.000  
> 2020  6  4 23 35 45.0000000  0 16       0.000000000000
G 5  22260813.360   116981274.336          50.000                                                  
G12  24126930.340   126787836.770          50.000                                                  
G13  24523209.240   128870354.508          50.000                                                  
G15  23843179.300   125296534.230          50.000                                                  
G20  23367480.080   122796897.680          50.000                                                  
G21  22928232.400   120488673.516          50.000                                                  
G25  22236899.560   116855615.449          50.000    22236903.320    87262303.523          50.000  
G26  23279977.960   122337016.207          50.000    23279980.020    91355553.938          50.000  
G29  20401312.220   107209611.727          50.000                                                  
E 3  25963643.500   136439823.301          50.000    25963649.360   101886864.188          50.000  
E 5  26546835.580   139504517.352          50.000    26546841.100   104175434.602          50.000  
E13  26128506.660   137306188.887          50.000    26128512.300   102533824.727          50.000  
E15  23488234.200   123431469.066          50.000    23488239.520    92172837.316          50.000  
E21  26927439.720   141504611.230          50.000    26927445.320   105669011.887          50.000  
E27  24715302.220   129879751.832          50.000    24715307.440    96988110.621          50.000  
E30  25177302.900   132307554.023          50.000    25177309.620    98801071.461          50.000  
> 2020  6  4 23 35 46.0000000  0 16       0.000000000000
G 5  22261318.680   116983929.785          50.000                                                  
G12  24127659.060   126791666.191          50.000                                                  
G13  24522782.680   128868113.004          50.000                                                  
G15  23842621.440   125293602.648          50.000                                                  
G20  23366826.220   122793461.699          50.000                                                  
G21  22927908.520   120486971.523          50.000                                                  
G25  22237501.880   116858780.648          50.000    22237505.640    87264667.141          50.000  
G26  23279554.660   122334791.820          50.000    23279556.720    91353892.867          50.000  
G29  20401268.540   107209382.160          50.000                                                  
E 3  25963226.900   136437634.047          50.000    25963232.760   101885229.355          50.000  
E 5  26546833.840   139504508.207          50.000    26546839.360   104175427.770          50.000  
E13  26128195.820   137304555.465          50.000    26128201.460   102532604.965          50.000  
E15  23488209.760   123431340.559          50.000    23488215.060    92172741.348          50.000  
E21  26927164.180   141503163.305          50.000    26927169.780   105667930.641          50.000  
E27  24715518.960   129880890.809          50.000    24715524.180    96988961.152          50.000  
E30  25177872.020   132310544.777          50.000    25177878.740    98803304.809          50.000  
> 2020  6  4 23 35 47.0000000  0 16       0.000000000000
G 5  22261824.080   116986585.668          50.000                                                  
G12  24128387.800   126795495.684          50.000                                                  
G13  24522356.200   128865871.742          50.000                                                  
G15  23842063.600   125290671.184          50.000                                                  
G20  23366172.420   122790025.930          50.000                                                  
G21  22927584.680   120485269.730          50.000                                                  
G25  22238104.260   116861946.164          50.000    22238108.020    87267030.992          50.000  
G26  23279131.460   122332567.910          50.000    23279133.540    91352232.152          50.000  
G29  20401224.940   107209152.980          50.000                                                  
E 3  25962810.340   136435445.059          50.000    25962816.200   101883594.719          50.000  
E 5  26546832.200   139504499.523          50.000    26546837.700   104175421.281          50.000  
E13  26127885.000   137302922.117          50.000    26127890.640   102531385.254          50.000  
E15  23488185.320   123431212.152          50.000    23488190.620    92172645.457          50.000  
E21  26926888.740   141501715.801          50.000    26926894.340   105666849.707          50.000  
E27  24715735.780   129882030.227          50.000    24715741.000    96989812.012          50.000  
E30  25178441.160   132313535.602          50.000    25178447.880    98805538.211          50.000  
> 2020  6  4 23 35 48.0000000  0 16       0.000000000000
G 5  22262329.560   116989241.969          50.000                                                  
G12  24129116.540   126799325.211          50.000                                                  
G13  24521929.740   128863630.723          50.000                                                  
G15  23841505.780   125287739.852          50.000                                                  
G20  23365518.640   122786590.340          50.000                                                  
G21  22927260.860   120483568.133          50.000                                                  
G25  22238706.700   116865111.988          50.000    22238710.460    87269395.074          50.000  
G26  23278708.360   122330344.480          50.000    23278710.420    91350571.793          50.000  
G29  20401181.400   107208924.180          50.000                                                  
E 3  25962393.840   136433256.293          50.000    25962399.700   101881960.250          50.000  
E 5  26546830.620   139504491.293          50.000    26546836.140   104175415.133          50.000  
E13  26127574.200   137301288.820          50.000    26127579.840   102530165.582          50.000  
E15  23488160.900   123431083.852          50.000    23488166.220    92172549.645          50.000  
E21  26926613.360   141500268.715          50.000    26926618.960   105665769.090          50.000  
E27  24715952.700   129883170.102          50.000    24715957.920    96990663.215          50.000  
E30  25179010.320   132316526.523          50.000    25179017.040    98807771.691          50.000  
> 2020  6  4 23 35 49.0000000  0 16       0.000000000000
G 5  22262835.120   116991898.703          50.000                                                  
G12  24129845.280   126803154.852          50.000                                                  
G13  24521503.340   128861389.941          50.000                                                  
G15  23840948.000   125284808.633          50.000                                                  
G20  23364864.900   122783154.945          50.000                                                  
G21  22926937.100   120481866.734          50.000                                                  
G25  22239309.200   116868278.145          50.000    22239312.960    87271759.410          50.000  
G26  23278285.360   122328121.535          50.000    23278287.420    91348911.801          50.000  
G29  20401137.920   107208695.762          50.000                                                  
E 3  25961977.380   136431067.773          50.000    25961983.240   101880325.969          50.000  
E 5  26546829.140   139504483.516          50.000    26546834.660   104175409.324          50.000  
E13  26127263.400   137299655.586          50.000    26127269.040   102528945.961          50.000  
E15  23488136.500   123430955.637          50.000    23488141.820    92172453.902          50.000  
E21  26926338.060   141498822.047          50.000    26926343.660   105664688.789          50.000  
E27  24716169.700   129884310.410          50.000    24716174.900    96991514.742          50.000  
E30  25179579.500   132319517.555          50.000    25179586.200    98810005.250          50.000  
> 2020  6  4 23 35 50.0000000  0 16       0.000000000000
G 5  22263340.760   116994555.871          50.000                                                  
G12  24130574.060   126806984.531          50.000                                                  
G13  24521076.960   128859149.406          50.000                                                  
G15  23840390.220   125281877.547          50.000                                                  
G20  23364211.200   122779719.734          50.000                                                  
G21  22926613.380   120480165.531          50.000                                                  
G25  22239911.760   116871444.617          50.000    22239915.520    87274123.977          50.000  
G26  23277862.420   122325899.074          50.000    23277864.500    91347252.168          50.000  
G29  20401094.540   107208467.730          50.000                                                  
E 3  25961560.960   136428879.500          50.000    25961566.820   101878691.871          50.000  
E 5  26546827.760   139504476.191          50.000    26546833.260   104175403.855          50.000  
E13  26126952.620   137298022.410          50.000    26126958.260   102527726.383          50.000  
E15  23488112.120   123430827.527          50.000    23488117.440    92172358.234          50.000  
E21  26926062.860   141497375.789          50.000    26926068.460   105663608.793          50.000  
E27  24716386.760   129885451.164          50.000    24716391.980    96992366.605          50.000  
E30  25180148.680   132322508.672          50.000    25180155.400    98812238.875          50.000  
> 2020  6  4 23 35 51.0000000  0 16       0.000000000000
G 5  22263846.480   116997213.473          50.000                                                  
G12  24131302.840   126810814.273          50.000                                                  
G13  24520650.660   128856909.105          50.000                                                  
G15  23839832.480   125278946.570          50.000                                                  
G20  23363557.540   122776284.715          50.000                                                  
G21  22926289.680   120478464.523          50.000                                                  
G25  22240514.380   116874611.410          50.000    22240518.140    87276488.781          50.000  
G26  23277439.600   122323677.082          50.000    23277441.660    91345592.887          50.000  
G29  20401051.220   107208240.082          50.000                                                  
E 3  25961144.600   136426691.461          50.000    25961150.460   101877057.945          50.000  
E 5  26546826.440   139504469.320          50.000    26546831.960   104175398.727          50.000  
E13  26126641.840   137296389.281          50.000    26126647.480   102526506.840          50.000  
E15  23488087.760   123430699.527          50.000    23488093.080    92172262.648          50.000  
E21  26925787.720   141495929.961          50.000    26925793.320   105662529.113          50.000  
E27  24716603.940   129886592.367          50.000    24716609.140    96993218.801          50.000  
E30  25180717.900   132325499.883          50.000    25180724.620    98814472.566          50.000  
