     3.03           OBSERVATION DATA    M: Mixed            RINEX VERSION / TYPE
sbp2rinex v2.2 (RTKL                    20210504 171526 UTC PGM / RUN BY / DATE 
log: 2020-06-05-US-MTV-1.sbp                                COMMENT             
format: Swift Navigation SBP, option: CONVBASE,EPHALL,OBSALLCOMMENT             
                                                            MARKER NAME         
                                                            MARKER NUMBER       
                                                            MARKER TYPE         
                                                            OBSERVER / AGENCY   
                                                            REC # / TYPE / VERS 
                                                            ANT # / TYPE        
 -2725613.2224 -4348388.3885  3774557.9872                  APPROX POSITION XYZ 
        0.0000        0.0000        0.0000                  ANTENNA: DELTA H/E/N
G    6 C1C L1C S1C C5I L5I S5I                              SYS / # / OBS TYPES 
E    6 C1B L1B S1B C5I L5I S5I                              SYS / # / OBS TYPES 
  2020     6     5    17    41   36.0000000     GPS         TIME OF FIRST OBS   
  2020     6     5    18    13   58.0000000     GPS         TIME OF LAST OBS    
G                                                           SYS / PHASE SHIFT   
E                                                           SYS / PHASE SHIFT   
  0                                                         GLONASS SLOT / FRQ #
 C1C    0.000 C1P    0.000 C2C    0.000 C2P    0.000        GLONASS COD/PHS/BIS 
                                                            END OF HEADER       
> 2020  6  5 17 41 36.0000000  0 14       0.000000000000
G 6  22327524.800   117331855.637          50.000    22327529.420    87617935.898          50.000  
G13  23247559.780   122166765.211          50.000                                                  
G15  23802323.640   125081825.652          50.000                                                  
G17  21059734.440   110669596.555          50.000                                                  
G19  20065061.400   105442595.164          50.000                                                  
G24  22205838.160   116692389.633          50.000    22205841.880    87140412.109          50.000  
G28  22318136.280   117282712.258          50.000                                                  
G30  23944603.300   125829649.031          50.000    23944608.160    93963687.707          50.000  
E 5  27478799.520   144401988.355          50.000    27478807.440   107832627.355          50.000  
E 9  25844982.400   135816227.086          50.000    25844990.320   101421182.793          50.000  
E12  22847866.180   120066348.328          50.000    22847868.640    89659924.063          50.000  
E24  23207602.980   121956580.648          50.000    23207620.140    91071434.113          50.000  
E26  26457016.380   139032490.844          50.000    26457023.860   103822941.012          50.000  
E33  24260071.140   127487523.074          50.000    24260074.740    95201711.145          50.000  
> 2020  6  5 17 41 37.0000000  0 14       0.000000000000
G 6  22326967.580   117328927.422          50.000    22326972.200    87615749.246          50.000  
G13  23248146.360   122169847.750          50.000                                                  
G15  23802749.620   125084064.270          50.000                                                  
G17  21060064.560   110671331.379          50.000                                                  
G19  20065077.840   105442681.527          50.000                                                  
G24  22205363.640   116689895.996          50.000    22205367.360    87138549.980          50.000  
G28  22318428.800   117284249.383          50.000                                                  
G30  23945277.880   125833193.910          50.000    23945282.720    93966334.855          50.000  
E 5  27479044.980   144403278.199          50.000    27479052.880   107833590.551          50.000  
E 9  25845452.460   135818697.293          50.000    25845460.380   101423027.430          50.000  
E12  22847421.640   120064012.203          50.000    22847424.100    89658179.555          50.000  
E24  23207289.040   121954930.922          50.000    23207306.200    91070202.176          50.000  
E26  26457490.440   139034982.066          50.000    26457497.920   103824801.340          50.000  
E33  24260137.900   127487873.879          50.000    24260141.500    95201973.109          50.000  
> 2020  6  5 17 41 38.0000000  0 14       0.000000000000
G 6  22326410.420   117325999.535          50.000    22326415.040    87613562.840          50.000  
G13  23248732.980   122172930.461          50.000                                                  
G15  23803175.680   125086303.168          50.000                                                  
G17  21060394.760   110673066.523          50.000                                                  
G19  20065094.380   105442768.461          50.000                                                  
G24  22204889.200   116687402.766          50.000    22204892.900    87136688.156          50.000  
G28  22318721.320   117285786.605          50.000                                                  
G30  23945952.480   125836738.992          50.000    23945957.340    93968982.156          50.000  
E 5  27479290.480   144404568.359          50.000    27479298.400   107834553.980          50.000  
E 9  25845922.520   135821167.496          50.000    25845930.440   101424872.063          50.000  
E12  22846977.140   120061676.395          50.000    22846979.600    89656435.281          50.000  
E24  23206975.120   121953281.250          50.000    23206992.280    91068970.277          50.000  
E26  26457964.560   139037473.520          50.000    26457972.040   103826661.840          50.000  
E33  24260204.740   127488225.168          50.000    24260208.340    95202235.434          50.000  
> 2020  6  5 17 41 39.0000000  0 14       0.000000000000
G 6  22325853.320   117323072.000          50.000    22325857.960    87611376.695          50.000  
G13  23249319.640   122176013.359          50.000                                                  
G15  23803601.780   125088542.355          50.000                                                  
G17  21060725.000   110674801.992          50.000                                                  
G19  20065111.040   105442855.965          50.000                                                  
G24  22204414.820   116684909.918          50.000    22204418.520    87134826.613          50.000  
G28  22319013.860   117287323.941          50.000                                                  
G30  23946627.120   125840284.254          50.000    23946631.980    93971629.590          50.000  
E 5  27479536.060   144405858.867          50.000    27479543.980   107835517.672          50.000  
E 9  25846392.580   135823637.719          50.000    25846400.520   101426716.707          50.000  
E12  22846532.720   120059340.910          50.000    22846535.180    89654691.254          50.000  
E24  23206661.220   121951631.633          50.000    23206678.360    91067738.422          50.000  
E26  26458438.700   139039965.219          50.000    26458446.200   103828522.523          50.000  
E33  24260271.680   127488576.930          50.000    24260275.280    95202498.117          50.000  
> 2020  6  5 17 41 40.0000000  0 14       0.000000000000
G 6  22325296.300   117320144.828          50.000    22325300.920    87609190.824          50.000  
G13  23249906.340   122179096.434          50.000                                                  
G15  23804027.940   125090781.813          50.000                                                  
G17  21061055.320   110676537.797          50.000                                                  
G19  20065127.800   105442944.031          50.000                                                  
G24  22203940.520   116682417.465          50.000    22203944.220    87132965.367          50.000  
G28  22319306.420   117288861.383          50.000                                                  
G30  23947301.800   125843829.691          50.000    23947306.660    93974277.152          50.000  
E 5  27479781.700   144407149.691          50.000    27479789.600   107836481.598          50.000  
E 9  25846862.660   135826107.922          50.000    25846870.580   101428561.340          50.000  
E12  22846088.340   120057005.750          50.000    22846090.800    89652947.469          50.000  
E24  23206347.300   121949982.070          50.000    23206364.460    91066506.605          50.000  
E26  26458912.900   139042457.148          50.000    26458920.380   103830383.375          50.000  
E33  24260338.720   127488929.184          50.000    24260342.320    95202761.164          50.000  
> 2020  6  5 17 41 41.0000000  0 14       0.000000000000
G 6  22324739.340   117317218.004          50.000    22324743.980    87607005.207          50.000  
G13  23250493.060   122182179.703          50.000                                                  
G15  23804454.140   125093021.551          50.000                                                  
G17  21061385.700   110678273.922          50.000                                                  
G19  20065144.660   105443032.688          50.000                                                  
G24  22203466.300   116679925.445          50.000    22203470.020    87131104.445          50.000  
G28  22319599.020   117290398.934          50.000                                                  
G30  23947976.520   125847375.328          50.000    23947981.360    93976924.867          50.000  
E 5  27480027.400   144408440.859          50.000    27480035.320   107837445.781          50.000  
E 9  25847332.720   135828578.145          50.000    25847340.640   101430405.984          50.000  
E12  22845644.040   120054670.922          50.000    22845646.500    89651203.930          50.000  
E24  23206033.420   121948332.570          50.000    23206050.580    91065274.840          50.000  
E26  26459387.160   139044949.313          50.000    26459394.640   103832244.406          50.000  
E33  24260405.840   127489281.914          50.000    24260409.440    95203024.566          50.000  
> 2020  6  5 17 41 42.0000000  0 14       0.000000000000
G 6  22324182.460   117314291.527          50.000    22324187.080    87604819.855          50.000  
G13  23251079.820   122185263.156          50.000                                                  
G15  23804880.400   125095261.566          50.000                                                  
G17  21061716.120   110680010.375          50.000                                                  
G19  20065161.640   105443121.898          50.000                                                  
G24  22202992.160   116677433.793          50.000    22202995.860    87129243.797          50.000  
G28  22319891.620   117291936.578          50.000                                                  
G30  23948651.260   125850921.160          50.000    23948656.120    93979572.723          50.000  
E 5  27480273.160   144409732.355          50.000    27480281.080   107838410.211          50.000  
E 9  25847802.780   135831048.348          50.000    25847810.720   101432250.617          50.000  
E12  22845199.800   120052336.410          50.000    22845202.260    89649460.625          50.000  
E24  23205719.540   121946683.125          50.000    23205736.700    91064043.109          50.000  
E26  26459861.440   139047441.703          50.000    26459868.920   103834105.609          50.000  
E33  24260473.040   127489635.125          50.000    24260476.660    95203288.328          50.000  
> 2020  6  5 17 41 43.0000000  0 14       0.000000000000
G 6  22323625.640   117311365.398          50.000    22323630.260    87602634.762          50.000  
G13  23251666.620   122188346.797          50.000                                                  
G15  23805306.720   125097501.863          50.000                                                  
G17  21062046.620   110681747.164          50.000                                                  
G19  20065178.720   105443211.688          50.000                                                  
G24  22202518.080   116674942.527          50.000    22202521.800    87127383.438          50.000  
G28  22320184.240   117293474.348          50.000                                                  
G30  23949326.040   125854467.168          50.000    23949330.900    93982220.719          50.000  
E 5  27480518.980   144411024.188          50.000    27480526.900   107839374.887          50.000  
E 9  25848272.860   135833518.563          50.000    25848280.780   101434095.258          50.000  
E12  22844755.620   120050002.223          50.000    22844758.080    89647717.566          50.000  
E24  23205405.680   121945033.734          50.000    23205422.820    91062811.422          50.000  
E26  26460335.780   139049934.352          50.000    26460343.260   103835967.000          50.000  
E33  24260540.360   127489988.813          50.000    24260543.960    95203552.445          50.000  
> 2020  6  5 17 41 44.0000000  0 14       0.000000000000
G 6  22323068.880   117308439.625          50.000    22323073.500    87600449.934          50.000  
G13  23252253.460   122191430.617          50.000                                                  
G15  23805733.080   125099742.445          50.000                                                  
G17  21062377.180   110683484.273          50.000                                                  
G19  20065195.920   105443302.055          50.000                                                  
G24  22202044.100   116672451.676          50.000    22202047.800    87125523.387          50.000  
G28  22320476.900   117295012.227          50.000                                                  
G30  23950000.860   125858013.363          50.000    23950005.720    93984868.848          50.000  
E 5  27480764.880   144412316.363          50.000    27480772.800   107840339.824          50.000  
E 9  25848742.920   135835988.789          50.000    25848750.840   101435939.906          50.000  
E12  22844311.500   120047668.367          50.000    22844313.960    89645974.750          50.000  
E24  23205091.800   121943384.387          50.000    23205108.960    91061579.770          50.000  
E26  26460810.160   139052427.223          50.000    26460817.640   103837828.559          50.000  
E33  24260607.740   127490342.988          50.000    24260611.360    95203816.926          50.000  
> 2020  6  5 17 41 45.0000000  0 14       0.000000000000
G 6  22322512.180   117305514.195          50.000    22322516.800    87598265.359          50.000  
G13  23252840.320   122194514.621          50.000                                                  
G15  23806159.500   125101983.297          50.000                                                  
G17  21062707.820   110685221.719          50.000                                                  
G19  20065213.220   105443392.977          50.000                                                  
G24  22201570.180   116669961.223          50.000    22201573.880    87123663.637          50.000  
G28  22320769.560   117296550.207          50.000                                                  
G30  23950675.720   125861559.742          50.000    23950680.580    93987517.117          50.000  
E 5  27481010.840   144413608.852          50.000    27481018.740   107841304.992          50.000  
E 9  25849212.980   135838459.000          50.000    25849220.920   101437784.543          50.000  
E12  22843867.440   120045334.813          50.000    22843869.900    89644232.164          50.000  
E24  23204777.960   121941735.113          50.000    23204795.120    91060348.168          50.000  
E26  26461284.580   139054920.324          50.000    26461292.060   103839690.289          50.000  
E33  24260675.240   127490697.645          50.000    24260678.840    95204081.766          50.000  
> 2020  6  5 17 41 46.0000000  0 14       0.000000000000
G 6  22321955.560   117302589.129          50.000    22321960.180    87596081.059          50.000  
G13  23253427.220   122197598.805          50.000                                                  
G15  23806585.980   125104224.422          50.000                                                  
G17  21063038.500   110686959.492          50.000                                                  
G19  20065230.640   105443484.469          50.000                                                  
G24  22201096.340   116667471.156          50.000    22201100.040    87121804.172          50.000  
G28  22321062.260   117298088.285          50.000                                                  
G30  23951350.620   125865106.313          50.000    23951355.460    93990165.527          50.000  
E 5  27481256.860   144414901.684          50.000    27481264.760   107842270.422          50.000  
E 9  25849683.060   135840929.219          50.000    25849690.980   101439629.191          50.000  
E12  22843423.440   120043001.613          50.000    22843425.900    89642489.840          50.000  
E24  23204464.120   121940085.879          50.000    23204481.280    91059116.602          50.000  
E26  26461759.040   139057413.668          50.000    26461766.520   103841552.203          50.000  
E33  24260742.820   127491052.781          50.000    24260746.420    95204346.969          50.000  
> 2020  6  5 17 41 47.0000000  0 14       0.000000000000
G 6  22321399.000   117299664.410          50.000    22321403.620    87593897.020          50.000  
G13  23254014.160   122200683.176          50.000                                                  
G15  23807012.500   125106465.824          50.000                                                  
G17  21063369.240   110688697.582          50.000                                                  
G19  20065248.160   105443576.539          50.000                                                  
G24  22200622.560   116664981.488          50.000    22200626.260    87119945.008          50.000  
G28  22321354.960   117299626.477          50.000                                                  
G30  23952025.540   125868653.066          50.000    23952030.400    93992814.074          50.000  
E 5  27481502.940   144416194.836          50.000    27481510.840   107843236.086          50.000  
E 9  25850153.120   135843399.438          50.000    25850161.040   101441473.832          50.000  
E12  22842979.500   120040668.727          50.000    22842981.960    89640747.750          50.000  
E24  23204150.300   121938436.715          50.000    23204167.460    91057885.082          50.000  
E26  26462233.560   139059907.246          50.000    26462241.040   103843414.289          50.000  
E33  24260810.480   127491408.391          50.000    24260814.100    95204612.520          50.000  
> 2020  6  5 17 41 48.0000000  0 14       0.000000000000
G 6  22320842.520   117296740.035          50.000    22320847.140    87591713.230          50.000  
G13  23254601.140   122203767.730          50.000                                                  
G15  23807439.080   125108707.516          50.000                                                  
G17  21063700.060   110690436.008          50.000                                                  
G19  20065265.780   105443669.184          50.000                                                  
G24  22200148.880   116662492.242          50.000    22200152.580    87118086.152          50.000  
G28  22321647.680   117301164.777          50.000                                                  
G30  23952700.500   125872200.016          50.000    23952705.360    93995462.766          50.000  
E 5  27481749.080   144417488.332          50.000    27481757.000   107844202.008          50.000  
E 9  25850623.180   135845869.652          50.000    25850631.120   101443318.473          50.000  
E12  22842535.640   120038336.160          50.000    22842538.080    89639005.902          50.000  
E24  23203836.480   121936787.594          50.000    23203853.640    91056653.598          50.000  
E26  26462708.120   139062401.070          50.000    26462715.600   103845276.555          50.000  
E33  24260878.260   127491764.488          50.000    24260881.860    95204878.434          50.000  
> 2020  6  5 17 41 49.0000000  0 14       0.000000000000
G 6  22320286.080   117293816.016          50.000    22320290.700    87589529.711          50.000  
G13  23255188.140   122206852.461          50.000                                                  
G15  23807865.720   125110949.457          50.000                                                  
G17  21064030.940   110692174.762          50.000                                                  
G19  20065283.520   105443762.391          50.000                                                  
G24  22199675.260   116660003.379          50.000    22199678.960    87116227.590          50.000  
G28  22321940.440   117302703.180          50.000                                                  
G30  23953375.500   125875747.141          50.000    23953380.360    93998111.594          50.000  
E 5  27481995.280   144418782.156          50.000    27482003.200   107845168.172          50.000  
E 9  25851093.260   135848339.871          50.000    25851101.180   101445163.117          50.000  
E12  22842091.820   120036003.918          50.000    22842094.280    89637264.293          50.000  
E24  23203522.680   121935138.531          50.000    23203539.820    91055422.156          50.000  
E26  26463182.720   139064895.105          50.000    26463190.200   103847138.984          50.000  
E33  24260946.100   127492121.063          50.000    24260949.720    95205144.711          50.000  
> 2020  6  5 17 41 50.0000000  0 14       0.000000000000
G 6  22319729.740   117290892.355          50.000    22319734.360    87587346.465          50.000  
G13  23255775.180   122209937.383          50.000                                                  
G15  23808292.400   125113191.672          50.000                                                  
G17  21064361.880   110693913.844          50.000                                                  
G19  20065301.360   105443856.180          50.000                                                  
G24  22199201.720   116657514.918          50.000    22199205.420    87114369.324          50.000  
G28  22322233.200   117304241.691          50.000                                                  
G30  23954050.540   125879294.461          50.000    23954055.400    94000760.563          50.000  
E 5  27482241.560   144420076.316          50.000    27482249.460   107846134.590          50.000  
E 9  25851563.320   135850810.086          50.000    25851571.240   101447007.758          50.000  
E12  22841648.080   120033672.008          50.000    22841650.520    89635522.934          50.000  
E24  23203208.880   121933489.527          50.000    23203226.040    91054190.758          50.000  
E26  26463657.360   139067389.387          50.000    26463664.840   103849001.598          50.000  
E33  24261014.060   127492478.117          50.000    24261017.660    95205411.340          50.000  
> 2020  6  5 17 41 51.0000000  0 14       0.000000000000
G 6  22319173.440   117287969.031          50.000    22319178.060    87585163.461          50.000  
G13  23256362.260   122213022.488          50.000                                                  
G15  23808719.120   125115434.168          50.000                                                  
G17  21064692.880   110695653.258          50.000                                                  
G19  20065319.320   105443950.535          50.000                                                  
G24  22198728.260   116655026.852          50.000    22198731.960    87112511.355          50.000  
G28  22322526.000   117305780.305          50.000                                                  
G30  23954725.600   125882841.973          50.000    23954730.460    94003409.676          50.000  
E 5  27482487.880   144421370.809          50.000    27482495.800   107847101.258          50.000  
E 9  25852033.380   135853280.309          50.000    25852041.320   101448852.402          50.000  
E12  22841204.380   120031340.414          50.000    22841206.840    89633781.809          50.000  
E24  23202895.100   121931840.582          50.000    23202912.240    91052959.402          50.000  
E26  26464132.060   139069883.906          50.000    26464139.540   103850864.387          50.000  
E33  24261082.080   127492835.664          50.000    24261085.700    95205678.340          50.000  
> 2020  6  5 17 41 52.0000000  0 14       0.000000000000
G 6  22318617.220   117285046.070          50.000    22318621.840    87582980.734          50.000  
G13  23256949.360   122216107.762          50.000                                                  
G15  23809145.920   125117676.949          50.000                                                  
G17  21065023.940   110697392.988          50.000                                                  
G19  20065337.380   105444045.453          50.000                                                  
G24  22198254.860   116652539.148          50.000    22198258.560    87110653.656          50.000  
G28  22322818.800   117307319.027          50.000                                                  
G30  23955400.700   125886389.645          50.000    23955405.560    94006058.910          50.000  
E 5  27482734.280   144422665.629          50.000    27482742.200   107848068.168          50.000  
E 9  25852503.460   135855750.520          50.000    25852511.380   101450697.039          50.000  
E12  22840760.760   120029009.148          50.000    22840763.220    89632040.930          50.000  
E24  23202581.320   121930191.691          50.000    23202598.480    91051728.090          50.000  
E26  26464606.800   139072378.668          50.000    26464614.280   103852727.359          50.000  
E33  24261150.220   127493193.684          50.000    24261153.820    95205945.691          50.000  
> 2020  6  5 17 41 53.0000000  0 14       0.000000000000
G 6  22318061.060   117282123.465          50.000    22318065.680    87580798.270          50.000  
G13  23257536.520   122219193.234          50.000                                                  
G15  23809572.760   125119920.008          50.000                                                  
G17  21065355.060   110699133.051          50.000                                                  
G19  20065355.560   105444140.941          50.000                                                  
G24  22197781.540   116650051.863          50.000    22197785.240    87108796.270          50.000  
G28  22323111.640   117308857.859          50.000                                                  
G30  23956075.840   125889937.523          50.000    23956080.700    94008708.297          50.000  
E 5  27482980.740   144423960.789          50.000    27482988.660   107849035.332          50.000  
E 9  25852973.520   135858220.738          50.000    25852981.460   101452541.684          50.000  
E12  22840317.200   120026678.215          50.000    22840319.660    89630300.301          50.000  
E24  23202267.560   121928542.844          50.000    23202284.700    91050496.809          50.000  
E26  26465081.580   139074873.660          50.000    26465089.060   103854590.500          50.000  
E33  24261218.440   127493552.188          50.000    24261222.040    95206213.406          50.000  
> 2020  6  5 17 41 54.0000000  0 14       0.000000000000
G 6  22317504.980   117279201.203          50.000    22317509.600    87578616.066          50.000  
G13  23258123.700   122222278.891          50.000                                                  
G15  23809999.660   125122163.344          50.000                                                  
G17  21065686.240   110700873.449          50.000                                                  
G19  20065373.840   105444237.012          50.000                                                  
G24  22197308.300   116647565.012          50.000    22197312.000    87106939.207          50.000  
G28  22323404.480   117310396.801          50.000                                                  
G30  23956751.020   125893485.586          50.000    23956755.880    94011357.820          50.000  
E 5  27483227.260   144425256.277          50.000    27483235.180   107850002.742          50.000  
E 9  25853443.580   135860690.961          50.000    25853451.520   101454386.332          50.000  
E12  22839873.700   120024347.602          50.000    22839876.140    89628559.910          50.000  
E24  23201953.800   121926894.070          50.000    23201970.960    91049265.582          50.000  
E26  26465556.400   139077368.891          50.000    26465563.880   103856453.820          50.000  
E33  24261286.740   127493911.168          50.000    24261290.360    95206481.477          50.000  
> 2020  6  5 17 41 55.0000000  0 14       0.000000000000
G 6  22316948.960   117276279.289          50.000    22316953.560    87576434.117          50.000  
G13  23258710.920   122225364.719          50.000                                                  
G15  23810426.600   125124406.949          50.000                                                  
G17  21066017.480   110702614.168          50.000                                                  
G19  20065392.220   105444333.641          50.000                                                  
G24  22196835.160   116645078.559          50.000    22196838.860    87105082.441          50.000  
G28  22323697.360   117311935.848          50.000                                                  
G30  23957426.240   125897033.828          50.000    23957431.100    94014007.480          50.000  
E 5  27483473.860   144426552.090          50.000    27483481.760   107850970.395          50.000  
E 9  25853913.660   135863161.184          50.000    25853921.580   101456230.977          50.000  
E12  22839430.260   120022017.316          50.000    22839432.700    89626819.762          50.000  
E24  23201640.060   121925245.344          50.000    23201657.220    91048034.391          50.000  
E26  26466031.280   139079864.348          50.000    26466038.760   103858317.309          50.000  
E33  24261355.160   127494270.629          50.000    24261358.760    95206749.906          50.000  
> 2020  6  5 17 41 56.0000000  0 14       0.000000000000
G 6  22316393.000   117273357.742          50.000    22316397.620    87574252.445          50.000  
G13  23259298.160   122228450.742          50.000                                                  
G15  23810853.600   125126650.848          50.000                                                  
G17  21066348.800   110704355.215          50.000                                                  
G19  20065410.720   105444430.840          50.000                                                  
G24  22196362.080   116642592.508          50.000    22196365.760    87103225.977          50.000  
G28  22323990.260   117313475.008          50.000                                                  
G30  23958101.480   125900582.266          50.000    23958106.340    94016657.289          50.000  
E 5  27483720.500   144427848.242          50.000    27483728.420   107851938.301          50.000  
E 9  25854383.720   135865631.398          50.000    25854391.660   101458075.617          50.000  
E12  22838986.880   120019687.352          50.000    22838989.320    89625079.855          50.000  
E24  23201326.320   121923596.680          50.000    23201343.480    91046803.246          50.000  
E26  26466506.180   139082360.051          50.000    26466513.680   103860180.980          50.000  
E33  24261423.640   127494630.566          50.000    24261427.260    95207018.691          50.000  
> 2020  6  5 17 41 57.0000000  0 14       0.000000000000
G 6  22315837.100   117270436.535          50.000    22315841.720    87572071.027          50.000  
G13  23259885.440   122231536.934          50.000                                                  
G15  23811280.640   125128895.023          50.000                                                  
G17  21066680.180   110706096.590          50.000                                                  
G19  20065429.320   105444528.609          50.000                                                  
G24  22195889.060   116640106.840          50.000    22195892.760    87101369.797          50.000  
G28  22324283.160   117315014.273          50.000                                                  
G30  23958776.760   125904130.879          50.000    23958781.620    94019307.227          50.000  
E 5  27483967.220   144429144.727          50.000    27483975.140   107852906.453          50.000  
E 9  25854853.800   135868101.621          50.000    25854861.720   101459920.262          50.000  
E12  22838543.560   120017357.707          50.000    22838546.020    89623340.188          50.000  
E24  23201012.600   121921948.066          50.000    23201029.760    91045572.141          50.000  
E26  26466981.140   139084855.984          50.000    26466988.640   103862044.828          50.000  
E33  24261492.240   127494990.992          50.000    24261495.840    95207287.840          50.000  
> 2020  6  5 17 41 58.0000000  0 14       0.000000000000
G 6  22315281.300   117267515.695          50.000    22315285.900    87569889.883          50.000  
G13  23260472.760   122234623.316          50.000                                                  
G15  23811707.760   125131139.469          50.000                                                  
G17  21067011.600   110707838.285          50.000                                                  
G19  20065448.040   105444626.945          50.000                                                  
G24  22195416.140   116637621.578          50.000    22195419.820    87099513.922          50.000  
G28  22324576.100   117316553.656          50.000                                                  
G30  23959452.080   125907679.695          50.000    23959456.940    94021957.313          50.000  
E 5  27484214.000   144430441.543          50.000    27484221.900   107853874.855          50.000  
E 9  25855323.860   135870571.832          50.000    25855331.780   101461764.902          50.000  
E12  22838100.300   120015028.398          50.000    22838102.760    89621600.770          50.000  
E24  23200698.900   121920299.508          50.000    23200716.040    91044341.074          50.000  
E26  26467456.160   139087352.152          50.000    26467463.640   103863908.848          50.000  
E33  24261560.920   127495351.910          50.000    24261564.520    95207557.355          50.000  
> 2020  6  5 17 41 59.0000000  0 14       0.000000000000
G 6  22314725.540   117264595.191          50.000    22314730.160    87567708.988          50.000  
G13  23261060.120   122237709.875          50.000                                                  
G15  23812134.920   125133384.203          50.000                                                  
G17  21067343.100   110709580.316          50.000                                                  
G19  20065466.860   105444725.863          50.000                                                  
G24  22194943.280   116635136.707          50.000    22194946.980    87097658.336          50.000  
G28  22324869.060   117318093.137          50.000                                                  
G30  23960127.420   125911228.680          50.000    23960132.280    94024607.523          50.000  
E 5  27484460.840   144431738.695          50.000    27484468.740   107854843.508          50.000  
E 9  25855793.920   135873042.055          50.000    25855801.860   101463609.547          50.000  
E12  22837657.120   120012699.410          50.000    22837659.560    89619861.594          50.000  
E24  23200385.200   121918651.012          50.000    23200402.340    91043110.055          50.000  
E26  26467931.200   139089848.555          50.000    26467938.700   103865773.043          50.000  
E33  24261629.680   127495713.289          50.000    24261633.280    95207827.219          50.000  
> 2020  6  5 17 42  0.0000000  0 14       0.000000000000
G 6  22314169.840   117261675.031          50.000    22314174.460    87565528.352          50.000  
G13  23261647.520   122240796.629          50.000                                                  
G15  23812562.120   125135629.207          50.000                                                  
G17  21067674.660   110711322.672          50.000                                                  
G19  20065485.800   105444825.340          50.000                                                  
G24  22194470.500   116632652.246          50.000    22194474.200    87095803.063          50.000  
G28  22325162.020   117319632.727          50.000                                                  
G30  23960802.820   125914777.855          50.000    23960807.680    94027257.883          50.000  
E 5  27484707.740   144433036.168          50.000    27484715.660   107855812.398          50.000  
E 9  25856264.000   135875512.270          50.000    25856271.920   101465454.188          50.000  
E12  22837213.980   120010370.750          50.000    22837216.440    89618122.656          50.000  
E24  23200071.500   121917002.559          50.000    23200088.660    91041879.070          50.000  
E26  26468406.300   139092345.195          50.000    26468413.780   103867637.418          50.000  
E33  24261698.540   127496075.156          50.000    24261702.140    95208097.441          50.000  
> 2020  6  5 17 42  1.0000000  0 14       0.000000000000
G 6  22313614.240   117258755.258          50.000    22313618.840    87563348.004          50.000  
G13  23262234.940   122243883.563          50.000                                                  
G15  23812989.380   125137874.492          50.000                                                  
G17  21068006.280   110713065.359          50.000                                                  
G19  20065504.840   105444925.402          50.000                                                  
G24  22193997.800   116630168.195          50.000    22194001.500    87093948.090          50.000  
G28  22325455.020   117321172.426          50.000                                                  
G30  23961478.240   125918327.207          50.000    23961483.100    94029908.371          50.000  
E 5  27484954.700   144434333.988          50.000    27484962.620   107856781.551          50.000  
E 9  25856734.060   135877982.480          50.000    25856741.980   101467298.828          50.000  
E12  22836770.920   120008042.414          50.000    22836773.360    89616383.965          50.000  
E24  23199757.820   121915354.172          50.000    23199774.980    91040648.133          50.000  
E26  26468881.440   139094842.066          50.000    26468888.920   103869501.965          50.000  
E33  24261767.500   127496437.504          50.000    24261771.100    95208368.031          50.000  
> 2020  6  5 17 42  2.0000000  0 14       0.000000000000
G 6  22313058.680   117255835.809          50.000    22313063.280    87561167.898          50.000  
G13  23262822.400   122246970.668          50.000                                                  
G15  23813416.700   125140120.047          50.000                                                  
G17  21068337.960   110714808.367          50.000                                                  
G19  20065523.980   105445026.031          50.000                                                  
G24  22193525.180   116627684.535          50.000    22193528.860    87092093.410          50.000  
G28  22325748.040   117322712.230          50.000                                                  
G30  23962153.700   125921876.754          50.000    23962158.560    94032559.004          50.000  
E 5  27485201.720   144435632.137          50.000    27485209.640   107857750.945          50.000  
E 9  25857204.120   135880452.703          50.000    25857212.060   101469143.473          50.000  
E12  22836327.900   120005714.398          50.000    22836330.360    89614645.516          50.000  
E24  23199444.160   121913705.840          50.000    23199461.300    91039417.234          50.000  
E26  26469356.620   139097339.176          50.000    26469364.120   103871366.688          50.000  
E33  24261836.540   127496800.332          50.000    24261840.140    95208638.969          50.000  
> 2020  6  5 17 42  3.0000000  0 14       0.000000000000
G 6  22312503.200   117252916.723          50.000    22312507.800    87558988.063          50.000  
G13  23263409.880   122250057.957          50.000                                                  
G15  23813844.080   125142365.887          50.000                                                  
G17  21068669.720   110716551.711          50.000                                                  
G19  20065543.240   105445127.223          50.000                                                  
G24  22193052.620   116625201.285          50.000    22193056.320    87090239.035          50.000  
G28  22326041.080   117324252.148          50.000                                                  
G30  23962829.180   125925426.492          50.000    23962834.040    94035209.777          50.000  
E 5  27485448.820   144436930.609          50.000    27485456.740   107858720.586          50.000  
E 9  25857674.200   135882922.918          50.000    25857682.120   101470988.113          50.000  
E12  22835884.960   120003386.711          50.000    22835887.420    89612907.309          50.000  
E24  23199130.500   121912057.563          50.000    23199147.660    91038186.383          50.000  
E26  26469831.860   139099836.512          50.000    26469839.340   103873231.578          50.000  
E33  24261905.680   127497163.645          50.000    24261909.280    95208910.277          50.000  
> 2020  6  5 17 42  4.0000000  0 14       0.000000000000
G 6  22311947.780   117249997.988          50.000    22311952.380    87556808.488          50.000  
G13  23263997.420   122253145.418          50.000                                                  
G15  23814271.500   125144612.000          50.000                                                  
G17  21069001.520   110718295.383          50.000                                                  
G19  20065562.600   105445228.973          50.000                                                  
G24  22192580.160   116622718.441          50.000    22192583.840    87088384.965          50.000  
G28  22326334.140   117325792.164          50.000                                                  
G30  23963504.720   125928976.398          50.000    23963509.580    94037860.680          50.000  
E 5  27485695.980   144438229.418          50.000    27485703.900   107859690.477          50.000  
E 9  25858144.260   135885393.125          50.000    25858152.180   101472832.746          50.000  
E12  22835442.080   120001059.352          50.000    22835444.520    89611169.344          50.000  
E24  23198816.860   121910409.340          50.000    23198834.000    91036955.566          50.000  
E26  26470307.120   139102334.086          50.000    26470314.620   103875096.652          50.000  
E33  24261974.900   127497527.434          50.000    24261978.500    95209181.938          50.000  
> 2020  6  5 17 42  5.0000000  0 14       0.000000000000
G 6  22311392.420   117247079.605          50.000    22311397.040    87554629.180          50.000  
G13  23264584.980   122256233.078          50.000                                                  
G15  23814698.960   125146858.379          50.000                                                  
G17  21069333.400   110720039.367          50.000                                                  
G19  20065582.080   105445331.305          50.000                                                  
G24  22192107.760   116620235.992          50.000    22192111.460    87086531.191          50.000  
G28  22326627.200   117327332.293          50.000                                                  
G30  23964180.280   125932526.504          50.000    23964185.140    94040511.730          50.000  
E 5  27485943.200   144439528.559          50.000    27485951.120   107860660.613          50.000  
E 9  25858614.320   135887863.340          50.000    25858622.260   101474677.387          50.000  
E12  22834999.260   119998732.309          50.000    22835001.700    89609431.621          50.000  
E24  23198503.220   121908761.176          50.000    23198520.360    91035724.797          50.000  
E26  26470782.440   139104831.895          50.000    26470789.940   103876961.898          50.000  
E33  24262044.220   127497891.703          50.000    24262047.820    95209453.957          50.000  
> 2020  6  5 17 42  6.0000000  0 14       0.000000000000
G 6  22310837.140   117244161.582          50.000    22310841.760    87552450.137          50.000  
G13  23265172.580   122259320.918          50.000                                                  
G15  23815126.500   125149105.035          50.000                                                  
G17  21069665.320   110721783.684          50.000                                                  
G19  20065601.660   105445434.207          50.000                                                  
G24  22191635.440   116617753.906          50.000    22191639.120    87084677.688          50.000  
G28  22326920.300   117328872.516          50.000                                                  
G30  23964855.880   125936076.781          50.000    23964860.740    94043162.914          50.000  
E 5  27486190.480   144440828.027          50.000    27486198.400   107861630.992          50.000  
E 9  25859084.380   135890333.551          50.000    25859092.320   101476522.027          50.000  
E12  22834556.500   119996405.609          50.000    22834558.940    89607694.152          50.000  
E24  23198189.600   121907113.059          50.000    23198206.740    91034494.059          50.000  
E26  26471257.800   139107329.938          50.000    26471265.300   103878827.316          50.000  
E33  24262113.620   127498256.449          50.000    24262117.240    95209726.332          50.000  
> 2020  6  5 17 42  7.0000000  0 14       0.000000000000
G 6  22310281.920   117241243.906          50.000    22310286.540    87550271.359          50.000  
G13  23265760.200   122262408.945          50.000                                                  
G15  23815554.080   125151351.969          50.000                                                  
G17  21069997.320   110723528.336          50.000                                                  
G19  20065621.340   105445537.664          50.000                                                  
G24  22191163.180   116615272.227          50.000    22191166.880    87082824.484          50.000  
G28  22327213.420   117330412.855          50.000                                                  
G30  23965531.500   125939627.254          50.000    23965536.380    94045814.234          50.000  
E 5  27486437.820   144442127.832          50.000    27486445.740   107862601.625          50.000  
E 9  25859554.460   135892803.766          50.000    25859562.380   101478366.668          50.000  
E12  22834113.800   119994079.227          50.000    22834116.260    89605956.918          50.000  
E24  23197875.980   121905465.016          50.000    23197893.120    91033263.383          50.000  
E26  26471733.220   139109828.223          50.000    26471740.700   103880692.918          50.000  
E33  24262183.140   127498621.688          50.000    24262186.740    95209999.074          50.000  
> 2020  6  5 17 42  8.0000000  0 14       0.000000000000
G 6  22309726.780   117238326.594          50.000    22309731.380    87548092.844          50.000  
G13  23266347.880   122265497.148          50.000                                                  
G15  23815981.700   125153599.184          50.000                                                  
G17  21070329.380   110725273.305          50.000                                                  
G19  20065641.140   105445641.684          50.000                                                  
G24  22190691.000   116612790.941          50.000    22190694.700    87080971.582          50.000  
G28  22327506.560   117331953.297          50.000                                                  
G30  23966207.180   125943177.902          50.000    23966212.040    94048465.691          50.000  
E 5  27486685.220   144443427.965          50.000    27486693.140   107863572.504          50.000  
E 9  25860024.520   135895273.977          50.000    25860032.460   101480211.305          50.000  
E12  22833671.160   119991753.160          50.000    22833673.620    89604219.922          50.000  
E24  23197562.380   121903816.996          50.000    23197579.520    91032032.719          50.000  
E26  26472208.660   139112326.730          50.000    26472216.160   103882558.688          50.000  
E33  24262252.720   127498987.395          50.000    24262256.320    95210272.168          50.000  
> 2020  6  5 17 42  9.0000000  0 14       0.000000000000
G 6  22309171.700   117235409.625          50.000    22309176.300    87545914.594          50.000  
G13  23266935.580   122268585.535          50.000                                                  
G15  23816409.380   125155846.672          50.000                                                  
G17  21070661.500   110727018.605          50.000                                                  
G19  20065661.040   105445746.281          50.000                                                  
G24  22190218.920   116610310.063          50.000    22190222.600    87079118.977          50.000  
G28  22327799.720   117333493.844          50.000                                                  
G30  23966882.880   125946728.750          50.000    23966887.740    94051117.297          50.000  
E 5  27486932.700   144444728.434          50.000    27486940.620   107864543.633          50.000  
E 9  25860494.580   135897744.184          50.000    25860502.520   101482055.941          50.000  
E12  22833228.600   119989427.430          50.000    22833231.040    89602483.180          50.000  
E24  23197248.780   121902169.059          50.000    23197265.920    91030802.113          50.000  
E26  26472684.160   139114825.477          50.000    26472691.660   103884424.633          50.000  
E33  24262322.400   127499353.590          50.000    24262326.020    95210545.625          50.000  
> 2020  6  5 17 42 10.0000000  0 14       0.000000000000
G 6  22308616.680   117232493.008          50.000    22308621.280    87543736.602          50.000  
G13  23267523.300   122271674.086          50.000                                                  
G15  23816837.120   125158094.434          50.000                                                  
G17  21070993.680   110728764.234          50.000                                                  
G19  20065681.060   105445851.441          50.000                                                  
G24  22189746.900   116607829.574          50.000    22189750.580    87077266.664          50.000  
G28  22328092.900   117335034.500          50.000                                                  
G30  23967558.620   125950279.777          50.000    23967563.480    94053769.035          50.000  
E 5  27487180.240   144446029.234          50.000    27487188.160   107865515.012          50.000  
E 9  25860964.660   135900214.395          50.000    25860972.580   101483900.578          50.000  
E12  22832786.080   119987102.031          50.000    22832788.540    89600746.680          50.000  
E24  23196935.200   121900521.191          50.000    23196952.340    91029571.566          50.000  
E26  26473159.700   139117324.465          50.000    26473167.200   103886290.758          50.000  
E33  24262392.180   127499720.270          50.000    24262395.780    95210819.449          50.000  
> 2020  6  5 17 42 11.0000000  0 14       0.000000000000
G 6  22308061.740   117229576.746          50.000    22308066.340    87541558.875          50.000  
G13  23268111.080   122274762.836          50.000                                                  
G15  23817264.900   125160342.465          50.000                                                  
G17  21071325.920   110730510.184          50.000                                                  
G19  20065701.180   105445957.164          50.000                                                  
G24  22189274.940   116605349.500          50.000    22189278.640    87075414.660          50.000  
G28  22328386.080   117336575.262          50.000                                                  
G30  23968234.400   125953830.992          50.000    23968239.260    94056420.914          50.000  
E 5  27487427.820   144447330.359          50.000    27487435.740   107866486.629          50.000  
E 9  25861434.720   135902684.609          50.000    25861442.640   101485745.219          50.000  
E12  22832343.640   119984776.961          50.000    22832346.080    89599010.430          50.000  
E24  23196621.620   121898873.363          50.000    23196638.780    91028341.047          50.000  
E26  26473635.280   139119823.680          50.000    26473642.780   103888157.055          50.000  
E33  24262462.040   127500087.426          50.000    24262465.660    95211093.621          50.000  
> 2020  6  5 17 42 12.0000000  0 14       0.000000000000
G 6  22307506.860   117226660.844          50.000    22307511.460    87539381.418          50.000  
G13  23268698.880   122277851.762          50.000                                                  
G15  23817692.740   125162590.777          50.000                                                  
G17  21071658.240   110732256.465          50.000                                                  
G19  20065721.400   105446063.465          50.000                                                  
G24  22188803.080   116602869.809          50.000    22188806.760    87073562.949          50.000  
G28  22328679.300   117338116.129          50.000                                                  
G30  23968910.200   125957382.379          50.000    23968915.060    94059072.922          50.000  
E 5  27487675.480   144448631.824          50.000    27487683.400   107867458.500          50.000  
E 9  25861904.780   135905154.809          50.000    25861912.720   101487589.848          50.000  
E12  22831901.260   119982452.207          50.000    22831903.700    89597274.410          50.000  
E24  23196308.060   121897225.586          50.000    23196325.220    91027110.566          50.000  
E26  26474110.920   139122323.129          50.000    26474118.420   103890023.523          50.000  
E33  24262532.000   127500455.051          50.000    24262535.620    95211368.148          50.000  
> 2020  6  5 17 42 13.0000000  0 14       0.000000000000
G 6  22306952.040   117223745.293          50.000    22306956.640    87537204.223          50.000  
G13  23269286.720   122280940.871          50.000                                                  
G15  23818120.640   125164839.375          50.000                                                  
G17  21071990.600   110734003.066          50.000                                                  
G19  20065741.740   105446170.340          50.000                                                  
G24  22188331.280   116600390.527          50.000    22188334.980    87071711.535          50.000  
G28  22328972.540   117339657.098          50.000                                                  
G30  23969586.040   125960933.957          50.000    23969590.920    94061725.074          50.000  
E 5  27487923.220   144449933.605          50.000    27487931.140   107868430.613          50.000  
E 9  25862374.840   135907625.016          50.000    25862382.780   101489434.480          50.000  
E12  22831458.920   119980127.770          50.000    22831461.360    89595538.633          50.000  
E24  23195994.520   121895577.867          50.000    23196011.660    91025880.129          50.000  
E26  26474586.600   139124822.809          50.000    26474594.080   103891890.168          50.000  
E33  24262602.060   127500823.168          50.000    24262605.660    95211643.039          50.000  
> 2020  6  5 17 42 14.0000000  0 14       0.000000000000
G 6  22306397.300   117220830.098          50.000    22306401.900    87535027.293          50.000  
G13  23269874.600   122284030.152          50.000                                                  
G15  23818548.580   125167088.238          50.000                                                  
G17  21072323.040   110735750.004          50.000                                                  
G19  20065762.180   105446277.781          50.000                                                  
G24  22187859.580   116597911.672          50.000    22187863.260    87069860.445          50.000  
G28  22329265.800   117341198.180          50.000                                                  
G30  23970261.920   125964485.719          50.000    23970266.800    94064377.359          50.000  
E 5  27488171.000   144451235.730          50.000    27488178.920   107869402.977          50.000  
E 9  25862844.900   135910095.211          50.000    25862852.840   101491279.105          50.000  
E12  22831016.660   119977803.668          50.000    22831019.100    89593803.102          50.000  
E24  23195680.980   121893930.207          50.000    23195698.120    91024649.734          50.000  
E26  26475062.320   139127322.723          50.000    26475069.800   103893756.984          50.000  
E33  24262672.200   127501191.758          50.000    24262675.800    95211918.285          50.000  
> 2020  6  5 17 42 15.0000000  0 14       0.000000000000
G 6  22305842.620   117217915.258          50.000    22305847.220    87532850.629          50.000  
G13  23270462.500   122287119.625          50.000                                                  
G15  23818976.580   125169337.379          50.000                                                  
G17  21072655.520   110737497.258          50.000                                                  
G19  20065782.740   105446385.797          50.000                                                  
G24  22187387.940   116595433.215          50.000    22187391.620    87068009.652          50.000  
G28  22329559.080   117342739.375          50.000                                                  
G30  23970937.840   125968037.656          50.000    23970942.700    94067029.777          50.000  
E 5  27488418.840   144452538.188          50.000    27488426.760   107870375.590          50.000  
E 9  25863314.980   135912565.410          50.000    25863322.900   101493123.738          50.000  
E12  22830574.460   119975479.891          50.000    22830576.900    89592067.816          50.000  
E24  23195367.440   121892282.605          50.000    23195384.600    91023419.383          50.000  
E26  26475538.080   139129822.871          50.000    26475545.560   103895623.977          50.000  
E33  24262742.420   127501560.828          50.000    24262746.040    95212193.891          50.000  
> 2020  6  5 17 42 16.0000000  0 14       0.000000000000
G 6  22305288.020   117215000.770          50.000    22305292.620    87530674.227          50.000  
G13  23271050.440   122290209.258          50.000                                                  
G15  23819404.640   125171586.805          50.000                                                  
G17  21072988.080   110739244.844          50.000                                                  
G19  20065803.400   105446494.367          50.000                                                  
G24  22186916.380   116592955.152          50.000    22186920.060    87066159.152          50.000  
G28  22329852.380   117344280.668          50.000                                                  
G30  23971613.780   125971589.793          50.000    23971618.660    94069682.348          50.000  
E 5  27488666.760   144453840.973          50.000    27488674.680   107871348.449          50.000  
E 9  25863785.040   135915035.617          50.000    25863792.960   101494968.371          50.000  
E12  22830132.320   119973156.438          50.000    22830134.760    89590332.773          50.000  
E24  23195053.920   121890635.051          50.000    23195071.080    91022189.066          50.000  
E26  26476013.880   139132323.254          50.000    26476021.380   103897491.145          50.000  
E33  24262812.760   127501930.395          50.000    24262816.360    95212469.867          50.000  
> 2020  6  5 17 42 17.0000000  0 14       0.000000000000
G 6  22304733.460   117212086.637          50.000    22304738.080    87528498.090          50.000  
G13  23271638.420   122293299.082          50.000                                                  
G15  23819832.740   125173836.492          50.000                                                  
G17  21073320.700   110740992.746          50.000                                                  
G19  20065824.160   105446603.520          50.000                                                  
G24  22186444.900   116590477.500          50.000    22186448.580    87064308.957          50.000  
G28  22330145.700   117345822.074          50.000                                                  
G30  23972289.780   125975142.109          50.000    23972294.640    94072335.051          50.000  
E 5  27488914.740   144455144.090          50.000    27488922.660   107872321.555          50.000  
E 9  25864255.100   135917505.813          50.000    25864263.040   101496812.996          50.000  
E12  22829690.240   119970833.316          50.000    22829692.680    89588597.977          50.000  
E24  23194740.420   121888987.563          50.000    23194757.560    91020958.801          50.000  
E26  26476489.740   139134823.883          50.000    26476497.220   103899358.496          50.000  
E33  24262883.160   127502300.426          50.000    24262886.780    95212746.188          50.000  
> 2020  6  5 17 42 18.0000000  0 14       0.000000000000
G 6  22304179.000   117209172.863          50.000    22304183.600    87526322.223          50.000  
G13  23272226.420   122296389.078          50.000                                                  
G15  23820260.900   125176086.461          50.000                                                  
G17  21073653.380   110742740.988          50.000                                                  
G19  20065845.040   105446713.254          50.000                                                  
G24  22185973.480   116588000.246          50.000    22185977.180    87062459.063          50.000  
G28  22330439.040   117347363.590          50.000                                                  
G30  23972965.800   125978694.609          50.000    23972970.660    94074987.887          50.000  
E 5  27489162.780   144456447.535          50.000    27489170.700   107873294.906          50.000  
E 9  25864725.160   135919976.000          50.000    25864733.100   101498657.617          50.000  
E12  22829248.220   119968510.516          50.000    22829250.680    89586863.418          50.000  
E24  23194426.920   121887340.125          50.000    23194444.060    91019728.570          50.000  
E26  26476965.640   139137324.730          50.000    26476973.120   103901226.012          50.000  
E33  24262953.680   127502670.941          50.000    24262957.280    95213022.871          50.000  
> 2020  6  5 17 42 19.0000000  0 14       0.000000000000
G 6  22303624.580   117206259.434          50.000    22303629.180    87524146.613          50.000  
G13  23272814.460   122299479.262          50.000                                                  
G15  23820689.100   125178336.707          50.000                                                  
G17  21073986.120   110744489.547          50.000                                                  
G19  20065866.040   105446823.539          50.000                                                  
G24  22185502.160   116585523.391          50.000    22185505.840    87060609.465          50.000  
G28  22330732.400   117348905.207          50.000                                                  
G30  23973641.840   125982247.293          50.000    23973646.720    94077640.863          50.000  
E 5  27489410.880   144457751.316          50.000    27489418.800   107874268.508          50.000  
E 9  25865195.220   135922446.195          50.000    25865203.160   101500502.246          50.000  
E12  22828806.280   119966188.043          50.000    22828808.720    89585129.105          50.000  
E24  23194113.420   121885692.727          50.000    23194130.580    91018498.371          50.000  
E26  26477441.580   139139825.813          50.000    26477449.060   103903093.703          50.000  
E33  24263024.280   127503041.930          50.000    24263027.880    95213299.906          50.000  
> 2020  6  5 17 42 20.0000000  0 14       0.000000000000
G 6  22303070.240   117203346.363          50.000    22303074.840    87521971.270          50.000  
G13  23273402.540   122302569.629          50.000                                                  
G15  23821117.360   125180587.227          50.000                                                  
G17  21074318.920   110746238.434          50.000                                                  
G19  20065887.140   105446934.402          50.000                                                  
G24  22185030.900   116583046.949          50.000    22185034.600    87058760.176          50.000  
G28  22331025.780   117350446.941          50.000                                                  
G30  23974317.940   125985800.164          50.000    23974322.800    94080293.980          50.000  
E 5  27489659.040   144459055.418          50.000    27489666.960   107875242.352          50.000  
E 9  25865665.280   135924916.391          50.000    25865673.220   101502346.871          50.000  
E12  22828364.380   119963865.902          50.000    22828366.840    89583395.039          50.000  
E24  23193799.960   121884045.418          50.000    23193817.100    91017268.238          50.000  
E26  26477917.560   139142327.133          50.000    26477925.060   103904961.570          50.000  
E33  24263094.960   127503413.410          50.000    24263098.560    95213577.313          50.000  
> 2020  6  5 17 42 21.0000000  0 14       0.000000000000
G 6  22302515.980   117200433.660          50.000    22302520.580    87519796.199          50.000  
G13  23273990.660   122305660.176          50.000                                                  
G15  23821545.680   125182838.008          50.000                                                  
G17  21074651.780   110747987.648          50.000                                                  
G19  20065908.340   105447045.828          50.000                                                  
G24  22184559.720   116580570.918          50.000    22184563.420    87056911.191          50.000  
G28  22331319.180   117351988.785          50.000                                                  
G30  23974994.060   125989353.234          50.000    23974998.940    94082947.246          50.000  
E 5  27489907.260   144460359.855          50.000    27489915.180   107876216.441          50.000  
E 9  25866135.360   135927386.582          50.000    25866143.280   101504191.492          50.000  
E12  22827922.560   119961544.078          50.000    22827925.000    89581661.215          50.000  
E24  23193486.480   121882398.148          50.000    23193503.640    91016038.137          50.000  
E26  26478393.600   139144828.684          50.000    26478401.080   103906829.609          50.000  
E33  24263165.740   127503785.359          50.000    24263169.340    95213855.066          50.000  
> 2020  6  5 17 42 22.0000000  0 14       0.000000000000
G 6  22301961.760   117197521.301          50.000    22301966.380    87517621.387          50.000  
G13  23274578.800   122308750.895          50.000                                                  
G15  23821974.040   125185089.078          50.000                                                  
G17  21074984.700   110749737.195          50.000                                                  
G19  20065929.640   105447157.824          50.000                                                  
G24  22184088.620   116578095.270          50.000    22184092.320    87055062.496          50.000  
G28  22331612.600   117353530.715          50.000                                                  
G30  23975670.220   125992906.469          50.000    23975675.100    94085600.629          50.000  
E 5  27490155.560   144461664.633          50.000    27490163.480   107877190.789          50.000  
E 9  25866605.420   135929856.770          50.000    25866613.340   101506036.113          50.000  
E12  22827480.800   119959222.594          50.000    22827483.240    89579927.637          50.000  
E24  23193173.040   121880750.938          50.000    23193190.180    91014808.078          50.000  
E26  26478869.660   139147330.473          50.000    26478877.160   103908697.828          50.000  
E33  24263236.620   127504157.797          50.000    24263240.220    95214133.188          50.000  
> 2020  6  5 17 42 23.0000000  0 14       0.000000000000
G 6  22301407.640   117194609.301          50.000    22301412.240    87515446.848          50.000  
G13  23275166.980   122311841.789          50.000                                                  
G15  23822402.460   125187340.418          50.000                                                  
G17  21075317.700   110751487.059          50.000                                                  
G19  20065951.060   105447270.391          50.000                                                  
G24  22183617.600   116575620.023          50.000    22183621.300    87053214.098          50.000  
G28  22331906.060   117355072.773          50.000                                                  
G30  23976346.420   125996459.887          50.000    23976351.300    94088254.156          50.000  
E 5  27490403.900   144462969.734          50.000    27490411.820   107878165.379          50.000  
E 9  25867075.480   135932326.953          50.000    25867083.400   101507880.730          50.000  
E12  22827039.080   119956901.422          50.000    22827041.540    89578194.293          50.000  
E24  23192859.600   121879103.781          50.000    23192876.740    91013578.059          50.000  
E26  26479345.780   139149832.488          50.000    26479353.280   103910566.215          50.000  
E33  24263307.580   127504530.711          50.000    24263311.180    95214411.664          50.000  
> 2020  6  5 17 42 24.0000000  0 14       0.000000000000
G 6  22300853.560   117191697.645          50.000    22300858.160    87513272.559          50.000  
G13  23275755.200   122314932.875          50.000                                                  
G15  23822830.920   125189592.035          50.000                                                  
G17  21075650.740   110753237.254          50.000                                                  
G19  20065972.600   105447383.527          50.000                                                  
G24  22183146.660   116573145.160          50.000    22183150.340    87051365.988          50.000  
G28  22332199.520   117356614.922          50.000                                                  
G30  23977022.640   126000013.496          50.000    23977027.520    94090907.820          50.000  
E 5  27490652.320   144464275.164          50.000    27490660.240   107879140.211          50.000  
E 9  25867545.540   135934797.133          50.000    25867553.460   101509725.344          50.000  
E12  22826597.440   119954580.586          50.000    22826599.880    89576461.203          50.000  
E24  23192546.160   121877456.688          50.000    23192563.300    91012348.090          50.000  
E26  26479821.940   139152334.742          50.000    26479829.440   103912434.781          50.000  
E33  24263378.640   127504904.109          50.000    24263382.240    95214690.496          50.000  
> 2020  6  5 17 42 25.0000000  0 14       0.000000000000
G 6  22300299.560   117188786.352          50.000    22300304.160    87511098.543          50.000  
G13  23276343.440   122318024.141          50.000                                                  
G15  23823259.440   125191843.930          50.000                                                  
G17  21075983.860   110754987.770          50.000                                                  
G19  20065994.240   105447497.234          50.000                                                  
G24  22182675.780   116570670.703          50.000    22182679.460    87049518.180          50.000  
G28  22332493.000   117358157.184          50.000                                                  
G30  23977698.920   126003567.289          50.000    23977703.800    94093561.625          50.000  
E 5  27490900.800   144465580.922          50.000    27490908.720   107880115.289          50.000  
E 9  25868015.600   135937267.316          50.000    25868023.520   101511569.961          50.000  
E12  22826155.860   119952260.074          50.000    22826158.300    89574728.355          50.000  
E24  23192232.740   121875809.648          50.000    23192249.880    91011118.156          50.000  
E26  26480298.160   139154837.230          50.000    26480305.660   103914303.520          50.000  
E33  24263449.780   127505277.984          50.000    24263453.380    95214969.691          50.000  
> 2020  6  5 17 42 26.0000000  0 14       0.000000000000
G 6  22299745.620   117185875.422          50.000    22299750.220    87508924.801          50.000  
G13  23276931.720   122321115.582          50.000                                                  
G15  23823688.020   125194096.090          50.000                                                  
G17  21076317.040   110756738.613          50.000                                                  
G19  20066015.980   105447611.500          50.000                                                  
G24  22182204.980   116568196.637          50.000    22182208.660    87047670.664          50.000  
G28  22332786.500   117359699.551          50.000                                                  
G30  23978375.220   126007121.258          50.000    23978380.100    94096215.563          50.000  
E 5  27491149.340   144466887.016          50.000    27491157.260   107881090.621          50.000  
E 9  25868485.660   135939737.488          50.000    25868493.580   101513414.570          50.000  
E12  22825714.340   119949939.875          50.000    22825716.780    89572995.742          50.000  
E24  23191919.320   121874162.660          50.000    23191936.480    91009888.266          50.000  
E26  26480774.400   139157339.945          50.000    26480781.900   103916172.430          50.000  
E33  24263521.020   127505652.340          50.000    24263524.620    95215249.242          50.000  
> 2020  6  5 17 42 27.0000000  0 14       0.000000000000
G 6  22299191.760   117182964.836          50.000    22299196.360    87506751.313          50.000  
G13  23277520.040   122324207.191          50.000                                                  
G15  23824116.640   125196348.531          50.000                                                  
G17  21076650.260   110758489.781          50.000                                                  
G19  20066037.840   105447726.348          50.000                                                  
G24  22181734.260   116565722.953          50.000    22181737.940    87045823.434          50.000  
G28  22333080.020   117361242.023          50.000                                                  
G30  23979051.540   126010675.410          50.000    23979056.420    94098869.637          50.000  
E 5  27491397.940   144468193.434          50.000    27491405.860   107882066.191          50.000  
E 9  25868955.720   135942207.668          50.000    25868963.640   101515259.184          50.000  
E12  22825272.900   119947620.020          50.000    22825275.340    89571263.383          50.000  
E24  23191605.920   121872515.730          50.000    23191623.060    91008658.414          50.000  
E26  26481250.700   139159842.898          50.000    26481258.200   103918041.520          50.000  
E33  24263592.340   127506027.184          50.000    24263595.960    95215529.156          50.000  
> 2020  6  5 17 42 28.0000000  0 14       0.000000000000
G 6  22298637.960   117180054.613          50.000    22298642.560    87504578.094          50.000  
G13  23278108.380   122327298.980          50.000                                                  
G15  23824545.320   125198601.250          50.000                                                  
G17  21076983.560   110760241.270          50.000                                                  
G19  20066059.800   105447841.750          50.000                                                  
G24  22181263.600   116563249.691          50.000    22181267.280    87043976.520          50.000  
G28  22333373.560   117362784.598          50.000                                                  
G30  23979727.920   126014229.746          50.000    23979732.800    94101523.844          50.000  
E 5  27491646.620   144469500.195          50.000    27491654.540   107883042.016          50.000  
E 9  25869425.760   135944677.844          50.000    25869433.700   101517103.797          50.000  
E12  22824831.500   119945300.492          50.000    22824833.940    89569531.270          50.000  
E24  23191292.540   121870868.871          50.000    23191309.680    91007428.617          50.000  
E26  26481727.040   139162346.086          50.000    26481734.540   103919910.781          50.000  
E33  24263663.760   127506402.504          50.000    24263667.380    95215809.430          50.000  
> 2020  6  5 17 42 29.0000000  0 14       0.000000000000
G 6  22298084.240   117177144.750          50.000    22298088.840    87502405.145          50.000  
G13  23278696.780   122330390.953          50.000                                                  
G15  23824974.060   125200854.230          50.000                                                  
G17  21077316.920   110761993.090          50.000                                                  
G19  20066081.860   105447957.727          50.000                                                  
G24  22180793.020   116560776.816          50.000    22180796.720    87042129.895          50.000  
G28  22333667.120   117364327.281          50.000                                                  
G30  23980404.320   126017784.273          50.000    23980409.200    94104178.195          50.000  
E 5  27491895.340   144470807.281          50.000    27491903.260   107884018.086          50.000  
E 9  25869895.820   135947148.012          50.000    25869903.760   101518948.402          50.000  
E12  22824390.160   119942981.273          50.000    22824392.600    89567799.387          50.000  
E24  23190979.160   121869222.059          50.000    23190996.300    91006198.855          50.000  
E26  26482203.440   139164849.508          50.000    26482210.920   103921780.219          50.000  
E33  24263735.280   127506778.297          50.000    24263738.880    95216090.055          50.000  
> 2020  6  5 17 42 30.0000000  0 14       0.000000000000
G 6  22297530.560   117174235.234          50.000    22297535.160    87500232.457          50.000  
G13  23279285.200   122333483.105          50.000                                                  
G15  23825402.840   125203107.484          50.000                                                  
G17  21077650.340   110763745.234          50.000                                                  
G19  20066104.040   105448074.277          50.000                                                  
G24  22180322.540   116558304.355          50.000    22180326.220    87040283.578          50.000  
G28  22333960.720   117365870.078          50.000                                                  
G30  23981080.760   126021338.977          50.000    23981085.640    94106832.680          50.000  
E 5  27492144.140   144472114.688          50.000    27492152.060   107884994.398          50.000  
E 9  25870365.880   135949618.176          50.000    25870373.820   101520793.004          50.000  
E12  22823948.900   119940662.395          50.000    22823951.340    89566067.758          50.000  
E24  23190665.780   121867575.293          50.000    23190682.940    91004969.129          50.000  
E26  26482679.860   139167353.152          50.000    26482687.360   103923649.820          50.000  
E33  24263806.880   127507154.578          50.000    24263810.480    95216371.043          50.000  
> 2020  6  5 17 42 31.0000000  0 14       0.000000000000
G 6  22296976.980   117171326.078          50.000    22296981.580    87498060.039          50.000  
G13  23279873.640   122336575.445          50.000                                                  
G15  23825831.660   125205361.016          50.000                                                  
G17  21077983.840   110765497.703          50.000                                                  
G19  20066126.320   105448191.395          50.000                                                  
G24  22179852.120   116555832.305          50.000    22179855.800    87038437.566          50.000  
G28  22334254.320   117367412.980          50.000                                                  
G30  23981757.240   126024893.863          50.000    23981762.120    94109487.301          50.000  
E 5  27492393.000   144473422.434          50.000    27492400.920   107885970.961          50.000  
E 9  25870835.940   135952088.340          50.000    25870843.880   101522637.605          50.000  
E12  22823507.700   119938343.852          50.000    22823510.140    89564336.379          50.000  
E24  23190352.440   121865928.598          50.000    23190369.580    91003739.457          50.000  
E26  26483156.340   139169857.043          50.000    26483163.840   103925519.605          50.000  
E33  24263878.580   127507531.332          50.000    24263882.180    95216652.387          50.000  
> 2020  6  5 17 42 32.0000000  0 14       0.000000000000
G 6  22296423.460   117168417.246          50.000    22296428.060    87495887.844          50.000  
G13  23280462.140   122339667.965          50.000                                                  
G15  23826260.560   125207614.816          50.000                                                  
G17  21078317.380   110767250.473          50.000                                                  
G19  20066148.720   105448309.070          50.000                                                  
G24  22179381.780   116553360.652          50.000    22179385.460    87036591.848          50.000  
G28  22334547.940   117368955.969          50.000                                                  
G30  23982433.760   126028448.910          50.000    23982438.640    94112142.023          50.000  
E 5  27492641.900   144474730.547          50.000    27492649.820   107886947.820          50.000  
E 9  25871305.980   135954558.570          50.000    25871313.900   101524482.297          50.000  
E12  22823066.560   119936025.594          50.000    22823069.000    89562605.195          50.000  
E24  23190039.080   121864281.934          50.000    23190056.240    91002509.793          50.000  
E26  26483632.840   139172361.195          50.000    26483640.340   103927389.617          50.000  
E33  24263950.360   127507908.555          50.000    24263953.980    95216934.070          50.000  
> 2020  6  5 17 42 33.0000000  0 14       0.000000000000
G 6  22295869.980   117165508.797          50.000    22295874.600    87493715.949          50.000  
G13  23281050.640   122342760.641          50.000                                                  
G15  23826689.480   125209868.895          50.000                                                  
G17  21078650.980   110769003.586          50.000                                                  
G19  20066171.240   105448427.324          50.000                                                  
G24  22178911.520   116550889.426          50.000    22178915.200    87034746.453          50.000  
G28  22334841.580   117370499.086          50.000                                                  
G30  23983110.300   126032004.145          50.000    23983115.180    94114796.906          50.000  
E 5  27492890.880   144476038.945          50.000    27492898.800   107887924.871          50.000  
E 9  25871776.040   135957028.727          50.000    25871783.960   101526326.895          50.000  
E12  22822625.480   119933707.695          50.000    22822627.920    89560874.301          50.000  
E24  23189725.740   121862635.328          50.000    23189742.900    91001280.188          50.000  
E26  26484109.400   139174865.539          50.000    26484116.900   103929259.742          50.000  
E33  24264022.240   127508286.262          50.000    24264025.840    95217216.121          50.000  
> 2020  6  5 17 42 34.0000000  0 14       0.000000000000
G 6  22295316.600   117162600.699          50.000    22295321.200    87491544.324          50.000  
G13  23281639.200   122345853.492          50.000                                                  
G15  23827118.480   125212123.238          50.000                                                  
G17  21078984.660   110770757.031          50.000                                                  
G19  20066193.840   105448546.148          50.000                                                  
G24  22178441.340   116548418.586          50.000    22178445.020    87032901.344          50.000  
G28  22335135.260   117372042.293          50.000                                                  
G30  23983786.860   126035559.586          50.000    23983791.760    94117451.941          50.000  
E 5  27493139.920   144477347.688          50.000    27493147.840   107888902.176          50.000  
E 9  25872246.100   135959498.879          50.000    25872254.020   101528171.488          50.000  
E12  22822184.460   119931390.125          50.000    22822186.900    89559143.645          50.000  
E24  23189412.420   121860988.809          50.000    23189429.580    91000050.645          50.000  
E26  26484586.020   139177370.121          50.000    26484593.500   103931130.043          50.000  
E33  24264094.220   127508664.465          50.000    24264097.820    95217498.547          50.000  
> 2020  6  5 17 42 35.0000000  0 14       0.000000000000
G 6  22294763.280   117159692.984          50.000    22294767.880    87489372.977          50.000  
G13  23282227.780   122348946.527          50.000                                                  
G15  23827547.520   125214377.852          50.000                                                  
G17  21079318.400   110772510.805          50.000                                                  
G19  20066216.560   105448665.547          50.000                                                  
G24  22177971.220   116545948.156          50.000    22177974.920    87031056.547          50.000  
G28  22335428.940   117373585.629          50.000                                                  
G30  23984463.480   126039115.207          50.000    23984468.360    94120107.109          50.000  
E 5  27493389.040   144478656.746          50.000    27493396.960   107889879.723          50.000  
E 9  25872716.160   135961969.035          50.000    25872724.080   101530016.086          50.000  
E12  22821743.500   119929072.883          50.000    22821745.940    89557413.238          50.000  
E24  23189099.100   121859342.316          50.000    23189116.260    90998821.125          50.000  
E26  26485062.660   139179874.938          50.000    26485070.160   103933000.523          50.000  
E33  24264166.280   127509043.145          50.000    24264169.880    95217781.328          50.000  
> 2020  6  5 17 42 36.0000000  0 14       0.000000000000
G 6  22294210.020   117156785.602          50.000    22294214.620    87487201.883          50.000  
G13  23282816.400   122352039.738          50.000                                                  
G15  23827976.600   125216632.742          50.000                                                  
G17  21079652.180   110774264.898          50.000                                                  
G19  20066239.400   105448785.512          50.000                                                  
G24  22177501.200   116543478.137          50.000    22177504.880    87029212.051          50.000  
G28  22335722.640   117375129.059          50.000                                                  
G30  23985140.140   126042671.012          50.000    23985145.020    94122762.418          50.000  
E 5  27493638.200   144479966.145          50.000    27493646.120   107890857.520          50.000  
E 9  25873186.200   135964439.172          50.000    25873194.120   101531860.668          50.000  
E12  22821302.600   119926755.969          50.000    22821305.040    89555683.078          50.000  
E24  23188785.800   121857695.918          50.000    23188802.960    90997591.668          50.000  
E26  26485539.360   139182379.980          50.000    26485546.860   103934871.172          50.000  
E33  24264238.420   127509422.301          50.000    24264242.020    95218064.465          50.000  
> 2020  6  5 17 42 37.0000000  0 14       0.000000000000
G 6  22293656.820   117153878.590          50.000    22293661.420    87485031.063          50.000  
G13  23283405.060   122355133.137          50.000                                                  
G15  23828405.760   125218887.914          50.000                                                  
G17  21079986.040   110776019.313          50.000                                                  
G19  20066262.320   105448906.035          50.000                                                  
G24  22177031.240   116541008.508          50.000    22177034.920    87027367.852          50.000  
G28  22336016.380   117376672.605          50.000                                                  
G30  23985816.820   126046226.996          50.000    23985821.700    94125417.859          50.000  
E 5  27493887.440   144481275.859          50.000    27493895.360   107891835.555          50.000  
E 9  25873656.260   135966909.320          50.000    25873664.180   101533705.258          50.000  
E12  22820861.760   119924439.379          50.000    22820864.200    89553953.156          50.000  
E24  23188472.520   121856049.555          50.000    23188489.660    90996362.246          50.000  
E26  26486016.100   139184885.262          50.000    26486023.600   103936742.000          50.000  
E33  24264310.660   127509801.934          50.000    24264314.260    95218347.953          50.000  
> 2020  6  5 17 42 38.0000000  0 14       0.000000000000
G 6  22293103.700   117150971.922          50.000    22293108.300    87482860.504          50.000  
G13  23283993.740   122358226.699          50.000                                                  
G15  23828834.940   125221143.352          50.000                                                  
G17  21080319.960   110777774.063          50.000                                                  
G19  20066285.360   105449027.133          50.000                                                  
G24  22176561.360   116538539.281          50.000    22176565.040    87025523.949          50.000  
G28  22336310.120   117378216.258          50.000                                                  
G30  23986493.540   126049783.156          50.000    23986498.420    94128073.430          50.000  
E 5  27494136.740   144482585.906          50.000    27494144.640   107892813.836          50.000  
E 9  25874126.300   135969379.461          50.000    25874134.240   101535549.844          50.000  
E12  22820421.000   119922123.125          50.000    22820423.440    89552223.488          50.000  
E24  23188159.240   121854403.254          50.000    23188176.380    90995132.867          50.000  
E26  26486492.880   139187390.773          50.000    26486500.380   103938612.996          50.000  
E33  24264383.000   127510182.051          50.000    24264386.600    95218631.813          50.000  
> 2020  6  5 17 42 39.0000000  0 14       0.000000000000
G 6  22292550.660   117148065.617          50.000    22292555.260    87480690.211          50.000  
G13  23284582.480   122361320.457          50.000                                                  
G15  23829264.200   125223399.055          50.000                                                  
G17  21080653.940   110779529.125          50.000                                                  
G19  20066308.520   105449148.789          50.000                                                  
G24  22176091.560   116536070.457          50.000    22176095.240    87023680.348          50.000  
G28  22336603.880   117379760.020          50.000                                                  
G30  23987170.280   126053339.508          50.000    23987175.180    94130729.145          50.000  
E 5  27494386.080   144483896.297          50.000    27494394.000   107893792.371          50.000  
E 9  25874596.360   135971849.598          50.000    25874604.280   101537394.426          50.000  
E12  22819980.280   119919807.180          50.000    22819982.720    89550494.051          50.000  
E24  23187845.960   121852757.008          50.000    23187863.100    90993903.523          50.000  
E26  26486969.700   139189896.508          50.000    26486977.200   103940484.160          50.000  
E33  24264455.420   127510562.633          50.000    24264459.020    95218916.012          50.000  
> 2020  6  5 17 42 40.0000000  0 14       0.000000000000
G 6  22291997.680   117145159.668          50.000    22292002.260    87478520.188          50.000  
G13  23285171.220   122364414.363          50.000                                                  
G15  23829693.500   125225655.035          50.000                                                  
G17  21080987.980   110781284.516          50.000                                                  
G19  20066331.780   105449271.020          50.000                                                  
G24  22175621.840   116533602.047          50.000    22175625.520    87021837.055          50.000  
G28  22336897.680   117381303.883          50.000                                                  
G30  23987847.080   126056896.051          50.000    23987851.960    94133385.000          50.000  
E 5  27494635.500   144485207.000          50.000    27494643.420   107894771.145          50.000  
E 9  25875066.420   135974319.734          50.000    25875074.340   101539239.008          50.000  
E12  22819539.640   119917491.566          50.000    22819542.080    89548764.863          50.000  
E24  23187532.700   121851110.816          50.000    23187549.840    90992674.230          50.000  
E26  26487446.580   139192402.484          50.000    26487454.080   103942355.504          50.000  
E33  24264527.940   127510943.723          50.000    24264531.540    95219200.590          50.000  
> 2020  6  5 17 42 41.0000000  0 14       0.000000000000
G 6  22291444.760   117142254.070          50.000    22291449.360    87476350.426          50.000  
G13  23285760.020   122367508.469          50.000                                                  
G15  23830122.840   125227911.289          50.000                                                  
G17  21081322.080   110783040.230          50.000                                                  
G19  20066355.140   105449393.824          50.000                                                  
G24  22175152.200   116531134.043          50.000    22175155.880    87019994.066          50.000  
G28  22337191.480   117382847.852          50.000                                                  
G30  23988523.900   126060452.766          50.000    23988528.780    94136040.988          50.000  
E 5  27494885.000   144486518.043          50.000    27494892.900   107895750.168          50.000  
E 9  25875536.460   135976789.867          50.000    25875544.380   101541083.590          50.000  
E12  22819099.060   119915176.305          50.000    22819101.500    89547035.934          50.000  
E24  23187219.460   121849464.680          50.000    23187236.600    90991444.973          50.000  
E26  26487923.500   139194908.688          50.000    26487930.980   103944227.020          50.000  
E33  24264600.540   127511325.273          50.000    24264604.160    95219485.516          50.000  
> 2020  6  5 17 42 42.0000000  0 14       0.000000000000
G 6  22290891.900   117139348.844          50.000    22290896.500    87474180.938          50.000  
G13  23286348.840   122370602.746          50.000                                                  
G15  23830552.260   125230167.816          50.000                                                  
G17  21081656.240   110784796.262          50.000                                                  
G19  20066378.620   105449517.195          50.000                                                  
G24  22174682.620   116528666.430          50.000    22174686.300    87018151.367          50.000  
G28  22337485.320   117384391.930          50.000                                                  
G30  23989200.740   126064009.660          50.000    23989205.640    94138697.109          50.000  
E 5  27495134.540   144487829.406          50.000    27495142.460   107896729.434          50.000  
E 9  25876006.520   135979259.996          50.000    25876014.440   101542928.164          50.000  
E12  22818658.540   119912861.340          50.000    22818660.980    89545307.227          50.000  
E24  23186906.220   121847818.594          50.000    23186923.360    90990215.754          50.000  
E26  26488400.460   139197415.125          50.000    26488407.940   103946098.711          50.000  
E33  24264673.240   127511707.301          50.000    24264676.840    95219770.797          50.000  
> 2020  6  5 17 42 43.0000000  0 14       0.000000000000
G 6  22290339.120   117136443.961          50.000    22290343.720    87472011.711          50.000  
G13  23286937.700   122373697.199          50.000                                                  
G15  23830981.700   125232424.625          50.000                                                  
G17  21081990.460   110786552.621          50.000                                                  
G19  20066402.200   105449641.129          50.000                                                  
G24  22174213.120   116526199.223          50.000    22174216.800    87016308.977          50.000  
G28  22337779.160   117385936.125          50.000                                                  
G30  23989877.640   126067566.742          50.000    23989882.540    94141353.371          50.000  
E 5  27495384.140   144489141.109          50.000    27495392.060   107897708.949          50.000  
E 9  25876476.560   135981730.125          50.000    25876484.480   101544772.738          50.000  
E12  22818218.080   119910546.719          50.000    22818220.520    89543578.777          50.000  
E24  23186592.980   121846172.563          50.000    23186610.120    90988986.574          50.000  
E26  26488877.460   139199921.805          50.000    26488884.960   103947970.578          50.000  
E33  24264746.040   127512089.820          50.000    24264749.640    95220056.445          50.000  
> 2020  6  5 17 42 44.0000000  0 14       0.000000000000
G 6  22289786.400   117133539.441          50.000    22289791.000    87469842.754          50.000  
G13  23287526.580   122376791.828          50.000                                                  
G15  23831411.220   125234681.688          50.000                                                  
G17  21082324.740   110788309.301          50.000                                                  
G19  20066425.900   105449765.637          50.000                                                  
G24  22173743.700   116523732.426          50.000    22173747.380    87014466.891          50.000  
G28  22338073.040   117387480.426          50.000                                                  
G30  23990554.560   126071124.004          50.000    23990559.460    94144009.766          50.000  
E 5  27495633.820   144490453.137          50.000    27495641.740   107898688.711          50.000  
E 9  25876946.600   135984200.234          50.000    25876954.540   101546617.305          50.000  
E12  22817777.680   119908232.426          50.000    22817780.120    89541850.574          50.000  
E24  23186279.760   121844526.605          50.000    23186296.920    90987757.449          50.000  
E26  26489354.520   139202428.703          50.000    26489362.000   103949842.613          50.000  
E33  24264818.920   127512472.813          50.000    24264822.520    95220342.445          50.000  
> 2020  6  5 17 42 45.0000000  0 14       0.000000000000
G 6  22289233.760   117130635.277          50.000    22289238.360    87467674.063          50.000  
G13  23288115.500   122379886.637          50.000                                                  
G15  23831840.780   125236939.031          50.000                                                  
G17  21082659.100   110790066.305          50.000                                                  
G19  20066449.700   105449890.711          50.000                                                  
G24  22173274.360   116521266.031          50.000    22173278.040    87012625.102          50.000  
G28  22338366.920   117389024.836          50.000                                                  
G30  23991231.520   126074681.449          50.000    23991236.420    94146666.297          50.000  
E 5  27495883.540   144491765.492          50.000    27495891.460   107899668.715          50.000  
E 9  25877416.660   135986670.352          50.000    25877424.580   101548461.871          50.000  
E12  22817337.340   119905918.449          50.000    22817339.780    89540122.605          50.000  
E24  23185966.560   121842880.699          50.000    23185983.700    90986528.367          50.000  
E26  26489831.600   139204935.840          50.000    26489839.100   103951714.824          50.000  
E33  24264891.880   127512856.277          50.000    24264895.500    95220628.801          50.000  
> 2020  6  5 17 42 46.0000000  0 14       0.000000000000
G 6  22288681.180   117127731.469          50.000    22288685.780    87465505.637          50.000  
G13  23288704.460   122382981.609          50.000                                                  
G15  23832270.380   125239196.648          50.000                                                  
G17  21082993.500   110791823.629          50.000                                                  
G19  20066473.600   105450016.348          50.000                                                  
G24  22172805.100   116518800.016          50.000    22172808.780    87010783.598          50.000  
G28  22338660.840   117390569.344          50.000                                                  
G30  23991908.520   126078239.078          50.000    23991913.420    94149322.965          50.000  
E 5  27496133.340   144493078.184          50.000    27496141.260   107900648.973          50.000  
E 9  25877886.700   135989140.465          50.000    25877894.620   101550306.434          50.000  
E12  22816897.080   119903604.813          50.000    22816899.520    89538394.891          50.000  
E24  23185653.360   121841234.844          50.000    23185670.500    90985299.320          50.000  
E26  26490308.740   139207443.207          50.000    26490316.240   103953587.207          50.000  
E33  24264964.960   127513240.238          50.000    24264968.560    95220915.523          50.000  
> 2020  6  5 17 42 47.0000000  0 14       0.000000000000
G 6  22288128.680   117124828.035          50.000    22288133.280    87463337.488          50.000  
G13  23289293.440   122386076.773          50.000                                                  
G15  23832700.040   125241454.535          50.000                                                  
G17  21083327.980   110793581.281          50.000                                                  
G19  20066497.620   105450142.563          50.000                                                  
G24  22172335.900   116516334.410          50.000    22172339.580    87008942.402          50.000  
G28  22338954.760   117392113.965          50.000                                                  
G30  23992585.560   126081796.883          50.000    23992590.440    94151979.766          50.000  
E 5  27496383.200   144494391.203          50.000    27496391.120   107901629.473          50.000  
E 9  25878356.760   135991610.574          50.000    25878364.680   101552150.996          50.000  
E12  22816456.860   119901291.496          50.000    22816459.300    89536667.418          50.000  
E24  23185340.180   121839589.059          50.000    23185357.320    90984070.324          50.000  
E26  26490785.920   139209950.797          50.000    26490793.420   103955459.758          50.000  
E33  24265038.100   127513624.676          50.000    24265041.720    95221202.602          50.000  
> 2020  6  5 17 42 48.0000000  0 14       0.000000000000
G 6  22287576.240   117121924.949          50.000    22287580.840    87461169.602          50.000  
G13  23289882.480   122389172.117          50.000                                                  
G15  23833129.760   125243712.691          50.000                                                  
G17  21083662.500   110795339.258          50.000                                                  
G19  20066521.760   105450269.352          50.000                                                  
G24  22171866.800   116513869.223          50.000    22171870.480    87007101.516          50.000  
G28  22339248.720   117393658.691          50.000                                                  
G30  23993262.620   126085354.895          50.000    23993267.520    94154636.719          50.000  
E 5  27496633.120   144495704.551          50.000    27496641.040   107902610.219          50.000  
E 9  25878826.800   135994080.676          50.000    25878834.720   101553995.555          50.000  
E12  22816016.720   119898978.512          50.000    22816019.160    89534940.191          50.000  
E24  23185027.000   121837943.324          50.000    23185044.160    90982841.367          50.000  
E26  26491263.140   139212458.629          50.000    26491270.640   103957332.488          50.000  
E33  24265111.360   127514009.586          50.000    24265114.960    95221490.035          50.000  
> 2020  6  5 17 42 49.0000000  0 14       0.000000000000
G 6  22287023.860   117119022.215          50.000    22287028.460    87459001.980          50.000  
G13  23290471.540   122392267.637          50.000                                                  
G15  23833559.520   125245971.133          50.000                                                  
G17  21083997.100   110797097.547          50.000                                                  
G19  20066545.980   105450396.699          50.000                                                  
G24  22171397.760   116511404.434          50.000    22171401.440    87005260.930          50.000  
G28  22339542.700   117395203.523          50.000                                                  
G30  23993939.720   126088913.059          50.000    23993944.620    94157293.789          50.000  
E 5  27496883.120   144497018.223          50.000    27496891.020   107903591.207          50.000  
E 9  25879296.840   135996550.773          50.000    25879304.760   101555840.105          50.000  
E12  22815576.640   119896665.852          50.000    22815579.060    89533213.203          50.000  
E24  23184713.840   121836297.645          50.000    23184730.980    90981612.453          50.000  
E26  26491740.420   139214966.691          50.000    26491747.900   103959205.391          50.000  
E33  24265184.700   127514394.984          50.000    24265188.300    95221777.832          50.000  
> 2020  6  5 17 42 50.0000000  0 14       0.000000000000
G 6  22286471.560   117116119.855          50.000    22286476.160    87456834.633          50.000  
G13  23291060.620   122395363.328          50.000                                                  
G15  23833989.340   125248229.816          50.000                                                  
G17  21084331.740   110798856.164          50.000                                                  
G19  20066570.340   105450524.617          50.000                                                  
G24  22170928.800   116508940.043          50.000    22170932.480    87003420.637          50.000  
G28  22339836.680   117396748.473          50.000                                                  
G30  23994616.860   126092471.422          50.000    23994621.740    94159951.008          50.000  
E 5  27497133.160   144498332.219          50.000    27497141.080   107904572.438          50.000  
E 9  25879766.880   135999020.867          50.000    25879774.800   101557684.656          50.000  
E12  22815136.600   119894353.527          50.000    22815139.040    89531486.469          50.000  
E24  23184400.700   121834652.020          50.000    23184417.840    90980383.578          50.000  
E26  26492217.720   139217474.977          50.000    26492225.220   103961078.461          50.000  
E33  24265258.120   127514780.848          50.000    24265261.720    95222065.980          50.000  
> 2020  6  5 17 42 51.0000000  0 14       0.000000000000
G 6  22285919.320   117113217.840          50.000    22285923.920    87454667.543          50.000  
G13  23291649.760   122398459.207          50.000                                                  
G15  23834419.200   125250488.762          50.000                                                  
G17  21084666.460   110800615.113          50.000                                                  
G19  20066594.780   105450653.113          50.000                                                  
G24  22170459.920   116506476.066          50.000    22170463.600    87001580.656          50.000  
G28  22340130.700   117398293.523          50.000                                                  
G30  23995294.020   126096029.961          50.000    23995298.920    94162608.352          50.000  
E 5  27497383.260   144499646.563          50.000    27497391.180   107905553.930          50.000  
E 9  25880236.920   136001490.957          50.000    25880244.860   101559529.203          50.000  
E12  22814696.640   119892041.520          50.000    22814699.080    89529759.973          50.000  
E24  23184087.560   121833006.461          50.000    23184104.700    90979154.754          50.000  
E26  26492695.080   139219983.508          50.000    26492702.580   103962951.711          50.000  
E33  24265331.640   127515167.203          50.000    24265335.240    95222354.488          50.000  
> 2020  6  5 17 42 52.0000000  0 14       0.000000000000
G 6  22285367.160   117110316.184          50.000    22285371.760    87452500.727          50.000  
G13  23292238.920   122401555.250          50.000                                                  
G15  23834849.120   125252747.984          50.000                                                  
G17  21085001.240   110802374.375          50.000                                                  
G19  20066619.340   105450782.164          50.000                                                  
G24  22169991.120   116504012.508          50.000    22169994.800    86999740.988          50.000  
G28  22340424.740   117399838.676          50.000                                                  
G30  23995971.220   126099588.691          50.000    23995976.120    94165265.848          50.000  
E 5  27497633.440   144500961.227          50.000    27497641.360   107906535.660          50.000  
E 9  25880706.960   136003961.055          50.000    25880714.900   101561373.758          50.000  
E12  22814256.760   119889729.848          50.000    22814259.180    89528033.723          50.000  
E24  23183774.420   121831360.957          50.000    23183791.560    90977925.969          50.000  
E26  26493172.480   139222492.258          50.000    26493179.980   103964825.129          50.000  
E33  24265405.260   127515554.035          50.000    24265408.860    95222643.359          50.000  
> 2020  6  5 17 42 53.0000000  0 14       0.000000000000
G 6  22284815.060   117107414.891          50.000    22284819.660    87450334.176          50.000  
G13  23292828.100   122404651.473          50.000                                                  
G15  23835279.080   125255007.473          50.000                                                  
G17  21085336.080   110804133.969          50.000                                                  
G19  20066644.000   105450911.789          50.000                                                  
G24  22169522.400   116501549.371          50.000    22169526.080    86997901.633          50.000  
G28  22340718.800   117401383.953          50.000                                                  
G30  23996648.460   126103147.586          50.000    23996653.360    94167923.461          50.000  
E 5  27497883.680   144502276.223          50.000    27497891.600   107907517.633          50.000  
E 9  25881177.000   136006431.129          50.000    25881184.940   101563218.289          50.000  
E12  22813816.920   119887418.504          50.000    22813819.360    89526307.723          50.000  
E24  23183461.300   121829715.504          50.000    23183478.440    90976697.223          50.000  
E26  26493649.920   139225001.242          50.000    26493657.420   103966698.719          50.000  
E33  24265478.960   127515941.348          50.000    24265482.560    95222932.586          50.000  
> 2020  6  5 17 42 54.0000000  0 14       0.000000000000
G 6  22284263.040   117104513.957          50.000    22284267.620    87448167.898          50.000  
G13  23293417.320   122407747.871          50.000                                                  
G15  23835709.100   125257267.238          50.000                                                  
G17  21085670.980   110805893.883          50.000                                                  
G19  20066668.780   105451041.980          50.000                                                  
G24  22169053.760   116499086.617          50.000    22169057.440    86996062.566          50.000  
G28  22341012.860   117402929.332          50.000                                                  
G30  23997325.740   126106706.664          50.000    23997330.640    94170581.207          50.000  
E 5  27498133.980   144503591.539          50.000    27498141.900   107908499.852          50.000  
E 9  25881647.060   136008901.211          50.000    25881654.980   101565062.832          50.000  
E12  22813377.140   119885107.500          50.000    22813379.580    89524581.973          50.000  
E24  23183148.200   121828070.117          50.000    23183165.340    90975468.523          50.000  
E26  26494127.420   139227510.457          50.000    26494134.920   103968572.484          50.000  
E33  24265552.740   127516329.137          50.000    24265556.360    95223222.168          50.000  
> 2020  6  5 17 42 55.0000000  0 14       0.000000000000
G 6  22283711.060   117101613.383          50.000    22283715.660    87446001.887          50.000  
G13  23294006.580   122410844.445          50.000                                                  
G15  23836139.180   125259527.281          50.000                                                  
G17  21086005.940   110807654.121          50.000                                                  
G19  20066693.660   105451172.742          50.000                                                  
G24  22168585.180   116496624.277          50.000    22168588.860    86994223.809          50.000  
G28  22341306.960   117404474.813          50.000                                                  
G30  23998003.040   126110265.945          50.000    23998007.940    94173239.113          50.000  
E 5  27498384.340   144504907.191          50.000    27498392.260   107909482.316          50.000  
E 9  25882117.080   136011371.281          50.000    25882125.020   101566907.367          50.000  
E12  22812937.440   119882796.816          50.000    22812939.880    89522856.465          50.000  
E24  23182835.100   121826424.773          50.000    23182852.240    90974239.859          50.000  
E26  26494604.940   139230019.906          50.000    26494612.440   103970446.422          50.000  
E33  24265626.640   127516717.406          50.000    24265630.240    95223512.109          50.000  
> 2020  6  5 17 42 56.0000000  0 14       0.000000000000
G 6  22283159.180   117098713.168          50.000    22283163.760    87443836.145          50.000  
G13  23294595.880   122413941.195          50.000                                                  
G15  23836569.300   125261787.594          50.000                                                  
G17  21086340.960   110809414.684          50.000                                                  
G19  20066718.660   105451304.066          50.000                                                  
G24  22168116.700   116494162.355          50.000    22168120.380    86992385.363          50.000  
G28  22341601.080   117406020.414          50.000                                                  
G30  23998680.380   126113825.379          50.000    23998685.280    94175897.129          50.000  
E 5  27498634.760   144506223.164          50.000    27498642.680   107910465.023          50.000  
E 9  25882587.120   136013841.355          50.000    25882595.060   101568751.902          50.000  
E12  22812497.780   119880486.449          50.000    22812500.220    89521131.191          50.000  
E24  23182522.020   121824779.500          50.000    23182539.160    90973011.250          50.000  
E26  26495082.520   139232529.594          50.000    26495090.020   103972320.535          50.000  
E33  24265700.600   127517106.152          50.000    24265704.220    95223802.406          50.000  
> 2020  6  5 17 42 57.0000000  0 14       0.000000000000
G 6  22282607.340   117095813.309          50.000    22282611.940    87441670.668          50.000  
G13  23295185.200   122417038.121          50.000                                                  
G15  23836999.480   125264048.172          50.000                                                  
G17  21086676.060   110811175.559          50.000                                                  
G19  20066743.760   105451435.957          50.000                                                  
G24  22167648.280   116491700.820          50.000    22167651.960    86990547.203          50.000  
G28  22341895.220   117407566.117          50.000                                                  
G30  23999357.760   126117385.004          50.000    23999362.660    94178555.289          50.000  
E 5  27498885.240   144507539.473          50.000    27498893.160   107911447.980          50.000  
E 9  25883057.160   136016311.418          50.000    25883065.100   101570596.430          50.000  
E12  22812058.200   119878176.426          50.000    22812060.640    89519406.176          50.000  
E24  23182208.940   121823134.281          50.000    23182226.080    90971782.676          50.000  
E26  26495560.140   139235039.492          50.000    26495567.640   103974194.809          50.000  
E33  24265774.680   127517495.383          50.000    24265778.280    95224093.066          50.000  
> 2020  6  5 17 42 58.0000000  0 14       0.000000000000
G 6  22282055.600   117092913.809          50.000    22282060.180    87439505.461          50.000  
G13  23295774.560   122420135.215          50.000                                                  
G15  23837429.700   125266309.016          50.000                                                  
G17  21087011.200   110812936.758          50.000                                                  
G19  20066768.960   105451568.406          50.000                                                  
G24  22167179.940   116489239.680          50.000    22167183.620    86988709.340          50.000  
G28  22342189.380   117409111.930          50.000                                                  
G30  24000035.180   126120944.813          50.000    24000040.060    94181213.582          50.000  
E 5  27499135.800   144508856.113          50.000    27499143.700   107912431.188          50.000  
E 9  25883527.200   136018781.484          50.000    25883535.140   101572440.957          50.000  
E12  22811618.680   119875866.719          50.000    22811621.120    89517681.398          50.000  
E24  23181895.860   121821489.117          50.000    23181913.000    90970554.145          50.000  
E26  26496037.820   139237549.641          50.000    26496045.300   103976069.270          50.000  
E33  24265848.840   127517885.090          50.000    24265852.440    95224384.082          50.000  
> 2020  6  5 17 42 59.0000000  0 14       0.000000000000
G 6  22281503.900   117090014.668          50.000    22281508.500    87437340.516          50.000  
G13  23296363.960   122423232.488          50.000                                                  
G15  23837859.980   125268570.141          50.000                                                  
G17  21087346.400   110814698.281          50.000                                                  
G19  20066794.280   105451701.438          50.000                                                  
G24  22166711.680   116486778.914          50.000    22166715.340    86986871.758          50.000  
G28  22342483.560   117410657.859          50.000                                                  
G30  24000712.620   126124504.805          50.000    24000717.520    94183872.020          50.000  
E 5  27499386.400   144510173.074          50.000    27499394.320   107913414.633          50.000  
E 9  25883997.240   136021251.535          50.000    25884005.160   101574285.477          50.000  
E12  22811179.220   119873557.348          50.000    22811181.660    89515956.867          50.000  
E24  23181582.820   121819844.016          50.000    23181599.960    90969325.660          50.000  
E26  26496515.520   139240060.008          50.000    26496523.020   103977943.895          50.000  
E33  24265923.080   127518275.281          50.000    24265926.700    95224675.457          50.000  
> 2020  6  5 17 43  0.0000000  0 14       0.000000000000
G 6  22280952.280   117087115.887          50.000    22280956.860    87435175.848          50.000  
G13  23296953.380   122426329.938          50.000                                                  
G15  23838290.320   125270831.531          50.000                                                  
G17  21087681.680   110816460.137          50.000                                                  
G19  20066819.700   105451835.031          50.000                                                  
G24  22166243.480   116484318.566          50.000    22166247.160    86985034.488          50.000  
G28  22342777.760   117412203.887          50.000                                                  
G30  24001390.100   126128064.973          50.000    24001395.000    94186530.582          50.000  
E 5  27499637.080   144511490.363          50.000    27499645.000   107914398.320          50.000  
E 9  25884467.280   136023721.586          50.000    25884475.200   101576129.996          50.000  
E12  22810739.820   119871248.305          50.000    22810742.260    89514232.582          50.000  
E24  23181269.780   121818198.973          50.000    23181286.920    90968097.223          50.000  
E26  26496993.280   139242570.609          50.000    26497000.760   103979818.695          50.000  
E33  24265997.420   127518665.945          50.000    24266001.040    95224967.191          50.000  
> 2020  6  5 17 43  1.0000000  0 14       0.000000000000
G 6  22280400.720   117084217.465          50.000    22280405.320    87433011.441          50.000  
G13  23297542.840   122429427.559          50.000                                                  
G15  23838720.700   125273093.199          50.000                                                  
G17  21088017.000   110818222.309          50.000                                                  
G19  20066845.220   105451969.195          50.000                                                  
G24  22165775.360   116481858.613          50.000    22165779.040    86983197.508          50.000  
G28  22343071.980   117413750.020          50.000                                                  
G30  24002067.600   126131625.328          50.000    24002072.520    94189189.285          50.000  
E 5  27499887.800   144512807.988          50.000    27499895.720   107915382.262          50.000  
E 9  25884937.320   136026191.633          50.000    25884945.240   101577974.512          50.000  
E12  22810300.480   119868939.594          50.000    22810302.920    89512508.547          50.000  
E24  23180956.740   121816553.980          50.000    23180973.880    90966868.820          50.000  
E26  26497471.060   139245081.445          50.000    26497478.560   103981693.668          50.000  
E33  24266071.860   127519057.094          50.000    24266075.460    95225259.277          50.000  
> 2020  6  5 17 43  2.0000000  0 14       0.000000000000
G 6  22279849.240   117081319.402          50.000    22279853.840    87430847.309          50.000  
G13  23298132.340   122432525.363          50.000                                                  
G15  23839151.120   125275355.133          50.000                                                  
G17  21088352.400   110819984.801          50.000                                                  
G19  20066870.860   105452103.922          50.000                                                  
G24  22165307.340   116479399.070          50.000    22165311.000    86981360.840          50.000  
G28  22343366.220   117415296.258          50.000                                                  
G30  24002745.160   126135185.859          50.000    24002750.060    94191848.125          50.000  
E 5  27500138.600   144514125.938          50.000    27500146.520   107916366.445          50.000  
E 9  25885407.340   136028661.672          50.000    25885415.260   101579819.016          50.000  
E12  22809861.220   119866631.191          50.000    22809863.640    89510784.742          50.000  
E24  23180643.720   121814909.035          50.000    23180660.860    90965640.453          50.000  
E26  26497948.900   139247592.516          50.000    26497956.400   103983568.816          50.000  
E33  24266146.380   127519448.715          50.000    24266149.980    95225551.723          50.000  
> 2020  6  5 17 43  3.0000000  0 14       0.000000000000
G 6  22279297.820   117078421.695          50.000    22279302.420    87428683.434          50.000  
G13  23298721.860   122435623.332          50.000                                                  
G15  23839581.600   125277617.344          50.000                                                  
G17  21088687.860   110821747.629          50.000                                                  
G19  20066896.600   105452239.219          50.000                                                  
G24  22164839.380   116476939.930          50.000    22164843.040    86979524.473          50.000  
G28  22343660.480   117416842.613          50.000                                                  
G30  24003422.740   126138746.570          50.000    24003427.640    94194507.094          50.000  
E 5  27500389.460   144515444.215          50.000    27500397.380   107917350.871          50.000  
E 9  25885877.380   136031131.703          50.000    25885885.300   101581663.523          50.000  
E12  22809422.000   119864323.129          50.000    22809424.440    89509061.191          50.000  
E24  23180330.700   121813264.164          50.000    23180347.840    90964412.141          50.000  
E26  26498426.800   139250103.813          50.000    26498434.300   103985444.133          50.000  
E33  24266221.000   127519840.820          50.000    24266224.600    95225844.531          50.000  
> 2020  6  5 17 43  4.0000000  0 14       0.000000000000
G 6  22278746.480   117075524.359          50.000    22278751.060    87426519.844          50.000  
G13  23299311.420   122438721.477          50.000                                                  
G15  23840012.140   125279879.824          50.000                                                  
G17  21089023.360   110823510.762          50.000                                                  
G19  20066922.460   105452375.066          50.000                                                  
G24  22164371.500   116474481.234          50.000    22164375.180    86977688.434          50.000  
G28  22343954.760   117418389.063          50.000                                                  
G30  24004100.360   126142307.461          50.000    24004105.260    94197166.199          50.000  
E 5  27500640.380   144516762.828          50.000    27500648.300   107918335.551          50.000  
E 9  25886347.400   136033601.730          50.000    25886355.340   101583508.023          50.000  
E12  22808982.860   119862015.402          50.000    22808985.280    89507337.891          50.000  
E24  23180017.700   121811619.340          50.000    23180034.840    90963183.863          50.000  
E26  26498904.720   139252615.328          50.000    26498912.220   103987319.613          50.000  
E33  24266295.700   127520233.402          50.000    24266299.300    95226137.691          50.000  
> 2020  6  5 17 43  5.0000000  0 14       0.000000000000
G 6  22278195.200   117072627.371          50.000    22278199.780    87424356.508          50.000  
G13  23299901.020   122441819.801          50.000                                                  
G15  23840442.740   125282142.570          50.000                                                  
G17  21089358.940   110825274.227          50.000                                                  
G19  20066948.420   105452511.500          50.000                                                  
G24  22163903.700   116472022.941          50.000    22163907.380    86975852.695          50.000  
G28  22344249.060   117419935.621          50.000                                                  
G30  24004778.000   126145868.539          50.000    24004782.920    94199825.441          50.000  
E 5  27500891.380   144518081.766          50.000    27500899.300   107919320.469          50.000  
E 9  25886817.440   136036071.754          50.000    25886825.360   101585352.520          50.000  
E12  22808543.780   119859708.008          50.000    22808546.200    89505614.836          50.000  
E24  23179704.720   121809974.570          50.000    23179721.860    90961955.629          50.000  
E26  26499382.700   139255127.090          50.000    26499390.200   103989195.281          50.000  
E33  24266370.500   127520626.469          50.000    24266374.100    95226431.215          50.000  
> 2020  6  5 17 43  6.0000000  0 14       0.000000000000
G 6  22277644.000   117069730.750          50.000    22277648.580    87422193.449          50.000  
G13  23300490.640   122444918.289          50.000                                                  
G15  23840873.380   125284405.582          50.000                                                  
G17  21089694.580   110827038.016          50.000                                                  
G19  20066974.480   105452648.496          50.000                                                  
G24  22163435.980   116469565.059          50.000    22163439.660    86974017.266          50.000  
G28  22344543.380   117421482.293          50.000                                                  
G30  24005455.700   126149429.785          50.000    24005460.600    94202484.813          50.000  
E 5  27501142.420   144519401.023          50.000    27501150.340   107920305.629          50.000  
E 9  25887287.460   136038541.773          50.000    25887295.400   101587197.016          50.000  
E12  22808104.740   119857400.918          50.000    22808107.180    89503892.012          50.000  
E24  23179391.740   121808329.852          50.000    23179408.880    90960727.430          50.000  
E26  26499860.700   139257639.078          50.000    26499868.200   103991071.117          50.000  
E33  24266445.400   127521020.012          50.000    24266449.000    95226725.094          50.000  
> 2020  6  5 17 43  7.0000000  0 14       0.000000000000
G 6  22277092.860   117066834.488          50.000    22277097.440    87420030.660          50.000  
G13  23301080.300   122448016.949          50.000                                                  
G15  23841304.060   125286668.871          50.000                                                  
G17  21090030.280   110828802.121          50.000                                                  
G19  20067000.660   105452786.059          50.000                                                  
G24  22162968.320   116467107.539          50.000    22162972.000    86972182.105          50.000  
G28  22344837.720   117423029.070          50.000                                                  
G30  24006133.420   126152991.227          50.000    24006138.320    94205144.328          50.000  
E 5  27501393.540   144520720.609          50.000    27501401.460   107921291.035          50.000  
E 9  25887757.500   136041011.785          50.000    25887765.420   101589041.504          50.000  
E12  22807665.780   119855094.176          50.000    22807668.220    89502169.445          50.000  
E24  23179078.780   121806685.223          50.000    23179095.920    90959499.301          50.000  
E26  26500338.760   139260151.297          50.000    26500346.260   103992947.121          50.000  
E33  24266520.360   127521414.031          50.000    24266523.980    95227019.332          50.000  
> 2020  6  5 17 43  8.0000000  0 14       0.000000000000
G 6  22276541.780   117063938.594          50.000    22276546.360    87417868.141          50.000  
G13  23301669.980   122451115.797          50.000                                                  
G15  23841734.800   125288932.430          50.000                                                  
G17  21090366.040   110830566.559          50.000                                                  
G19  20067026.940   105452924.184          50.000                                                  
G24  22162500.760   116464650.430          50.000    22162504.420    86970347.254          50.000  
G28  22345132.080   117424575.949          50.000                                                  
G30  24006811.160   126156552.852          50.000    24006816.080    94207803.984          50.000  
E 5  27501644.700   144522040.535          50.000    27501652.620   107922276.691          50.000  
E 9  25888227.520   136043481.793          50.000    25888235.440   101590885.992          50.000  
E12  22807226.900   119852787.773          50.000    22807229.320    89500447.133          50.000  
E24  23178765.820   121805040.625          50.000    23178782.960    90958271.191          50.000  
E26  26500816.880   139262663.742          50.000    26500824.380   103994823.297          50.000  
E33  24266595.440   127521808.527          50.000    24266599.040    95227313.926          50.000  
> 2020  6  5 17 43  9.0000000  0 14       0.000000000000
G 6  22275990.780   117061043.059          50.000    22275995.360    87415705.895          50.000  
G13  23302259.700   122454214.805          50.000                                                  
G15  23842165.600   125291196.254          50.000                                                  
G17  21090701.860   110832331.309          50.000                                                  
G19  20067053.340   105453062.883          50.000                                                  
G24  22162033.260   116462193.730          50.000    22162036.940    86968512.707          50.000  
G28  22345426.480   117426122.945          50.000                                                  
G30  24007488.960   126160114.652          50.000    24007493.860    94210463.766          50.000  
E 5  27501895.940   144523360.773          50.000    27501903.860   107923262.586          50.000  
E 9  25888697.540   136045951.789          50.000    25888705.480   101592730.469          50.000  
E12  22806788.060   119850481.684          50.000    22806790.480    89498725.055          50.000  
E24  23178452.880   121803396.086          50.000    23178470.020    90957043.129          50.000  
E26  26501295.020   139265176.418          50.000    26501302.520   103996699.645          50.000  
E33  24266670.600   127522203.508          50.000    24266674.200    95227608.875          50.000  
> 2020  6  5 17 43 10.0000000  0 14       0.000000000000
G 6  22275439.840   117058147.875          50.000    22275444.420    87413543.910          50.000  
G13  23302849.460   122457313.992          50.000                                                  
G15  23842596.440   125293460.352          50.000                                                  
G17  21091037.740   110834096.387          50.000                                                  
G19  20067079.840   105453202.145          50.000                                                  
G24  22161565.840   116459737.445          50.000    22161569.520    86966678.469          50.000  
G28  22345720.880   117427670.043          50.000                                                  
G30  24008166.780   126163676.621          50.000    24008171.680    94213123.676          50.000  
E 5  27502147.240   144524681.352          50.000    27502155.160   107924248.730          50.000  
E 9  25889167.580   136048421.797          50.000    25889175.500   101594574.953          50.000  
E12  22806349.280   119848175.922          50.000    22806351.720    89497003.219          50.000  
E24  23178139.940   121801751.613          50.000    23178157.080    90955815.113          50.000  
E26  26501773.220   139267689.332          50.000    26501780.720   103998576.172          50.000  
E33  24266745.860   127522598.969          50.000    24266749.460    95227904.188          50.000  
> 2020  6  5 17 43 11.0000000  0 14       0.000000000000
G 6  22274888.980   117055253.055          50.000    22274893.560    87411382.191          50.000  
G13  23303439.260   122460413.359          50.000                                                  
G15  23843027.340   125295724.707          50.000                                                  
G17  21091373.680   110835861.785          50.000                                                  
G19  20067106.460   105453341.973          50.000                                                  
G24  22161098.500   116457281.598          50.000    22161102.180    86964844.559          50.000  
G28  22346015.300   117429217.250          50.000                                                  
G30  24008844.640   126167238.777          50.000    24008849.540    94215783.723          50.000  
E 5  27502398.600   144526002.266          50.000    27502406.520   107925235.125          50.000  
E 9  25889637.600   136050891.785          50.000    25889645.520   101596419.426          50.000  
E12  22805910.580   119845870.500          50.000    22805913.000    89495281.641          50.000  
E24  23177827.020   121800107.203          50.000    23177844.160    90954587.145          50.000  
E26  26502251.440   139270202.465          50.000    26502258.940   104000452.859          50.000  
E33  24266821.200   127522994.910          50.000    24266824.800    95228199.859          50.000  
> 2020  6  5 17 43 12.0000000  0 14       0.000000000000
G 6  22274338.180   117052358.605          50.000    22274342.760    87409220.758          50.000  
G13  23304029.080   122463512.898          50.000                                                  
G15  23843458.280   125297989.348          50.000                                                  
G17  21091709.700   110837627.508          50.000                                                  
G19  20067133.160   105453482.375          50.000                                                  
G24  22160631.260   116454826.148          50.000    22160634.920    86963010.945          50.000  
G28  22346309.740   117430764.559          50.000                                                  
G30  24009522.540   126170801.125          50.000    24009527.440    94218443.918          50.000  
E 5  27502650.020   144527323.496          50.000    27502657.940   107926221.758          50.000  
E 9  25890107.620   136053361.773          50.000    25890115.540   101598263.895          50.000  
E12  22805471.920   119843565.398          50.000    22805474.360    89493560.297          50.000  
E24  23177514.100   121798462.848          50.000    23177531.240    90953359.219          50.000  
E26  26502729.720   139272715.832          50.000    26502737.220   104002329.723          50.000  
E33  24266896.640   127523391.328          50.000    24266900.240    95228495.887          50.000  
> 2020  6  5 17 43 13.0000000  0 14       0.000000000000
G 6  22273787.440   117049464.512          50.000    22273792.020    87407059.586          50.000  
G13  23304618.940   122466612.613          50.000                                                  
G15  23843889.280   125300254.246          50.000                                                  
G17  21092045.760   110839393.547          50.000                                                  
G19  20067160.000   105453623.340          50.000                                                  
G24  22160164.060   116452371.094          50.000    22160167.740    86961177.629          50.000  
G28  22346604.200   117432311.988          50.000                                                  
G30  24010200.460   126174363.648          50.000    24010205.360    94221104.242          50.000  
E 5  27502901.500   144528645.043          50.000    27502909.420   107927208.625          50.000  
E 9  25890577.640   136055831.730          50.000    25890585.560   101600108.344          50.000  
E12  22805033.340   119841260.664          50.000    22805035.780    89491839.238          50.000  
E24  23177201.200   121796818.543          50.000    23177218.340    90952131.328          50.000  
E26  26503208.040   139275229.430          50.000    26503215.540   104004206.762          50.000  
E33  24266972.160   127523788.234          50.000    24266975.760    95228792.277          50.000  
> 2020  6  5 17 43 14.0000000  0 14       0.000000000000
G 6  22273236.780   117046570.773          50.000    22273241.360    87404898.680          50.000  
G13  23305208.820   122469712.500          50.000                                                  
G15  23844320.320   125302519.418          50.000                                                  
G17  21092381.880   110841159.910          50.000                                                  
G19  20067186.920   105453764.879          50.000                                                  
G24  22159696.960   116449916.422          50.000    22159700.620    86959344.598          50.000  
G28  22346898.700   117433859.523          50.000                                                  
G30  24010878.420   126177926.340          50.000    24010883.320    94223764.691          50.000  
E 5  27503153.060   144529966.934          50.000    27503160.980   107928195.750          50.000  
E 9  25891047.660   136058301.707          50.000    25891055.580   101601952.805          50.000  
E12  22804594.820   119838956.230          50.000    22804597.260    89490118.398          50.000  
E24  23176888.320   121795174.301          50.000    23176905.460    90950903.484          50.000  
E26  26503686.420   139277743.246          50.000    26503693.920   104006083.961          50.000  
E33  24267047.780   127524185.613          50.000    24267051.380    95229089.023          50.000  
> 2020  6  5 17 43 15.0000000  0 14       0.000000000000
G 6  22272686.200   117043677.391          50.000    22272690.780    87402738.039          50.000  
G13  23305798.740   122472812.563          50.000                                                  
G15  23844751.420   125304784.852          50.000                                                  
G17  21092718.080   110842926.590          50.000                                                  
G19  20067213.960   105453906.977          50.000                                                  
G24  22159229.920   116447462.160          50.000    22159233.600    86957511.871          50.000  
G28  22347193.200   117435407.180          50.000                                                  
G30  24011556.420   126181489.234          50.000    24011561.320    94226425.293          50.000  
E 5  27503404.660   144531289.145          50.000    27503412.580   107929183.117          50.000  
E 9  25891517.680   136060771.676          50.000    25891525.600   101603797.262          50.000  
E12  22804156.360   119836652.113          50.000    22804158.800    89488397.793          50.000  
E24  23176575.440   121793530.113          50.000    23176592.580    90949675.688          50.000  
E26  26504164.820   139280257.313          50.000    26504172.320   104007961.344          50.000  
E33  24267123.500   127524583.465          50.000    24267127.100    95229386.117          50.000  
> 2020  6  5 17 43 16.0000000  0 14       0.000000000000
G 6  22272135.660   117040784.383          50.000    22272140.240    87400577.680          50.000  
G13  23306388.700   122475912.785          50.000                                                  
G15  23845182.580   125307050.566          50.000                                                  
G17  21093054.320   110844693.594          50.000                                                  
G19  20067241.120   105454049.633          50.000                                                  
G24  22158762.980   116445008.305          50.000    22158766.640    86955679.445          50.000  
G28  22347487.720   117436954.922          50.000                                                  
G30  24012234.440   126185052.293          50.000    24012239.360    94229086.016          50.000  
E 5  27503656.340   144532611.676          50.000    27503664.260   107930170.723          50.000  
E 9  25891987.700   136063241.641          50.000    25891995.620   101605641.715          50.000  
E12  22803717.980   119834348.340          50.000    22803720.400    89486677.445          50.000  
E24  23176262.580   121791885.996          50.000    23176279.700    90948447.938          50.000  
E26  26504643.280   139282771.598          50.000    26504650.780   104009838.895          50.000  
E33  24267199.300   127524981.805          50.000    24267202.900    95229683.582          50.000  
> 2020  6  5 17 43 17.0000000  0 14       0.000000000000
G 6  22271585.220   117037891.730          50.000    22271589.800    87398417.582          50.000  
G13  23306978.700   122479013.191          50.000                                                  
G15  23845613.780   125309316.535          50.000                                                  
G17  21093390.640   110846460.906          50.000                                                  
G19  20067268.380   105454192.867          50.000                                                  
G24  22158296.100   116442554.840          50.000    22158299.760    86953847.313          50.000  
G28  22347782.280   117438502.781          50.000                                                  
G30  24012912.500   126188615.531          50.000    24012917.420    94231746.871          50.000  
E 5  27503908.060   144533934.551          50.000    27503915.980   107931158.582          50.000  
E 9  25892457.720   136065711.586          50.000    25892465.640   101607486.152          50.000  
E12  22803279.640   119832044.879          50.000    22803282.060    89484957.328          50.000  
E24  23175949.720   121790241.922          50.000    23175966.860    90947220.219          50.000  
E26  26505121.780   139285286.113          50.000    26505129.280   104011716.617          50.000  
E33  24267275.180   127525380.617          50.000    24267278.780    95229981.395          50.000  
> 2020  6  5 17 43 18.0000000  0 14       0.000000000000
G 6  22271034.820   117034999.434          50.000    22271039.400    87396257.750          50.000  
G13  23307568.720   122482113.766          50.000                                                  
G15  23846045.020   125311582.781          50.000                                                  
G17  21093727.000   110848228.559          50.000                                                  
G19  20067295.740   105454336.664          50.000                                                  
G24  22157829.300   116440101.789          50.000    22157832.960    86952015.492          50.000  
G28  22348076.840   117440050.746          50.000                                                  
G30  24013590.600   126192178.941          50.000    24013595.520    94234407.859          50.000  
E 5  27504159.860   144535257.750          50.000    27504167.780   107932146.684          50.000  
E 9  25892927.720   136068181.539          50.000    25892935.660   101609330.598          50.000  
E12  22802841.360   119829741.754          50.000    22802843.800    89483237.461          50.000  
E24  23175636.860   121788597.902          50.000    23175654.000    90945992.543          50.000  
E26  26505600.320   139287800.855          50.000    26505607.820   104013594.508          50.000  
E33  24267351.160   127525779.910          50.000    24267354.780    95230279.570          50.000  
> 2020  6  5 17 43 19.0000000  0 14       0.000000000000
G 6  22270484.500   117032107.496          50.000    22270489.080    87394098.191          50.000  
G13  23308158.760   122485214.516          50.000                                                  
G15  23846476.340   125313849.297          50.000                                                  
G17  21094063.440   110849996.516          50.000                                                  
G19  20067323.200   105454481.031          50.000                                                  
G24  22157362.580   116437649.160          50.000    22157366.240    86950183.984          50.000  
G28  22348371.440   117441598.813          50.000                                                  
G30  24014268.740   126195742.539          50.000    24014273.640    94237068.984          50.000  
E 5  27504411.720   144536581.277          50.000    27504419.640   107933135.031          50.000  
E 9  25893397.740   136070651.484          50.000    25893405.680   101611175.039          50.000  
E12  22802403.160   119827438.973          50.000    22802405.600    89481517.855          50.000  
E24  23175324.040   121786953.957          50.000    23175341.160    90944764.922          50.000  
E26  26506078.900   139290315.828          50.000    26506086.400   104015472.570          50.000  
E33  24267427.240   127526179.684          50.000    24267430.840    95230578.102          50.000  
> 2020  6  5 17 43 20.0000000  0 14       0.000000000000
G 6  22269934.260   117029215.938          50.000    22269938.840    87391938.910          50.000  
G13  23308748.860   122488315.441          50.000                                                  
G15  23846907.680   125316116.074          50.000                                                  
G17  21094399.940   110851764.805          50.000                                                  
G19  20067350.780   105454625.961          50.000                                                  
G24  22156895.920   116435196.938          50.000    22156899.600    86948352.781          50.000  
G28  22348666.040   117443147.000          50.000                                                  
G30  24014946.900   126199306.313          50.000    24014951.820    94239730.242          50.000  
E 5  27504663.640   144537905.121          50.000    27504671.560   107934123.617          50.000  
E 9  25893867.760   136073121.418          50.000    25893875.680   101613019.469          50.000  
E12  22801965.020   119825136.500          50.000    22801967.440    89479798.477          50.000  
E24  23175011.220   121785310.070          50.000    23175028.340    90943537.344          50.000  
E26  26506557.520   139292831.035          50.000    26506565.020   104017350.809          50.000  
E33  24267503.400   127526579.926          50.000    24267507.000    95230876.984          50.000  
> 2020  6  5 17 43 21.0000000  0 14       0.000000000000
G 6  22269384.080   117026324.730          50.000    22269388.660    87389779.895          50.000  
G13  23309338.980   122491416.535          50.000                                                  
G15  23847339.100   125318383.125          50.000                                                  
G17  21094736.480   110853533.418          50.000                                                  
G19  20067378.480   105454771.465          50.000                                                  
G24  22156429.360   116432745.125          50.000    22156433.040    86946521.883          50.000  
G28  22348960.680   117444695.285          50.000                                                  
G30  24015625.100   126202870.262          50.000    24015630.000    94242391.633          50.000  
E 5  27504915.620   144539229.301          50.000    27504923.540   107935112.453          50.000  
E 9  25894337.780   136075591.348          50.000    25894345.700   101614863.895          50.000  
E12  22801526.940   119822834.371          50.000    22801529.360    89478079.355          50.000  
E24  23174698.400   121783666.219          50.000    23174715.540    90942309.797          50.000  
E26  26507036.200   139295346.473          50.000    26507043.700   104019229.219          50.000  
E33  24267579.660   127526980.664          50.000    24267583.260    95231176.234          50.000  
> 2020  6  5 17 43 22.0000000  0 14       0.000000000000
G 6  22268833.960   117023433.875          50.000    22268838.540    87387621.141          50.000  
G13  23309929.120   122494517.793          50.000                                                  
G15  23847770.540   125320650.441          50.000                                                  
G17  21095073.100   110855302.344          50.000                                                  
G19  20067406.260   105454917.527          50.000                                                  
G24  22155962.880   116430293.730          50.000    22155966.540    86944691.297          50.000  
G28  22349255.320   117446243.676          50.000                                                  
G30  24016303.340   126206434.398          50.000    24016308.240    94245053.160          50.000  
E 5  27505167.680   144540553.809          50.000    27505175.600   107936101.531          50.000  
E 9  25894807.780   136078061.266          50.000    25894815.700   101616708.316          50.000  
E12  22801088.920   119820532.566          50.000    22801091.340    89476360.477          50.000  
E24  23174385.600   121782022.449          50.000    23174402.740    90941082.305          50.000  
E26  26507514.920   139297862.145          50.000    26507522.420   104021107.801          50.000  
E33  24267656.000   127527381.867          50.000    24267659.620    95231475.836          50.000  
> 2020  6  5 17 43 23.0000000  0 14       0.000000000000
G 6  22268283.920   117020543.391          50.000    22268288.500    87385462.664          50.000  
G13  23310519.300   122497619.238          50.000                                                  
G15  23848202.060   125322918.016          50.000                                                  
G17  21095409.780   110857071.594          50.000                                                  
G19  20067434.180   105455064.168          50.000                                                  
G24  22155496.460   116427842.742          50.000    22155500.140    86942861.016          50.000  
G28  22349550.000   117447792.180          50.000                                                  
G30  24016981.600   126209998.711          50.000    24016986.520    94247714.820          50.000  
E 5  27505419.780   144541878.648          50.000    27505427.700   107937090.855          50.000  
E 9  25895277.800   136080531.188          50.000    25895285.720   101618552.738          50.000  
E12  22800650.960   119818231.094          50.000    22800653.380    89474641.848          50.000  
E24  23174072.800   121780378.723          50.000    23174089.940    90939854.852          50.000  
E26  26507993.680   139300378.035          50.000    26508001.180   104022986.551          50.000  
E33  24267732.440   127527783.555          50.000    24267736.060    95231775.797          50.000  
> 2020  6  5 17 43 24.0000000  0 14       0.000000000000
G 6  22267733.960   117017653.277          50.000    22267738.540    87383304.465          50.000  
G13  23311109.520   122500720.844          50.000                                                  
G15  23848633.620   125325185.871          50.000                                                  
G17  21095746.520   110858841.164          50.000                                                  
G19  20067462.180   105455211.375          50.000                                                  
G24  22155030.140   116425392.141          50.000    22155033.800    86941031.023          50.000  
G28  22349844.680   117449340.793          50.000                                                  
G30  24017659.900   126213563.203          50.000    24017664.820    94250376.613          50.000  
E 5  27505671.940   144543203.805          50.000    27505679.860   107938080.422          50.000  
E 9  25895747.800   136083001.094          50.000    25895755.720   101620397.148          50.000  
E12  22800213.060   119815929.949          50.000    22800215.480    89472923.461          50.000  
E24  23173760.020   121778735.051          50.000    23173777.160    90938627.434          50.000  
E26  26508472.480   139302894.156          50.000    26508479.980   104024865.473          50.000  
E33  24267808.980   127528185.723          50.000    24267812.580    95232076.117          50.000  
> 2020  6  5 17 43 25.0000000  0 14       0.000000000000
G 6  22267184.060   117014763.523          50.000    22267188.620    87381146.531          50.000  
G13  23311699.780   122503822.633          50.000                                                  
G15  23849065.220   125327453.996          50.000                                                  
G17  21096083.320   110860611.055          50.000                                                  
G19  20067490.300   105455359.145          50.000                                                  
G24  22154563.880   116422941.938          50.000    22154567.540    86939201.328          50.000  
G28  22350139.400   117450889.516          50.000                                                  
G30  24018338.240   126217127.871          50.000    24018343.160    94253038.539          50.000  
E 5  27505924.180   144544529.293          50.000    27505932.100   107939070.234          50.000  
E 9  25896217.800   136085470.996          50.000    25896225.740   101622241.555          50.000  
E12  22799775.240   119813629.137          50.000    22799777.660    89471205.320          50.000  
E24  23173447.260   121777091.449          50.000    23173464.400    90937400.070          50.000  
E26  26508951.320   139305410.516          50.000    26508958.820   104026744.570          50.000  
E33  24267885.600   127528588.363          50.000    24267889.200    95232376.789          50.000  
> 2020  6  5 17 43 26.0000000  0 14       0.000000000000
G 6  22266634.220   117011874.121          50.000    22266638.800    87378988.863          50.000  
G13  23312290.060   122506924.594          50.000                                                  
G15  23849496.880   125329722.387          50.000                                                  
G17  21096420.180   110862381.270          50.000                                                  
G19  20067518.540   105455507.488          50.000                                                  
G24  22154097.700   116420492.137          50.000    22154101.360    86937371.934          50.000  
G28  22350434.120   117452438.336          50.000                                                  
G30  24019016.600   126220692.730          50.000    24019021.520    94255700.605          50.000  
E 5  27506176.480   144545855.105          50.000    27506184.400   107940060.289          50.000  
E 9  25896687.820   136087940.898          50.000    25896695.740   101624085.961          50.000  
E12  22799337.460   119811328.660          50.000    22799339.900    89469487.438          50.000  
E24  23173134.500   121775447.902          50.000    23173151.640    90936172.746          50.000  
E26  26509430.220   139307927.094          50.000    26509437.720   104028623.832          50.000  
E33  24267962.300   127528991.484          50.000    24267965.920    95232677.824          50.000  
> 2020  6  5 17 43 27.0000000  0 14       0.000000000000
G 6  22266084.440   117008985.086          50.000    22266089.020    87376831.469          50.000  
G13  23312880.380   122510026.723          50.000                                                  
G15  23849928.600   125331991.035          50.000                                                  
G17  21096757.100   110864151.801          50.000                                                  
G19  20067546.860   105455656.395          50.000                                                  
G24  22153631.600   116418042.773          50.000    22153635.260    86935542.863          50.000  
G28  22350728.880   117453987.281          50.000                                                  
G30  24019695.020   126224257.762          50.000    24019699.920    94258362.801          50.000  
E 5  27506428.820   144547181.238          50.000    27506436.760   107941050.582          50.000  
E 9  25897157.820   136090410.785          50.000    25897165.740   101625930.359          50.000  
E12  22798899.760   119809028.504          50.000    22798902.180    89467769.789          50.000  
E24  23172821.760   121773804.406          50.000    23172838.880    90934945.461          50.000  
E26  26509909.140   139310443.910          50.000    26509916.660   104030503.270          50.000  
E33  24268039.120   127529395.090          50.000    24268042.720    95232979.219          50.000  
> 2020  6  5 17 43 28.0000000  0 14       0.000000000000
G 6  22265534.740   117006096.402          50.000    22265539.320    87374674.336          50.000  
G13  23313470.700   122513129.199          50.000                                                  
G15  23850360.340   125334259.984          50.000                                                  
G17  21097094.060   110865922.758          50.000                                                  
G19  20067575.320   105455805.840          50.000                                                  
G24  22153165.560   116415593.938          50.000    22153169.200    86933714.254          50.000  
G28  22351023.660   117455536.258          50.000                                                  
G30  24020373.460   126227822.895          50.000    24020378.380    94261025.031          50.000  
E 5  27506681.260   144548507.590          50.000    27506689.200   107942040.969          50.000  
E 9  25897627.840   136092880.551          50.000    25897635.780   101627774.605          50.000  
E12  22798462.100   119806728.734          50.000    22798464.520    89466052.457          50.000  
E24  23172509.020   121772160.973          50.000    23172526.140    90933718.223          50.000  
E26  26510388.100   139312961.016          50.000    26510395.600   104032382.977          50.000  
E33  24268116.000   127529799.207          50.000    24268119.600    95233281.016          50.000  
> 2020  6  5 17 43 29.0000000  0 14       0.000000000000
G 6  22264985.120   117003208.105          50.000    22264989.700    87372517.492          50.000  
G13  23314061.080   122516231.672          50.000                                                  
G15  23850792.160   125336529.180          50.000                                                  
G17  21097431.100   110867693.941          50.000                                                  
G19  20067603.860   105455955.883          50.000                                                  
G24  22152699.600   116413145.395          50.000    22152703.260    86931885.797          50.000  
G28  22351318.460   117457085.422          50.000                                                  
G30  24021051.940   126231388.289          50.000    24021056.860    94263687.500          50.000  
E 5  27506933.740   144549834.391          50.000    27506941.680   107943031.762          50.000  
E 9  25898097.840   136095350.438          50.000    25898105.780   101629619.000          50.000  
E12  22798024.520   119804429.246          50.000    22798026.940    89464335.309          50.000  
E24  23172196.300   121770517.605          50.000    23172213.420    90932491.031          50.000  
E26  26510867.120   139315478.297          50.000    26510874.620   104034262.762          50.000  
E33  24268192.980   127530203.770          50.000    24268196.580    95233583.125          50.000  
> 2020  6  5 17 43 30.0000000  0 14       0.000000000000
G 6  22264435.560   117000320.164          50.000    22264440.140    87370360.918          50.000  
G13  23314651.480   122519334.324          50.000                                                  
G15  23851224.020   125338798.641          50.000                                                  
G17  21097768.200   110869465.434          50.000                                                  
G19  20067632.520   105456106.488          50.000                                                  
G24  22152233.740   116410697.242          50.000    22152237.380    86930057.633          50.000  
G28  22351613.260   117458634.680          50.000                                                  
G30  24021730.440   126234953.867          50.000    24021735.360    94266350.105          50.000  
E 5  27507186.280   144551161.512          50.000    27507194.220   107944022.793          50.000  
E 9  25898567.840   136097820.305          50.000    25898575.780   101631463.379          50.000  
E12  22797587.000   119802130.082          50.000    22797589.420    89462618.398          50.000  
E24  23171883.580   121768874.309          50.000    23171900.720    90931263.895          50.000  
E26  26511346.200   139317995.793          50.000    26511353.680   104036142.711          50.000  
E33  24268270.060   127530608.816          50.000    24268273.660    95233885.594          50.000  
> 2020  6  5 17 43 31.0000000  0 14       0.000000000000
G 6  22263886.060   116997432.586          50.000    22263890.640    87368204.609          50.000  
G13  23315241.940   122522437.145          50.000                                                  
G15  23851655.940   125341068.367          50.000                                                  
G17  21098105.380   110871237.254          50.000                                                  
G19  20067661.280   105456257.660          50.000                                                  
G24  22151767.940   116408249.496          50.000    22151771.580    86928229.773          50.000  
G28  22351908.100   117460184.047          50.000                                                  
G30  24022408.980   126238519.625          50.000    24022413.900    94269012.844          50.000  
E 5  27507438.900   144552488.977          50.000    27507446.840   107945014.082          50.000  
E 9  25899037.840   136100290.164          50.000    25899045.780   101633307.754          50.000  
E12  22797149.560   119799831.254          50.000    22797151.960    89460901.746          50.000  
E24  23171570.880   121767231.039          50.000    23171588.000    90930036.781          50.000  
E26  26511825.300   139320513.527          50.000    26511832.800   104038022.836          50.000  
E33  24268347.220   127531014.332          50.000    24268350.820    95234188.414          50.000  
> 2020  6  5 17 43 32.0000000  0 14       0.000000000000
G 6  22263336.640   116994545.367          50.000    22263341.220    87366048.570          50.000  
G13  23315832.420   122525540.141          50.000                                                  
G15  23852087.900   125343338.359          50.000                                                  
G17  21098442.600   110873009.391          50.000                                                  
G19  20067690.160   105456409.398          50.000                                                  
G24  22151302.220   116405802.168          50.000    22151305.880    86926402.223          50.000  
G28  22352202.960   117461733.520          50.000                                                  
G30  24023087.560   126242085.551          50.000    24023092.480    94271675.707          50.000  
E 5  27507691.560   144553816.742          50.000    27507699.500   107946005.594          50.000  
E 9  25899507.820   136102760.016          50.000    25899515.780   101635152.125          50.000  
E12  22796712.160   119797532.758          50.000    22796714.580    89459185.336          50.000  
E24  23171258.180   121765587.855          50.000    23171275.320    90928809.730          50.000  
E26  26512304.440   139323031.480          50.000    26512311.940   104039903.125          50.000  
E33  24268424.480   127531420.332          50.000    24268428.080    95234491.598          50.000  
> 2020  6  5 17 43 33.0000000  0 14       0.000000000000
G 6  22262787.300   116991658.512          50.000    22262791.860    87363892.805          50.000  
G13  23316422.920   122528643.305          50.000                                                  
G15  23852519.920   125345608.621          50.000                                                  
G17  21098779.880   110874781.852          50.000                                                  
G19  20067719.140   105456561.695          50.000                                                  
G24  22150836.580   116403355.242          50.000    22150840.240    86924574.977          50.000  
G28  22352497.820   117463283.109          50.000                                                  
G30  24023766.160   126245651.664          50.000    24023771.080    94274338.715          50.000  
E 5  27507944.280   144555144.855          50.000    27507952.240   107946997.367          50.000  
E 9  25899977.820   136105229.871          50.000    25899985.760   101636996.496          50.000  
E12  22796274.840   119795234.598          50.000    22796277.240    89457469.180          50.000  
E24  23170945.500   121763944.707          50.000    23170962.640    90927582.703          50.000  
E26  26512783.640   139325549.672          50.000    26512791.140   104041783.590          50.000  
E33  24268501.820   127531826.820          50.000    24268505.420    95234795.145          50.000  
> 2020  6  5 17 43 34.0000000  0 14       0.000000000000
G 6  22262238.020   116988772.031          50.000    22262242.580    87361737.316          50.000  
G13  23317013.460   122531746.637          50.000                                                  
G15  23852951.980   125347879.160          50.000                                                  
G17  21099117.240   110876554.637          50.000                                                  
G19  20067748.220   105456714.559          50.000                                                  
G24  22150371.040   116400908.734          50.000    22150374.680    86922748.039          50.000  
G28  22352792.720   117464832.797          50.000                                                  
G30  24024444.800   126249217.961          50.000    24024449.740    94277001.855          50.000  
E 5  27508197.080   144556473.293          50.000    27508205.020   107947989.379          50.000  
E 9  25900447.820   136107699.719          50.000    25900455.760   101638840.863          50.000  
E12  22795837.560   119792936.762          50.000    22795839.980    89455753.262          50.000  
E24  23170632.840   121762301.637          50.000    23170649.960    90926355.734          50.000  
E26  26513262.880   139328068.094          50.000    26513270.380   104043664.230          50.000  
E33  24268579.260   127532233.777          50.000    24268582.860    95235099.039          50.000  
> 2020  6  5 17 43 35.0000000  0 14       0.000000000000
G 6  22261688.800   116985885.906          50.000    22261693.360    87359582.098          50.000  
G13  23317604.040   122534850.152          50.000                                                  
G15  23853384.100   125350149.957          50.000                                                  
G17  21099454.640   110878327.742          50.000                                                  
G19  20067777.420   105456867.996          50.000                                                  
G24  22149905.540   116398462.609          50.000    22149909.200    86920921.387          50.000  
G28  22353087.640   117466382.602          50.000                                                  
G30  24025123.480   126252784.438          50.000    24025128.420    94279665.129          50.000  
E 5  27508449.940   144557802.055          50.000    27508457.880   107948981.637          50.000  
E 9  25900917.800   136110169.547          50.000    25900925.760   101640685.215          50.000  
E12  22795400.360   119790639.266          50.000    22795402.780    89454037.602          50.000  
E24  23170320.180   121760658.625          50.000    23170337.300    90925128.813          50.000  
E26  26513742.160   139330586.742          50.000    26513749.660   104045545.035          50.000  
E33  24268656.800   127532641.219          50.000    24268660.400    95235403.297          50.000  
> 2020  6  5 17 43 36.0000000  0 14       0.000000000000
G 6  22261139.660   116983000.141          50.000    22261144.220    87357427.145          50.000  
G13  23318194.660   122537953.836          50.000                                                  
G15  23853816.260   125352421.020          50.000                                                  
G17  21099792.100   110880101.152          50.000                                                  
G19  20067806.720   105457021.992          50.000                                                  
G24  22149440.140   116396016.895          50.000    22149443.780    86919095.047          50.000  
G28  22353382.580   117467932.504          50.000                                                  
G30  24025802.200   126256351.090          50.000    24025807.120    94282328.539          50.000  
E 5  27508702.840   144559131.137          50.000    27508710.800   107949974.137          50.000  
E 9  25901387.800   136112639.375          50.000    25901395.740   101642529.570          50.000  
E12  22794963.220   119788342.078          50.000    22794965.640    89452322.172          50.000  
E24  23170007.520   121759015.652          50.000    23170024.660    90923901.918          50.000  
E26  26514221.480   139333105.617          50.000    26514228.980   104047426.012          50.000  
E33  24268734.420   127533049.125          50.000    24268738.020    95235707.902          50.000  
> 2020  6  5 17 43 37.0000000  0 14       0.000000000000
G 6  22260590.580   116980114.738          50.000    22260595.140    87355272.461          50.000  
G13  23318785.300   122541057.688          50.000                                                  
G15  23854248.480   125354692.352          50.000                                                  
G17  21100129.640   110881874.898          50.000                                                  
G19  20067836.140   105457176.566          50.000                                                  
G24  22148974.820   116393571.602          50.000    22148978.460    86917269.016          50.000  
G28  22353677.520   117469482.520          50.000                                                  
G30  24026480.940   126259917.910          50.000    24026485.860    94284992.070          50.000  
E 5  27508955.820   144560460.543          50.000    27508963.760   107950966.875          50.000  
E 9  25901857.780   136115109.195          50.000    25901865.740   101644373.914          50.000  
E12  22794526.140   119786045.242          50.000    22794528.560    89450607.004          50.000  
E24  23169694.880   121757372.754          50.000    23169712.020    90922675.078          50.000  
E26  26514700.860   139335624.727          50.000    26514708.360   104049307.168          50.000  
E33  24268812.140   127533457.520          50.000    24268815.740    95236012.875          50.000  
> 2020  6  5 17 43 38.0000000  0 16       0.000000000000
G 6  22260041.560   116977229.699          50.000    22260046.140    87353118.051          50.000  
G13  23319375.980   122544161.707          50.000                                                  
G15  23854680.760   125356963.949          50.000                                                  
G17  21100467.220   110883648.961          50.000                                                  
G19  20067865.660   105457331.691          50.000                                                  
G24  22148509.560   116391126.719          50.000    22148513.200    86915443.293          50.000  
G28  22353972.500   117471032.645          50.000                                                  
G30  24027159.720   126263484.922          50.000    24027164.640    94287655.746          50.000  
E 1  26962727.360   141690029.535          50.000    26962733.520   105807466.457          50.000  
E 5  27509208.860   144561790.289          50.000    27509216.800   107951959.863          50.000  
E 9  25902327.780   136117579.004          50.000    25902335.720   101646218.250          50.000  
E12  22794089.160   119783748.914          50.000    22794091.580    89448892.215          50.000  
E24  23169382.260   121755729.902          50.000    23169399.400    90921448.277          50.000  
E26  26515180.260   139338144.051          50.000    26515187.760   104051188.477          50.000  
E31  23801822.180   125079381.223          50.000    23801827.620    93403419.340          50.000  
E33  24268889.940   127533866.395          50.000    24268893.540    95236318.203          50.000  
> 2020  6  5 17 43 39.0000000  0 16       0.000000000000
G 6  22259492.620   116974345.031          50.000    22259497.200    87350963.918          50.000  
G13  23319966.680   122547265.891          50.000                                                  
G15  23855113.080   125359235.809          50.000                                                  
G17  21100804.880   110885423.352          50.000                                                  
G19  20067895.280   105457487.395          50.000                                                  
G24  22148044.400   116388682.250          50.000    22148048.040    86913617.883          50.000  
G28  22354267.500   117472582.875          50.000                                                  
G30  24027838.520   126267052.105          50.000    24027843.460    94290319.547          50.000  
E 1  26963082.680   141691896.719          50.000    26963088.820   105808860.777          50.000  
E 5  27509461.960   144563120.348          50.000    27509469.900   107952953.090          50.000  
E 9  25902797.760   136120048.805          50.000    25902805.700   101648062.582          50.000  
E12  22793652.220   119781452.727          50.000    22793654.620    89447177.531          50.000  
E24  23169069.640   121754087.117          50.000    23169086.780    90920221.523          50.000  
E26  26515659.720   139340663.609          50.000    26515667.220   104053069.965          50.000  
E31  23801866.120   125079612.172          50.000    23801871.580    93403591.805          50.000  
E33  24268967.840   127534275.746          50.000    24268971.420    95236623.887          50.000  
> 2020  6  5 17 43 40.0000000  0 16       0.000000000000
G 6  22258943.760   116971460.723          50.000    22258948.320    87348810.055          50.000  
G13  23320557.420   122550370.234          50.000                                                  
G15  23855545.440   125361507.938          50.000                                                  
G17  21101142.600   110887198.055          50.000                                                  
G19  20067925.020   105457643.660          50.000                                                  
G24  22147579.300   116386238.184          50.000    22147582.940    86911792.770          50.000  
G28  22354562.520   117474133.219          50.000                                                  
G30  24028517.380   126270619.477          50.000    24028522.300    94292983.492          50.000  
E 1  26963438.020   141693764.035          50.000    26963444.160   105810255.203          50.000  
E 5  27509715.120   144564450.734          50.000    27509723.060   107953946.559          50.000  
E 9  25903267.740   136122518.609          50.000    25903275.700   101649906.918          50.000  
E12  22793215.320   119779156.875          50.000    22793217.740    89445463.098          50.000  
E24  23168757.040   121752444.387          50.000    23168774.180    90918994.809          50.000  
E26  26516139.220   139343183.398          50.000    26516146.720   104054951.625          50.000  
E31  23801910.100   125079843.301          50.000    23801915.560    93403764.402          50.000  
E33  24269045.820   127534685.570          50.000    24269049.420    95236929.926          50.000  
> 2020  6  5 17 43 41.0000000  0 16       0.000000000000
G 6  22258394.960   116968576.777          50.000    22258399.520    87346656.457          50.000  
G13  23321148.180   122553474.762          50.000                                                  
G15  23855977.860   125363780.316          50.000                                                  
G17  21101480.360   110888973.074          50.000                                                  
G19  20067954.860   105457800.484          50.000                                                  
G24  22147114.280   116383794.527          50.000    22147117.920    86909967.961          50.000  
G28  22354857.560   117475683.672          50.000                                                  
G30  24029196.260   126274187.016          50.000    24029201.180    94295647.559          50.000  
E 1  26963793.380   141695631.477          50.000    26963799.520   105811649.719          50.000  
E 5  27509968.360   144565781.449          50.000    27509976.300   107954940.273          50.000  
E 9  25903737.740   136124988.398          50.000    25903745.680   101651751.238          50.000  
E12  22792778.500   119776861.359          50.000    22792780.920    89443748.914          50.000  
E24  23168444.460   121750801.719          50.000    23168461.580    90917768.141          50.000  
E26  26516618.760   139345703.410          50.000    26516626.260   104056833.453          50.000  
E31  23801954.120   125080074.621          50.000    23801959.580    93403937.141          50.000  
E33  24269123.900   127535095.887          50.000    24269127.500    95237236.328          50.000  
> 2020  6  5 17 43 42.0000000  0 16       0.000000000000
G 6  22257846.240   116965693.203          50.000    22257850.800    87344503.145          50.000  
G13  23321738.980   122556579.453          50.000                                                  
G15  23856410.340   125366052.969          50.000                                                  
G17  21101818.200   110890748.418          50.000                                                  
G19  20067984.800   105457957.883          50.000                                                  
G24  22146649.340   116381351.273          50.000    22146653.000    86908143.453          50.000  
G28  22355152.620   117477234.238          50.000                                                  
G30  24029875.160   126277754.734          50.000    24029880.100    94298311.766          50.000  
E 1  26964148.760   141697499.063          50.000    26964154.920   105813044.344          50.000  
E 5  27510221.640   144567112.504          50.000    27510229.580   107955934.242          50.000  
E 9  25904207.720   136127458.180          50.000    25904215.660   101653595.559          50.000  
E12  22792341.740   119774566.168          50.000    22792344.140    89442034.973          50.000  
E24  23168131.880   121749159.117          50.000    23168149.000    90916541.527          50.000  
E26  26517098.340   139348223.660          50.000    26517105.840   104058715.453          50.000  
E31  23801998.160   125080306.129          50.000    23802003.620    93404110.020          50.000  
E33  24269202.060   127535506.680          50.000    24269205.660    95237543.090          50.000  
> 2020  6  5 17 43 43.0000000  0 16       0.000000000000
G 6  22257297.560   116962809.980          50.000    22257302.140    87342350.090          50.000  
G13  23322329.820   122559684.320          50.000                                                  
G15  23856842.860   125368325.891          50.000                                                  
G17  21102156.100   110892524.082          50.000                                                  
G19  20068014.860   105458115.840          50.000                                                  
G24  22146184.480   116378908.430          50.000    22146188.120    86906319.254          50.000  
G28  22355447.700   117478784.914          50.000                                                  
G30  24030554.120   126281322.629          50.000    24030559.040    94300976.102          50.000  
E 1  26964504.180   141699366.785          50.000    26964510.320   105814439.074          50.000  
E 5  27510475.000   144568443.879          50.000    27510482.940   107956928.453          50.000  
E 9  25904677.700   136129927.949          50.000    25904685.640   101655439.863          50.000  
E12  22791905.040   119772271.309          50.000    22791907.440    89440321.281          50.000  
E24  23167819.300   121747516.559          50.000    23167836.420    90915314.941          50.000  
E26  26517577.980   139350744.129          50.000    26517585.480   104060597.621          50.000  
E31  23802042.260   125080537.805          50.000    23802047.700    93404283.027          50.000  
E33  24269280.320   127535917.938          50.000    24269283.920    95237850.199          50.000  
> 2020  6  5 17 43 44.0000000  0 16       0.000000000000
G 6  22256748.980   116959927.133          50.000    22256753.540    87340197.313          50.000  
G13  23322920.700   122562789.355          50.000                                                  
G15  23857275.420   125370599.074          50.000                                                  
G17  21102494.060   110894300.063          50.000                                                  
G19  20068045.020   105458274.363          50.000                                                  
G24  22145719.700   116376465.988          50.000    22145723.340    86904495.355          50.000  
G28  22355742.800   117480335.691          50.000                                                  
G30  24031233.100   126284890.695          50.000    24031238.020    94303640.563          50.000  
E 1  26964859.620   141701234.637          50.000    26964865.760   105815833.895          50.000  
E 5  27510728.400   144569775.578          50.000    27510736.340   107957922.902          50.000  
E 9  25905147.680   136132397.719          50.000    25905155.620   101657284.172          50.000  
E12  22791468.400   119769976.777          50.000    22791470.820    89438607.836          50.000  
E24  23167506.740   121745874.055          50.000    23167523.860    90914088.395          50.000  
E26  26518057.640   139353264.828          50.000    26518065.140   104062479.961          50.000  
E31  23802086.380   125080769.672          50.000    23802091.820    93404456.172          50.000  
E33  24269358.680   127536329.676          50.000    24269362.260    95238157.668          50.000  
> 2020  6  5 17 43 45.0000000  0 16       0.000000000000
G 6  22256200.460   116957044.645          50.000    22256205.020    87338044.809          50.000  
G13  23323511.600   122565894.563          50.000                                                  
G15  23857708.040   125372872.520          50.000                                                  
G17  21102832.080   110896076.367          50.000                                                  
G19  20068075.300   105458433.457          50.000                                                  
G24  22145255.000   116374023.961          50.000    22145258.640    86902671.766          50.000  
G28  22356037.940   117481886.582          50.000                                                  
G30  24031912.100   126288458.945          50.000    24031917.040    94306305.160          50.000  
E 1  26965215.080   141703102.629          50.000    26965221.240   105817228.824          50.000  
E 5  27510981.880   144571107.609          50.000    27510989.820   107958917.602          50.000  
E 9  25905617.640   136134867.473          50.000    25905625.600   101659128.469          50.000  
E12  22791031.820   119767682.578          50.000    22791034.240    89436894.637          50.000  
E24  23167194.200   121744231.629          50.000    23167211.320    90912861.914          50.000  
E26  26518537.360   139355785.758          50.000    26518544.860   104064362.473          50.000  
E31  23802130.540   125081001.730          50.000    23802135.980    93404629.465          50.000  
E33  24269437.120   127536741.902          50.000    24269440.720    95238465.496          50.000  
> 2020  6  5 17 43 46.0000000  0 16       0.000000000000
G 6  22255652.000   116954162.527          50.000    22255656.560    87335892.582          50.000  
G13  23324102.520   122568999.930          50.000                                                  
G15  23858140.720   125375146.234          50.000                                                  
G17  21103170.160   110897852.992          50.000                                                  
G19  20068105.680   105458593.105          50.000                                                  
G24  22144790.360   116371582.336          50.000    22144794.000    86900848.473          50.000  
G28  22356333.080   117483437.582          50.000                                                  
G30  24032591.160   126292027.379          50.000    24032596.100    94308969.902          50.000  
E 1  26965570.580   141704970.754          50.000    26965576.720   105818623.852          50.000  
E 5  27511235.420   144572439.945          50.000    27511243.360   107959912.527          50.000  
E 9  25906087.620   136137337.227          50.000    25906095.580   101660972.766          50.000  
E12  22790595.320   119765388.727          50.000    22790597.720    89435181.695          50.000  
E24  23166881.660   121742589.254          50.000    23166898.780    90911635.461          50.000  
E26  26519017.120   139358306.922          50.000    26519024.620   104066245.160          50.000  
E31  23802174.720   125081233.965          50.000    23802180.180    93404802.887          50.000  
E33  24269515.640   127537154.602          50.000    24269519.240    95238773.684          50.000  
> 2020  6  5 17 43 47.0000000  0 16       0.000000000000
G 6  22255103.620   116951280.762          50.000    22255108.180    87333740.613          50.000  
G13  23324693.480   122572105.473          50.000                                                  
G15  23858573.440   125377420.219          50.000                                                  
G17  21103508.280   110899629.930          50.000                                                  
G19  20068136.160   105458753.320          50.000                                                  
G24  22144325.820   116369141.148          50.000    22144329.460    86899025.512          50.000  
G28  22356628.240   117484988.688          50.000                                                  
G30  24033270.240   126295595.984          50.000    24033275.180    94311634.766          50.000  
E 1  26965926.080   141706839.000          50.000    26965932.240   105820018.969          50.000  
E 5  27511489.020   144573772.621          50.000    27511496.960   107960907.707          50.000  
E 9  25906557.600   136139806.965          50.000    25906565.540   101662817.051          50.000  
E12  22790158.860   119763095.188          50.000    22790161.280    89433468.988          50.000  
E24  23166569.140   121740946.934          50.000    23166586.260    90910409.055          50.000  
E26  26519496.920   139360828.301          50.000    26519504.420   104068128.004          50.000  
E31  23802218.940   125081466.379          50.000    23802224.400    93404976.441          50.000  
E33  24269594.260   127537567.777          50.000    24269597.860    95239082.223          50.000  
> 2020  6  5 17 43 48.0000000  0 16       0.000000000000
G 6  22254555.300   116948399.367          50.000    22254559.860    87331588.930          50.000  
G13  23325284.480   122575211.191          50.000                                                  
G15  23859006.220   125379694.465          50.000                                                  
G17  21103846.480   110901407.191          50.000                                                  
G19  20068166.760   105458914.109          50.000                                                  
G24  22143861.360   116366700.371          50.000    22143865.000    86897202.855          50.000  
G28  22356923.420   117486539.906          50.000                                                  
G30  24033949.360   126299164.770          50.000    24033954.300    94314299.766          50.000  
E 1  26966281.640   141708707.398          50.000    26966287.780   105821414.199          50.000  
E 5  27511742.680   144575105.617          50.000    27511750.620   107961903.125          50.000  
E 9  25907027.580   136142276.691          50.000    25907035.520   101664661.328          50.000  
E12  22789722.480   119760801.984          50.000    22789724.900    89431756.531          50.000  
E24  23166256.620   121739304.676          50.000    23166273.740    90909182.695          50.000  
E26  26519976.760   139363349.914          50.000    26519984.260   104070011.027          50.000  
E31  23802263.200   125081698.984          50.000    23802268.660    93405150.141          50.000  
E33  24269672.980   127537981.438          50.000    24269676.580    95239391.125          50.000  
> 2020  6  5 17 43 49.0000000  0 16       0.000000000000
G 6  22254007.060   116945518.344          50.000    22254011.620    87329437.512          50.000  
G13  23325875.520   122578317.082          50.000                                                  
G15  23859439.040   125381968.973          50.000                                                  
G17  21104184.740   110903184.766          50.000                                                  
G19  20068197.460   105459075.453          50.000                                                  
G24  22143396.960   116364259.988          50.000    22143400.600    86895380.492          50.000  
G28  22357218.620   117488091.230          50.000                                                  
G30  24034628.500   126302733.730          50.000    24034633.440    94316964.895          50.000  
E 1  26966637.200   141710575.922          50.000    26966643.340   105822809.523          50.000  
E 5  27511996.400   144576438.945          50.000    27512004.340   107962898.789          50.000  
E 9  25907497.540   136144746.410          50.000    25907505.480   101666505.598          50.000  
E12  22789286.160   119758509.109          50.000    22789288.560    89430044.324          50.000  
E24  23165944.120   121737662.480          50.000    23165961.240    90907956.383          50.000  
E26  26520456.660   139365871.754          50.000    26520464.160   104071894.219          50.000  
E31  23802307.500   125081931.773          50.000    23802312.960    93405323.977          50.000  
E33  24269751.780   127538395.578          50.000    24269755.380    95239700.387          50.000  
> 2020  6  5 17 43 50.0000000  0 16       0.000000000000
G 6  22253458.880   116942637.680          50.000    22253463.440    87327286.371          50.000  
G13  23326466.580   122581423.137          50.000                                                  
G15  23859871.920   125384243.746          50.000                                                  
G17  21104523.060   110904962.664          50.000                                                  
G19  20068228.260   105459237.359          50.000                                                  
G24  22142932.660   116361820.027          50.000    22142936.300    86893558.445          50.000  
G28  22357513.860   117489642.660          50.000                                                  
G30  24035307.700   126306302.875          50.000    24035312.640    94319630.164          50.000  
E 1  26966992.800   141712444.586          50.000    26966998.940   105824204.953          50.000  
E 5  27512250.180   144577772.598          50.000    27512258.120   107963894.699          50.000  
E 9  25907967.520   136147216.129          50.000    25907975.460   101668349.863          50.000  
E12  22788849.900   119756216.574          50.000    22788852.320    89428332.363          50.000  
E24  23165631.620   121736020.324          50.000    23165648.740    90906730.098          50.000  
E26  26520936.600   139368393.820          50.000    26520944.080   104073777.578          50.000  
E31  23802351.840   125082164.734          50.000    23802357.280    93405497.941          50.000  
E33  24269830.680   127538810.184          50.000    24269834.280    95240009.996          50.000  
> 2020  6  5 17 43 51.0000000  0 16       0.000000000000
G 6  22252910.780   116939757.383          50.000    22252915.340    87325135.500          50.000  
G13  23327057.660   122584529.359          50.000                                                  
G15  23860304.840   125386518.785          50.000                                                  
G17  21104861.460   110906740.879          50.000                                                  
G19  20068259.180   105459399.840          50.000                                                  
G24  22142468.420   116359380.473          50.000    22142472.060    86891736.699          50.000  
G28  22357809.100   117491194.191          50.000                                                  
G30  24035986.900   126309872.180          50.000    24035991.840    94322295.551          50.000  
E 1  26967348.400   141714313.375          50.000    26967354.560   105825600.480          50.000  
E 5  27512504.020   144579106.570          50.000    27512511.960   107964890.848          50.000  
E 9  25908437.480   136149685.832          50.000    25908445.420   101670194.125          50.000  
E12  22788413.700   119753924.363          50.000    22788416.120    89426620.648          50.000  
E24  23165319.140   121734378.242          50.000    23165336.260    90905503.867          50.000  
E26  26521416.560   139370916.113          50.000    26521424.060   104075661.109          50.000  
E31  23802396.200   125082397.891          50.000    23802401.660    93405672.051          50.000  
E33  24269909.660   127539225.270          50.000    24269913.260    95240319.961          50.000  
> 2020  6  5 17 43 52.0000000  0 16       0.000000000000
G 6  22252362.740   116936877.449          50.000    22252367.300    87322984.902          50.000  
G13  23327648.800   122587635.750          50.000                                                  
G15  23860737.820   125388794.090          50.000                                                  
G17  21105199.900   110908519.418          50.000                                                  
G19  20068290.200   105459562.867          50.000                                                  
G24  22142004.260   116356941.332          50.000    22142007.900    86889915.266          50.000  
G28  22358104.360   117492745.836          50.000                                                  
G30  24036666.160   126313441.676          50.000    24036671.100    94324961.082          50.000  
E 1  26967704.060   141716182.309          50.000    26967710.200   105826996.109          50.000  
E 5  27512757.920   144580440.871          50.000    27512765.880   107965887.242          50.000  
E 9  25908907.440   136152155.527          50.000    25908915.380   101672038.379          50.000  
E12  22787977.580   119751632.484          50.000    22787979.980    89424909.184          50.000  
E24  23165006.680   121732736.219          50.000    23165023.800    90904277.684          50.000  
E26  26521896.580   139373438.633          50.000    26521904.080   104077544.805          50.000  
E31  23802440.600   125082631.215          50.000    23802446.060    93405846.289          50.000  
E33  24269988.740   127539640.848          50.000    24269992.340    95240630.293          50.000  
> 2020  6  5 17 43 53.0000000  0 16       0.000000000000
G 6  22251814.780   116933997.883          50.000    22251819.340    87320834.582          50.000  
G13  23328239.960   122590742.309          50.000                                                  
G15  23861170.840   125391069.660          50.000                                                  
G17  21105538.400   110910298.277          50.000                                                  
G19  20068321.340   105459726.473          50.000                                                  
G24  22141540.180   116354502.594          50.000    22141543.820    86888094.133          50.000  
G28  22358399.660   117494297.590          50.000                                                  
G30  24037345.440   126317011.340          50.000    24037350.380    94327626.738          50.000  
E 1  26968059.720   141718051.367          50.000    26968065.880   105828391.836          50.000  
E 5  27513011.900   144581775.500          50.000    27513019.840   107966883.879          50.000  
E 9  25909377.400   136154625.211          50.000    25909385.360   101673882.621          50.000  
E12  22787541.500   119749340.941          50.000    22787543.920    89423197.969          50.000  
E24  23164694.220   121731094.238          50.000    23164711.340    90903051.531          50.000  
E26  26522376.640   139375961.379          50.000    26522384.140   104079428.672          50.000  
E31  23802485.040   125082864.742          50.000    23802490.480    93406020.676          50.000  
E33  24270067.920   127540056.891          50.000    24270071.520    95240940.977          50.000  
> 2020  6  5 17 43 54.0000000  0 16       0.000000000000
G 6  22251266.880   116931118.680          50.000    22251271.440    87318684.527          50.000  
G13  23328831.140   122593849.043          50.000                                                  
G15  23861603.920   125393345.496          50.000                                                  
G17  21105876.960   110912077.449          50.000                                                  
G19  20068352.580   105459890.645          50.000                                                  
G24  22141076.180   116352064.258          50.000    22141079.820    86886273.301          50.000  
G28  22358694.960   117495849.445          50.000                                                  
G30  24038024.760   126320581.188          50.000    24038029.700    94330292.531          50.000  
E 1  26968415.420   141719920.578          50.000    26968421.560   105829787.672          50.000  
E 5  27513265.940   144583110.453          50.000    27513273.880   107967880.758          50.000  
E 9  25909847.360   136157094.891          50.000    25909855.320   101675726.863          50.000  
E12  22787105.500   119747049.730          50.000    22787107.900    89421487.000          50.000  
E24  23164381.760   121729452.340          50.000    23164398.900    90901825.438          50.000  
E26  26522856.760   139378484.355          50.000    26522864.260   104081312.715          50.000  
E31  23802529.500   125083098.453          50.000    23802534.960    93406195.199          50.000  
E33  24270147.180   127540473.410          50.000    24270150.780    95241252.016          50.000  
> 2020  6  5 17 43 55.0000000  0 16       0.000000000000
G 6  22250719.040   116928239.832          50.000    22250723.620    87316534.742          50.000  
G13  23329422.360   122596955.941          50.000                                                  
G15  23862037.040   125395621.594          50.000                                                  
G17  21106215.580   110913856.945          50.000                                                  
G19  20068383.920   105460055.379          50.000                                                  
G24  22140612.240   116349626.316          50.000    22140615.880    86884452.758          50.000  
G28  22358990.300   117497401.426          50.000                                                  
G30  24038704.120   126324151.219          50.000    24038709.060    94332958.461          50.000  
E 1  26968771.140   141721789.906          50.000    26968777.280   105831183.602          50.000  
E 5  27513520.020   144584445.723          50.000    27513527.960   107968877.871          50.000  
E 9  25910317.340   136159564.570          50.000    25910325.280   101677571.105          50.000  
E12  22786669.560   119744758.852          50.000    22786671.960    89419776.281          50.000  
E24  23164069.320   121727810.480          50.000    23164086.460    90900599.371          50.000  
E26  26523336.900   139381007.555          50.000    26523344.400   104083196.922          50.000  
E31  23802574.000   125083332.340          50.000    23802579.460    93406369.855          50.000  
E33  24270226.520   127540890.422          50.000    24270230.120    95241563.422          50.000  
> 2020  6  5 17 43 56.0000000  0 16       0.000000000000
G 6  22250171.300   116925361.367          50.000    22250175.860    87314385.242          50.000  
G13  23330013.620   122600063.020          50.000                                                  
G15  23862470.220   125397897.957          50.000                                                  
G17  21106554.280   110915636.758          50.000                                                  
G19  20068415.380   105460220.688          50.000                                                  
G24  22140148.400   116347188.785          50.000    22140152.040    86882632.527          50.000  
G28  22359285.640   117498953.516          50.000                                                  
G30  24039383.500   126327721.422          50.000    24039388.440    94335624.520          50.000  
E 1  26969126.880   141723659.379          50.000    26969133.040   105832579.633          50.000  
E 5  27513774.180   144585781.328          50.000    27513782.120   107969875.238          50.000  
E 9  25910787.280   136162034.230          50.000    25910795.240   101679415.332          50.000  
E12  22786233.680   119742468.301          50.000    22786236.080    89418065.805          50.000  
E24  23163756.900   121726168.688          50.000    23163774.020    90899373.359          50.000  
E26  26523817.080   139383530.984          50.000    26523824.580   104085081.301          50.000  
E31  23802618.560   125083566.414          50.000    23802624.000    93406544.652          50.000  
E33  24270305.980   127541307.906          50.000    24270309.560    95241875.176          50.000  
> 2020  6  5 17 43 57.0000000  0 16       0.000000000000
G 6  22249623.600   116922483.270          50.000    22249628.160    87312236.016          50.000  
G13  23330604.900   122603170.262          50.000                                                  
G15  23862903.440   125400174.594          50.000                                                  
G17  21106893.020   110917416.895          50.000                                                  
G19  20068446.940   105460386.563          50.000                                                  
G24  22139684.620   116344751.645          50.000    22139688.260    86880812.582          50.000  
G28  22359581.020   117500505.719          50.000                                                  
G30  24040062.920   126331291.809          50.000    24040067.860    94338290.715          50.000  
E 1  26969482.660   141725528.980          50.000    26969488.800   105833975.762          50.000  
E 5  27514028.400   144587117.250          50.000    27514036.340   107970872.844          50.000  
E 9  25911257.240   136164503.883          50.000    25911265.200   101681259.555          50.000  
E12  22785797.860   119740178.074          50.000    22785800.260    89416355.574          50.000  
E24  23163444.480   121724526.961          50.000    23163461.620    90898147.395          50.000  
E26  26524297.320   139386054.645          50.000    26524304.820   104086965.848          50.000  
E31  23802663.120   125083800.664          50.000    23802668.580    93406719.578          50.000  
E33  24270385.500   127541725.859          50.000    24270389.100    95242187.285          50.000  
> 2020  6  5 17 43 58.0000000  0 16       0.000000000000
G 6  22249075.980   116919605.543          50.000    22249080.540    87310087.063          50.000  
G13  23331196.220   122606277.668          50.000                                                  
G15  23863336.720   125402451.488          50.000                                                  
G17  21107231.820   110919197.348          50.000                                                  
G19  20068478.600   105460552.996          50.000                                                  
G24  22139220.920   116342314.934          50.000    22139224.560    86878992.961          50.000  
G28  22359876.400   117502058.020          50.000                                                  
G30  24040742.380   126334862.383          50.000    24040747.320    94340957.055          50.000  
E 1  26969838.460   141727398.727          50.000    26969844.600   105835372.004          50.000  
E 5  27514282.680   144588453.508          50.000    27514290.620   107971870.699          50.000  
E 9  25911727.200   136166973.531          50.000    25911735.160   101683103.770          50.000  
E12  22785362.100   119737888.195          50.000    22785364.520    89414645.598          50.000  
E24  23163132.080   121722885.293          50.000    23163149.220    90896921.477          50.000  
E26  26524777.600   139388578.535          50.000    26524785.100   104088850.574          50.000  
E31  23802707.740   125084035.109          50.000    23802713.200    93406894.652          50.000  
E33  24270465.120   127542144.305          50.000    24270468.720    95242499.762          50.000  
> 2020  6  5 17 43 59.0000000  0 16       0.000000000000
G 6  22248528.440   116916728.168          50.000    22248533.000    87307938.379          50.000  
G13  23331787.580   122609385.234          50.000                                                  
G15  23863770.040   125404728.648          50.000                                                  
G17  21107570.680   110920978.117          50.000                                                  
G19  20068510.380   105460719.992          50.000                                                  
G24  22138757.320   116339878.641          50.000    22138760.960    86877173.660          50.000  
G28  22360171.820   117503610.430          50.000                                                  
G30  24041421.860   126338433.117          50.000    24041426.800    94343623.512          50.000  
E 1  26970194.280   141729268.598          50.000    26970200.440   105836768.332          50.000  
E 5  27514537.020   144589790.086          50.000    27514544.960   107972868.789          50.000  
E 9  25912197.160   136169443.160          50.000    25912205.100   101684947.973          50.000  
E12  22784926.420   119735598.629          50.000    22784928.820    89412935.859          50.000  
E24  23162819.700   121721243.672          50.000    23162836.820    90895695.590          50.000  
E26  26525257.920   139391102.641          50.000    26525265.420   104090735.453          50.000  
E31  23802752.380   125084269.734          50.000    23802757.840    93407069.859          50.000  
E33  24270544.840   127542563.227          50.000    24270548.440    95242812.594          50.000  
> 2020  6  5 17 44  0.0000000  0 16       0.000000000000
G 6  22247980.960   116913851.160          50.000    22247985.520    87305789.969          50.000  
G13  23332378.960   122612492.969          50.000                                                  
G15  23864203.420   125407006.066          50.000                                                  
G17  21107909.620   110922759.199          50.000                                                  
G19  20068542.260   105460887.563          50.000                                                  
G24  22138293.780   116337442.762          50.000    22138297.420    86875354.660          50.000  
G28  22360467.240   117505162.941          50.000                                                  
G30  24042101.380   126342004.031          50.000    24042106.340    94346290.102          50.000  
E 1  26970550.140   141731138.613          50.000    26970556.280   105838164.773          50.000  
E 5  27514791.420   144591126.996          50.000    27514799.360   107973867.133          50.000  
E 9  25912667.100   136171912.781          50.000    25912675.060   101686792.172          50.000  
E12  22784490.780   119733309.418          50.000    22784493.200    89411226.387          50.000  
E24  23162507.320   121719602.117          50.000    23162524.440    90894469.754          50.000  
E26  26525738.280   139393626.984          50.000    26525745.800   104092620.516          50.000  
E31  23802797.060   125084504.535          50.000    23802802.520    93407245.199          50.000  
E33  24270624.640   127542982.613          50.000    24270628.240    95243125.773          50.000  
> 2020  6  5 17 44  1.0000000  0 16       0.000000000000
G 6  22247433.540   116910974.520          50.000    22247438.100    87303641.828          50.000  
G13  23332970.360   122615600.879          50.000                                                  
G15  23864636.860   125409283.754          50.000                                                  
G17  21108248.600   110924540.609          50.000                                                  
G19  20068574.260   105461055.691          50.000                                                  
G24  22137830.320   116335007.285          50.000    22137833.960    86873535.961          50.000  
G28  22360762.700   117506715.570          50.000                                                  
G30  24042780.940   126345575.117          50.000    24042785.880    94348956.820          50.000  
E 1  26970906.000   141733008.754          50.000    26970912.160   105839561.305          50.000  
E 5  27515045.880   144592464.219          50.000    27515053.820   107974865.707          50.000  
E 9  25913137.060   136174382.402          50.000    25913145.000   101688636.367          50.000  
E12  22784055.220   119731020.523          50.000    22784057.620    89409517.148          50.000  
E24  23162194.940   121717960.625          50.000    23162212.080    90893243.969          50.000  
E26  26526218.700   139396151.551          50.000    26526226.200   104094505.742          50.000  
E31  23802841.780   125084739.535          50.000    23802847.240    93407420.684          50.000  
E33  24270704.540   127543402.488          50.000    24270708.140    95243439.316          50.000  
> 2020  6  5 17 44  2.0000000  0 16       0.000000000000
G 6  22246886.200   116908098.238          50.000    22246890.760    87301493.961          50.000  
G13  23333561.820   122618708.961          50.000                                                  
G15  23865070.340   125411561.695          50.000                                                  
G17  21108587.660   110926322.336          50.000                                                  
G19  20068606.360   105461224.383          50.000                                                  
G24  22137366.940   116332572.207          50.000    22137370.580    86871717.559          50.000  
G28  22361058.180   117508268.309          50.000                                                  
G30  24043460.520   126349146.383          50.000    24043465.480    94351623.672          50.000  
E 1  26971261.900   141734879.031          50.000    26971268.060   105840957.941          50.000  
E 5  27515300.400   144593801.770          50.000    27515308.360   107975864.527          50.000  
E 9  25913607.000   136176851.996          50.000    25913614.960   101690480.543          50.000  
E12  22783619.720   119728731.957          50.000    22783622.120    89407808.152          50.000  
E24  23161882.580   121716319.184          50.000    23161899.720    90892018.219          50.000  
E26  26526699.140   139398676.340          50.000    26526706.640   104096391.137          50.000  
E31  23802886.520   125084974.707          50.000    23802891.980    93407596.301          50.000  
E33  24270784.540   127543822.836          50.000    24270788.140    95243753.211          50.000  
> 2020  6  5 17 44  3.0000000  0 16       0.000000000000
G 6  22246338.940   116905222.328          50.000    22246343.500    87299346.363          50.000  
G13  23334153.300   122621817.207          50.000                                                  
G15  23865503.860   125413839.902          50.000                                                  
G17  21108926.760   110928104.371          50.000                                                  
G19  20068638.560   105461393.645          50.000                                                  
G24  22136903.640   116330137.539          50.000    22136907.260    86869899.465          50.000  
G28  22361353.660   117509821.148          50.000                                                  
G30  24044140.160   126352717.828          50.000    24044145.100    94354290.656          50.000  
E 1  26971617.840   141736749.449          50.000    26971623.980   105842354.680          50.000  
E 5  27515555.000   144595139.652          50.000    27515562.940   107976863.594          50.000  
E 9  25914076.960   136179321.594          50.000    25914084.900   101692324.727          50.000  
E12  22783184.280   119726443.734          50.000    22783186.680    89406099.418          50.000  
E24  23161570.240   121714677.801          50.000    23161587.360    90890792.508          50.000  
E26  26527179.640   139401201.363          50.000    26527187.140   104098276.703          50.000  
E31  23802931.320   125085210.070          50.000    23802936.760    93407772.055          50.000  
E33  24270864.620   127544243.668          50.000    24270868.220    95244067.469          50.000  
> 2020  6  5 17 44  4.0000000  0 16       0.000000000000
G 6  22245791.740   116902346.793          50.000    22245796.300    87297199.051          50.000  
G13  23334744.800   122624925.617          50.000                                                  
G15  23865937.440   125416118.375          50.000                                                  
G17  21109265.940   110929886.730          50.000                                                  
G19  20068670.880   105461563.469          50.000                                                  
G24  22136440.400   116327703.266          50.000    22136444.040    86868081.668          50.000  
G28  22361649.180   117511374.090          50.000                                                  
G30  24044819.800   126356289.445          50.000    24044824.760    94356957.773          50.000  
E 1  26971973.780   141738619.996          50.000    26971979.940   105843751.516          50.000  
E 5  27515809.640   144596477.859          50.000    27515817.600   107977862.902          50.000  
E 9  25914546.900   136181791.180          50.000    25914554.840   101694168.895          50.000  
E12  22782748.900   119724155.836          50.000    22782751.320    89404390.922          50.000  
E24  23161257.900   121713036.480          50.000    23161275.020    90889566.848          50.000  
E26  26527660.180   139403726.613          50.000    26527667.680   104100162.445          50.000  
E31  23802976.140   125085445.621          50.000    23802981.580    93407947.957          50.000  
E33  24270944.780   127544664.980          50.000    24270948.380    95244382.086          50.000  
> 2020  6  5 17 44  5.0000000  0 16       0.000000000000
G 6  22245244.600   116899471.621          50.000    22245249.160    87295052.012          50.000  
G13  23335336.340   122628034.195          50.000                                                  
G15  23866371.060   125418397.102          50.000                                                  
G17  21109605.160   110931669.402          50.000                                                  
G19  20068703.300   105461733.859          50.000                                                  
G24  22135977.260   116325269.395          50.000    22135980.880    86866264.168          50.000  
G28  22361944.720   117512927.145          50.000                                                  
G30  24045499.500   126359861.234          50.000    24045504.440    94359625.016          50.000  
E 1  26972329.760   141740490.676          50.000    26972335.920   105845148.453          50.000  
E 5  27516064.360   144597816.383          50.000    27516072.300   107978862.453          50.000  
E 9  25915016.840   136184260.754          50.000    25915024.780   101696013.059          50.000  
E12  22782313.600   119721868.270          50.000    22782316.000    89402682.676          50.000  
E24  23160945.580   121711395.219          50.000    23160962.700    90888341.234          50.000  
E26  26528140.760   139406252.086          50.000    26528148.260   104102048.348          50.000  
E31  23803020.980   125085681.344          50.000    23803026.440    93408123.984          50.000  
E33  24271025.040   127545086.762          50.000    24271028.640    95244697.051          50.000  
> 2020  6  5 17 44  6.0000000  0 16       0.000000000000
G 6  22244697.540   116896596.809          50.000    22244702.100    87292905.238          50.000  
G13  23335927.920   122631142.945          50.000                                                  
G15  23866804.740   125420676.090          50.000                                                  
G17  21109944.460   110933452.398          50.000                                                  
G19  20068735.820   105461904.824          50.000                                                  
G24  22135514.180   116322835.961          50.000    22135517.820    86864446.992          50.000  
G28  22362240.280   117514480.305          50.000                                                  
G30  24046179.220   126363433.215          50.000    24046184.160    94362292.398          50.000  
E 1  26972685.760   141742361.496          50.000    26972691.920   105846545.492          50.000  
E 5  27516319.140   144599155.234          50.000    27516327.080   107979862.242          50.000  
E 9  25915486.780   136186730.316          50.000    25915494.720   101697857.211          50.000  
E12  22781878.340   119719581.035          50.000    22781880.740    89400974.680          50.000  
E24  23160633.260   121709754.016          50.000    23160650.400    90887115.660          50.000  
E26  26528621.380   139408777.789          50.000    26528628.880   104103934.422          50.000  
E31  23803065.880   125085917.262          50.000    23803071.340    93408300.156          50.000  
E33  24271105.400   127545509.027          50.000    24271109.000    95245012.379          50.000  
> 2020  6  5 17 44  7.0000000  0 16       0.000000000000
G 6  22244150.560   116893722.371          50.000    22244155.100    87290758.746          50.000  
G13  23336519.520   122634251.871          50.000                                                  
G15  23867238.460   125422955.344          50.000                                                  
G17  21110283.800   110935235.707          50.000                                                  
G19  20068768.460   105462076.344          50.000                                                  
G24  22135051.180   116320402.910          50.000    22135054.820    86862630.105          50.000  
G28  22362535.840   117516033.578          50.000                                                  
G30  24046858.980   126367005.352          50.000    24046863.920    94364959.902          50.000  
E 1  26973041.800   141744232.453          50.000    26973047.940   105847942.637          50.000  
E 5  27516573.960   144600494.410          50.000    27516581.920   107980862.277          50.000  
E 9  25915956.720   136189199.875          50.000    25915964.660   101699701.363          50.000  
E12  22781443.160   119717294.137          50.000    22781445.560    89399266.934          50.000  
E24  23160320.960   121708112.871          50.000    23160338.080    90885890.133          50.000  
E26  26529102.040   139411303.711          50.000    26529109.560   104105820.660          50.000  
E31  23803110.800   125086153.359          50.000    23803116.260    93408476.465          50.000  
E33  24271185.840   127545931.770          50.000    24271189.440    95245328.063          50.000  
> 2020  6  5 17 44  8.0000000  0 16       0.000000000000
G 6  22243603.640   116890848.297          50.000    22243608.180    87288612.523          50.000  
G13  23337111.160   122637360.957          50.000                                                  
G15  23867672.240   125425234.855          50.000                                                  
G17  21110623.220   110937019.336          50.000                                                  
G19  20068801.200   105462248.434          50.000                                                  
G24  22134588.260   116317970.289          50.000    22134591.900    86860813.539          50.000  
G28  22362831.440   117517586.949          50.000                                                  
G30  24047538.760   126370577.676          50.000    24047543.720    94367627.547          50.000  
E 1  26973397.860   141746103.539          50.000    26973404.000   105849339.875          50.000  
E 5  27516828.860   144601833.918          50.000    27516836.820   107981862.555          50.000  
E 9  25916426.660   136191669.418          50.000    25916434.600   101701545.500          50.000  
E12  22781008.040   119715007.566          50.000    22781010.440    89397559.430          50.000  
E24  23160008.680   121706471.789          50.000    23160025.800    90884664.648          50.000  
E26  26529582.760   139413829.863          50.000    26529590.260   104107707.070          50.000  
E31  23803155.760   125086389.633          50.000    23803161.220    93408652.902          50.000  
E33  24271266.380   127546354.984          50.000    24271269.960    95245644.102          50.000  
> 2020  6  5 17 44  9.0000000  0 16       0.000000000000
G 6  22243056.780   116887974.582          50.000    22243061.340    87286466.566          50.000  
G13  23337702.840   122640470.207          50.000                                                  
G15  23868106.060   125427514.633          50.000                                                  
G17  21110962.680   110938803.285          50.000                                                  
G19  20068834.060   105462421.086          50.000                                                  
G24  22134125.440   116315538.090          50.000    22134129.060    86858997.289          50.000  
G28  22363127.060   117519140.445          50.000                                                  
G30  24048218.580   126374150.164          50.000    24048223.540    94370295.313          50.000  
E 1  26973753.940   141747974.762          50.000    26973760.080   105850737.215          50.000  
E 5  27517083.820   144603173.742          50.000    27517091.760   107982863.074          50.000  
E 9  25916896.600   136194138.953          50.000    25916904.540   101703389.633          50.000  
E12  22780572.980   119712721.316          50.000    22780575.380    89395852.164          50.000  
E24  23159696.400   121704830.762          50.000    23159713.520    90883439.207          50.000  
E26  26530063.500   139416356.234          50.000    26530071.020   104109593.648          50.000  
E31  23803200.760   125086626.105          50.000    23803206.220    93408829.488          50.000  
E33  24271347.000   127546778.680          50.000    24271350.600    95245960.500          50.000  
> 2020  6  5 17 44 10.0000000  0 16       0.000000000000
G 6  22242510.000   116885101.250          50.000    22242514.560    87284320.898          50.000  
G13  23338294.540   122643579.621          50.000                                                  
G15  23868539.940   125429794.680          50.000                                                  
G17  21111302.220   110940587.547          50.000                                                  
G19  20068867.020   105462594.297          50.000                                                  
G24  22133662.680   116313106.301          50.000    22133666.300    86857181.344          50.000  
G28  22363422.700   117520694.039          50.000                                                  
G30  24048898.440   126377722.828          50.000    24048903.400    94372963.207          50.000  
E 1  26974110.040   141749846.129          50.000    26974116.200   105852134.664          50.000  
E 5  27517338.840   144604513.898          50.000    27517346.800   107983863.840          50.000  
E 9  25917366.520   136196608.480          50.000    25917374.480   101705233.762          50.000  
E12  22780137.980   119710435.426          50.000    22780140.380    89394145.168          50.000  
E24  23159384.120   121703189.785          50.000    23159401.240    90882213.805          50.000  
E26  26530544.300   139418882.844          50.000    26530551.800   104111480.398          50.000  
E31  23803245.800   125086862.750          50.000    23803251.240    93409006.203          50.000  
E33  24271427.720   127547202.855          50.000    24271431.300    95246277.254          50.000  
> 2020  6  5 17 44 11.0000000  0 16       0.000000000000
G 6  22241963.280   116882228.281          50.000    22241967.840    87282175.500          50.000  
G13  23338886.280   122646689.203          50.000                                                  
G15  23868973.860   125432074.980          50.000                                                  
G17  21111641.820   110942372.125          50.000                                                  
G19  20068900.080   105462768.082          50.000                                                  
G24  22133200.000   116310674.922          50.000    22133203.620    86855365.707          50.000  
G28  22363718.360   117522247.746          50.000                                                  
G30  24049578.340   126381295.684          50.000    24049583.280    94375631.246          50.000  
E 1  26974466.160   141751717.617          50.000    26974472.320   105853532.203          50.000  
E 5  27517593.920   144605854.371          50.000    27517601.880   107984864.840          50.000  
E 9  25917836.460   136199077.996          50.000    25917844.400   101707077.879          50.000  
E12  22779703.040   119708149.852          50.000    22779705.460    89392438.410          50.000  
E24  23159071.880   121701548.891          50.000    23159089.000    90880988.461          50.000  
E26  26531025.140   139421409.672          50.000    26531032.640   104113367.316          50.000  
E31  23803290.860   125087099.586          50.000    23803296.320    93409183.063          50.000  
E33  24271508.520   127547627.516          50.000    24271512.120    95246594.367          50.000  
> 2020  6  5 17 44 12.0000000  0 16       0.000000000000
G 6  22241416.640   116879355.668          50.000    22241421.200    87280030.367          50.000  
G13  23339478.040   122649798.949          50.000                                                  
G15  23869407.840   125434355.543          50.000                                                  
G17  21111981.460   110944157.020          50.000                                                  
G19  20068933.260   105462942.422          50.000                                                  
G24  22132737.400   116308243.961          50.000    22132741.020    86853550.379          50.000  
G28  22364014.040   117523801.563          50.000                                                  
G30  24050258.260   126384868.707          50.000    24050263.200    94378299.410          50.000  
E 1  26974822.320   141753589.242          50.000    26974828.480   105854929.844          50.000  
E 5  27517849.080   144607195.172          50.000    27517857.020   107985866.086          50.000  
E 9  25918306.380   136201547.500          50.000    25918314.340   101708921.988          50.000  
E12  22779268.180   119705864.613          50.000    22779270.580    89390731.902          50.000  
E24  23158759.620   121699908.039          50.000    23158776.740    90879763.152          50.000  
E26  26531506.020   139423936.727          50.000    26531513.520   104115254.402          50.000  
E31  23803335.960   125087336.605          50.000    23803341.420    93409360.059          50.000  
E33  24271589.420   127548052.645          50.000    24271593.020    95246911.836          50.000  
> 2020  6  5 17 44 13.0000000  0 16       0.000000000000
G 6  22240870.080   116876483.426          50.000    22240874.620    87277885.520          50.000  
G13  23340069.840   122652908.863          50.000                                                  
G15  23869841.860   125436636.363          50.000                                                  
G17  21112321.180   110945942.234          50.000                                                  
G19  20068966.540   105463117.336          50.000                                                  
G24  22132274.880   116305813.383          50.000    22132278.500    86851735.340          50.000  
G28  22364309.740   117525355.480          50.000                                                  
G30  24050938.220   126388441.898          50.000    24050943.160    94380967.707          50.000  
E 1  26975178.520   141755461.020          50.000    26975184.660   105856327.598          50.000  
E 5  27518104.280   144608536.289          50.000    27518112.220   107986867.570          50.000  
E 9  25918776.320   136204016.996          50.000    25918784.260   101710766.090          50.000  
E12  22778833.380   119703579.727          50.000    22778835.780    89389025.660          50.000  
E24  23158447.400   121698267.250          50.000    23158464.520    90878537.887          50.000  
E26  26531986.960   139426464.016          50.000    26531994.460   104117141.664          50.000  
E31  23803381.100   125087573.801          50.000    23803386.540    93409537.184          50.000  
E33  24271670.400   127548478.250          50.000    24271674.000    95247229.656          50.000  
> 2020  6  5 17 44 14.0000000  0 16       0.000000000000
G 6  22240323.580   116873611.551          50.000    22240328.120    87275740.941          50.000  
G13  23340661.660   122656018.934          50.000                                                  
G15  23870275.940   125438917.453          50.000                                                  
G17  21112660.960   110947727.758          50.000                                                  
G19  20068999.940   105463292.801          50.000                                                  
G24  22131812.420   116303383.215          50.000    22131816.060    86849920.609          50.000  
G28  22364605.460   117526909.508          50.000                                                  
G30  24051618.200   126392015.270          50.000    24051623.160    94383636.133          50.000  
E 1  26975534.720   141757332.914          50.000    26975540.880   105857725.441          50.000  
E 5  27518359.540   144609877.742          50.000    27518367.500   107987869.305          50.000  
E 9  25919246.240   136206486.480          50.000    25919254.180   101712610.188          50.000  
E12  22778398.620   119701295.129          50.000    22778401.040    89387319.633          50.000  
E24  23158135.160   121696626.516          50.000    23158152.280    90877312.664          50.000  
E26  26532467.920   139428991.520          50.000    26532475.420   104119029.082          50.000  
E31  23803426.260   125087811.191          50.000    23803431.720    93409714.457          50.000  
E33  24271751.480   127548904.332          50.000    24271755.080    95247547.836          50.000  
> 2020  6  5 17 44 15.0000000  0 16       0.000000000000
G 6  22239777.140   116870740.047          50.000    22239781.700    87273596.645          50.000  
G13  23341253.520   122659129.176          50.000                                                  
G15  23870710.080   125441198.797          50.000                                                  
G17  21113000.780   110949513.598          50.000                                                  
G19  20069033.440   105463468.836          50.000                                                  
G24  22131350.060   116300953.477          50.000    22131353.680    86848106.199          50.000  
G28  22364901.200   117528463.645          50.000                                                  
G30  24052298.220   126395588.816          50.000    24052303.180    94386304.695          50.000  
E 1  26975890.960   141759204.949          50.000    26975897.120   105859123.391          50.000  
E 5  27518614.880   144611219.508          50.000    27518622.820   107988871.273          50.000  
E 9  25919716.160   136208955.957          50.000    25919724.120   101714454.277          50.000  
E12  22777963.960   119699010.902          50.000    22777966.360    89385613.879          50.000  
E24  23157822.960   121694985.848          50.000    23157840.080    90876087.492          50.000  
E26  26532948.920   139431519.254          50.000    26532956.440   104120916.676          50.000  
E31  23803471.480   125088048.766          50.000    23803476.920    93409891.867          50.000  
E33  24271832.660   127549330.898          50.000    24271836.260    95247866.375          50.000  
> 2020  6  5 17 44 16.0000000  0 16       0.000000000000
G 6  22239230.780   116867868.906          50.000    22239235.320    87271452.617          50.000  
G13  23341845.420   122662239.578          50.000                                                  
G15  23871144.260   125443480.410          50.000                                                  
G17  21113340.680   110951299.754          50.000                                                  
G19  20069067.040   105463645.441          50.000                                                  
G24  22130887.780   116298524.164          50.000    22130891.400    86846292.109          50.000  
G28  22365196.960   117530017.883          50.000                                                  
G30  24052978.280   126399162.543          50.000    24052983.240    94388973.387          50.000  
E 1  26976247.220   141761077.121          50.000    26976253.380   105860521.441          50.000  
E 5  27518870.260   144612561.602          50.000    27518878.220   107989873.488          50.000  
E 9  25920186.080   136211425.414          50.000    25920194.040   101716298.355          50.000  
E12  22777529.340   119696727.008          50.000    22777531.740    89383908.375          50.000  
E24  23157510.760   121693345.227          50.000    23157527.880    90874862.355          50.000  
E26  26533429.980   139434047.207          50.000    26533437.480   104122804.438          50.000  
E31  23803516.720   125088286.512          50.000    23803522.160    93410069.406          50.000  
E33  24271913.920   127549757.934          50.000    24271917.520    95248185.270          50.000  
> 2020  6  5 17 44 17.0000000  0 16       0.000000000000
G 6  22238684.480   116864998.129          50.000    22238689.040    87269308.859          50.000  
G13  23342437.340   122665350.152          50.000                                                  
G15  23871578.480   125445762.277          50.000                                                  
G17  21113680.640   110953086.227          50.000                                                  
G19  20069100.760   105463822.602          50.000                                                  
G24  22130425.580   116296095.262          50.000    22130429.200    86844478.324          50.000  
G28  22365492.760   117531572.246          50.000                                                  
G30  24053658.380   126402736.441          50.000    24053663.320    94391642.211          50.000  
E 1  26976603.500   141762949.410          50.000    26976609.660   105861919.586          50.000  
E 5  27519125.720   144613904.020          50.000    27519133.660   107990875.945          50.000  
E 9  25920656.000   136213894.863          50.000    25920663.960   101718142.430          50.000  
E12  22777094.780   119694443.422          50.000    22777097.180    89382203.105          50.000  
E24  23157198.560   121691704.668          50.000    23157215.680    90873637.270          50.000  
E26  26533911.080   139436575.391          50.000    26533918.580   104124692.371          50.000  
E31  23803562.000   125088524.453          50.000    23803567.440    93410247.098          50.000  
E33  24271995.280   127550185.453          50.000    24271998.860    95248504.527          50.000  
> 2020  6  5 17 44 18.0000000  0 16       0.000000000000
G 6  22238138.260   116862127.730          50.000    22238142.820    87267165.387          50.000  
G13  23343029.280   122668460.883          50.000                                                  
G15  23872012.760   125448044.406          50.000                                                  
G17  21114020.660   110954873.016          50.000                                                  
G19  20069134.580   105464000.332          50.000                                                  
G24  22129963.440   116293666.766          50.000    22129967.060    86842664.844          50.000  
G28  22365788.560   117533126.707          50.000                                                  
G30  24054338.500   126406310.527          50.000    24054343.460    94394311.172          50.000  
E 1  26976959.820   141764821.848          50.000    26976965.960   105863317.836          50.000  
E 5  27519381.240   144615246.762          50.000    27519389.180   107991878.648          50.000  
E 9  25921125.920   136216364.297          50.000    25921133.880   101719986.488          50.000  
E12  22776660.300   119692160.168          50.000    22776662.700    89380498.086          50.000  
E24  23156886.380   121690064.164          50.000    23156903.500    90872412.223          50.000  
E26  26534392.220   139439103.797          50.000    26534399.720   104126580.465          50.000  
E31  23803607.300   125088762.570          50.000    23803612.760    93410424.914          50.000  
E33  24272076.720   127550613.441          50.000    24272080.300    95248824.133          50.000  
> 2020  6  5 17 44 19.0000000  0 16       0.000000000000
G 6  22237592.120   116859257.688          50.000    22237596.660    87265022.180          50.000  
G13  23343621.280   122671571.789          50.000                                                  
G15  23872447.080   125450326.805          50.000                                                  
G17  21114360.720   110956660.129          50.000                                                  
G19  20069168.500   105464178.625          50.000                                                  
G24  22129501.400   116291238.668          50.000    22129505.020    86840851.660          50.000  
G28  22366084.380   117534681.281          50.000                                                  
G30  24055018.660   126409884.766          50.000    24055023.620    94396980.246          50.000  
E 1  26977316.160   141766694.418          50.000    26977322.300   105864716.184          50.000  
E 5  27519636.820   144616589.828          50.000    27519644.760   107992881.590          50.000  
E 9  25921595.840   136218833.723          50.000    25921603.780   101721830.543          50.000  
E12  22776225.880   119689877.250          50.000    22776228.260    89378793.316          50.000  
E24  23156574.220   121688423.730          50.000    23156591.340    90871187.227          50.000  
E26  26534873.400   139441632.426          50.000    26534880.900   104128468.730          50.000  
E31  23803652.660   125089000.871          50.000    23803658.100    93410602.871          50.000  
E33  24272158.240   127551041.898          50.000    24272161.840    95249144.086          50.000  
> 2020  6  5 17 44 20.0000000  0 16       0.000000000000
G 6  22237046.040   116856388.023          50.000    22237050.580    87262879.254          50.000  
G13  23344213.300   122674682.855          50.000                                                  
G15  23872881.460   125452609.457          50.000                                                  
G17  21114700.860   110958447.559          50.000                                                  
G19  20069202.540   105464357.480          50.000                                                  
G24  22129039.420   116288811.016          50.000    22129043.040    86839038.805          50.000  
G28  22366380.220   117536235.961          50.000                                                  
G30  24055698.860   126413459.195          50.000    24055703.800    94399649.465          50.000  
E 1  26977672.520   141768567.121          50.000    26977678.680   105866114.637          50.000  
E 5  27519892.460   144617933.215          50.000    27519900.400   107993884.770          50.000  
E 9  25922065.760   136221303.133          50.000    25922073.700   101723674.586          50.000  
E12  22775791.520   119687594.672          50.000    22775793.900    89377088.797          50.000  
E24  23156262.080   121686783.352          50.000    23156279.180    90869962.273          50.000  
E26  26535354.620   139444161.281          50.000    26535362.140   104130357.168          50.000  
E31  23803698.040   125089239.363          50.000    23803703.480    93410780.969          50.000  
E33  24272239.880   127551470.848          50.000    24272243.460    95249464.410          50.000  
> 2020  6  5 17 44 21.0000000  0 16       0.000000000000
G 6  22236500.020   116853518.723          50.000    22236504.560    87260736.602          50.000  
G13  23344805.340   122677794.090          50.000                                                  
G15  23873315.880   125454892.371          50.000                                                  
G17  21115041.060   110960235.316          50.000                                                  
G19  20069236.680   105464536.902          50.000                                                  
G24  22128577.540   116286383.789          50.000    22128581.160    86837226.273          50.000  
G28  22366676.100   117537790.754          50.000                                                  
G30  24056379.080   126417033.793          50.000    24056384.020    94402318.809          50.000  
E 1  26978028.920   141770439.965          50.000    26978035.060   105867513.191          50.000  
E 5  27520148.160   144619276.922          50.000    27520156.100   107994888.191          50.000  
E 9  25922535.660   136223772.539          50.000    25922543.620   101725518.629          50.000  
E12  22775357.220   119685312.422          50.000    22775359.600    89375384.527          50.000  
E24  23155949.920   121685143.031          50.000    23155967.040    90868737.363          50.000  
E26  26535835.900   139446690.367          50.000    26535843.400   104132245.770          50.000  
E31  23803743.460   125089478.035          50.000    23803748.900    93410959.203          50.000  
E33  24272321.580   127551900.270          50.000    24272325.180    95249785.086          50.000  
> 2020  6  5 17 44 22.0000000  0 16       0.000000000000
G 6  22235954.080   116850649.789          50.000    22235958.620    87258594.219          50.000  
G13  23345397.420   122680905.488          50.000                                                  
G15  23873750.360   125457175.555          50.000                                                  
G17  21115381.320   110962023.391          50.000                                                  
G19  20069270.940   105464716.883          50.000                                                  
G24  22128115.720   116283956.969          50.000    22128119.340    86835414.043          50.000  
G28  22366971.980   117539345.645          50.000                                                  
G30  24057059.340   126420608.563          50.000    24057064.280    94404988.285          50.000  
E 1  26978385.320   141772312.934          50.000    26978391.480   105868911.844          50.000  
E 5  27520403.920   144620620.961          50.000    27520411.860   107995891.859          50.000  
E 9  25923005.580   136226241.938          50.000    25923013.520   101727362.660          50.000  
E12  22774922.980   119683030.504          50.000    22774925.360    89373680.500          50.000  
E24  23155637.800   121683502.777          50.000    23155654.900    90867512.508          50.000  
E26  26536317.220   139449219.680          50.000    26536324.720   104134134.547          50.000  
E31  23803788.900   125089716.891          50.000    23803794.360    93411137.574          50.000  
E33  24272403.400   127552330.172          50.000    24272406.980    95250106.121          50.000  
> 2020  6  5 17 44 23.0000000  0 16       0.000000000000
G 6  22235408.220   116847781.238          50.000    22235412.760    87256452.125          50.000  
G13  23345989.540   122684017.074          50.000                                                  
G15  23874184.880   125459458.996          50.000                                                  
G17  21115721.640   110963811.770          50.000                                                  
G19  20069305.280   105464897.426          50.000                                                  
G24  22127654.000   116281530.570          50.000    22127657.620    86833602.125          50.000  
G28  22367267.900   117540900.652          50.000                                                  
G30  24057739.620   126424183.516          50.000    24057744.580    94407657.895          50.000  
E 1  26978741.760   141774186.043          50.000    26978747.920   105870310.594          50.000  
E 5  27520659.740   144621965.316          50.000    27520667.680   107996895.766          50.000  
E 9  25923475.480   136228711.316          50.000    25923483.420   101729206.684          50.000  
E12  22774488.800   119680748.934          50.000    22774491.200    89371976.734          50.000  
E24  23155325.680   121681862.582          50.000    23155342.780    90866287.691          50.000  
E26  26536798.560   139451749.211          50.000    26536806.060   104136023.484          50.000  
E31  23803834.400   125089955.938          50.000    23803839.840    93411316.086          50.000  
E33  24272485.300   127552760.551          50.000    24272488.880    95250427.516          50.000  
> 2020  6  5 17 44 24.0000000  0 17       0.000000000000
G 2  23822169.960   125186322.758          50.000                                                  
G 6  22234862.420   116844913.039          50.000    22234866.960    87254310.297          50.000  
G13  23346581.660   122687129.027          50.000                                                  
G15  23874619.440   125461742.758          50.000                                                  
G17  21116062.040   110965600.402          50.000                                                  
G19  20069339.760   105465078.547          50.000                                                  
G24  22127192.360   116279104.469          50.000    22127195.980    86831790.395          50.000  
G28  22367563.820   117542455.785          50.000                                                  
G30  24058419.940   126427758.660          50.000    24058424.880    94410327.668          50.000  
E 1  26979098.240   141776059.289          50.000    26979104.380   105871709.445          50.000  
E 5  27520915.640   144623309.934          50.000    27520923.580   107997899.824          50.000  
E 9  25923945.440   136231180.457          50.000    25923953.420   101731050.383          50.000  
E12  22774054.680   119678467.758          50.000    22774057.060    89370273.313          50.000  
E24  23155013.560   121680222.434          50.000    23155030.680    90865062.902          50.000  
E26  26537279.960   139454279.027          50.000    26537287.440   104137912.668          50.000  
E31  23803879.920   125090195.195          50.000    23803885.360    93411494.773          50.000  
E33  24272567.280   127553191.469          50.000    24272570.840    95250749.348          50.000  
> 2020  6  5 17 44 25.0000000  0 17       0.000000000000
G 2  23821527.460   125182946.352          50.000                                                  
G 6  22234316.680   116842045.215          50.000    22234321.220    87252168.746          50.000  
G13  23347173.820   122690240.949          50.000                                                  
G15  23875054.060   125464026.723          50.000                                                  
G17  21116402.460   110967389.418          50.000                                                  
G19  20069374.320   105465260.223          50.000                                                  
G24  22126730.780   116276678.855          50.000    22126734.400    86829979.063          50.000  
G28  22367859.760   117544011.004          50.000                                                  
G30  24059100.300   126431333.969          50.000    24059105.240    94412997.543          50.000  
E 1  26979454.720   141777932.656          50.000    26979460.880   105873108.391          50.000  
E 5  27521171.580   144624654.938          50.000    27521179.540   107998904.211          50.000  
E 9  25924415.340   136233649.809          50.000    25924423.320   101732894.379          50.000  
E12  22773620.640   119676186.852          50.000    22773623.020    89368570.039          50.000  
E24  23154701.480   121678582.340          50.000    23154718.580    90863838.156          50.000  
E26  26537761.400   139456809.004          50.000    26537768.880   104139801.938          50.000  
E31  23803925.480   125090434.598          50.000    23803930.900    93411673.551          50.000  
E33  24272649.360   127553622.789          50.000    24272652.920    95251071.438          50.000  
> 2020  6  5 17 44 26.0000000  0 17       0.000000000000
G 2  23820884.960   125179570.047          50.000                                                  
G 6  22233771.020   116839177.758          50.000    22233775.560    87250027.469          50.000  
G13  23347766.040   122693353.027          50.000                                                  
G15  23875488.740   125466310.949          50.000                                                  
G17  21116742.960   110969178.746          50.000                                                  
G19  20069409.000   105465442.453          50.000                                                  
G24  22126269.280   116274253.645          50.000    22126272.900    86828168.031          50.000  
G28  22368155.740   117545566.332          50.000                                                  
G30  24059780.700   126434909.438          50.000    24059785.640    94415667.535          50.000  
E 1  26979811.240   141779806.164          50.000    26979817.400   105874507.434          50.000  
E 5  27521427.600   144626000.258          50.000    27521435.540   107999908.832          50.000  
E 9  25924885.240   136236119.152          50.000    25924893.220   101734738.367          50.000  
E12  22773186.660   119673906.246          50.000    22773189.040    89366866.992          50.000  
E24  23154389.380   121676942.309          50.000    23154406.500    90862613.457          50.000  
E26  26538242.880   139459339.203          50.000    26538250.380   104141691.371          50.000  
E31  23803971.060   125090674.184          50.000    23803976.500    93411852.461          50.000  
E33  24272731.520   127554054.598          50.000    24272735.100    95251393.891          50.000  
> 2020  6  5 17 44 27.0000000  0 17       0.000000000000
G 2  23820242.500   125176193.848          50.000                                                  
G 6  22233225.440   116836310.672          50.000    22233229.960    87247886.469          50.000  
G13  23348358.280   122696465.277          50.000                                                  
G15  23875923.460   125468595.426          50.000                                                  
G17  21117083.520   110970968.395          50.000                                                  
G19  20069443.780   105465625.258          50.000                                                  
G24  22125807.840   116271828.855          50.000    22125811.480    86826357.316          50.000  
G28  22368451.720   117547121.777          50.000                                                  
G30  24060461.120   126438485.094          50.000    24060466.060    94418337.668          50.000  
E 1  26980167.800   141781679.801          50.000    26980173.940   105875906.578          50.000  
E 5  27521683.660   144627345.906          50.000    27521691.620   108000913.699          50.000  
E 9  25925355.140   136238588.477          50.000    25925363.120   101736582.344          50.000  
E12  22772752.740   119671625.996          50.000    22772755.120    89365164.207          50.000  
E24  23154077.320   121675302.336          50.000    23154094.420    90861388.805          50.000  
E26  26538724.400   139461869.637          50.000    26538731.900   104143580.977          50.000  
E31  23804016.700   125090913.965          50.000    23804022.140    93412031.520          50.000  
E33  24272813.780   127554486.887          50.000    24272817.360    95251716.703          50.000  
> 2020  6  5 17 44 28.0000000  0 17       0.000000000000
G 2  23819600.040   125172817.766          50.000                                                  
G 6  22232679.920   116833443.953          50.000    22232684.440    87245745.746          50.000  
G13  23348950.560   122699577.680          50.000                                                  
G15  23876358.240   125470880.176          50.000                                                  
G17  21117424.140   110972758.355          50.000                                                  
G19  20069478.680   105465808.613          50.000                                                  
G24  22125346.500   116269404.492          50.000    22125350.120    86824546.922          50.000  
G28  22368747.740   117548677.320          50.000                                                  
G30  24061141.580   126442060.914          50.000    24061146.520    94421007.930          50.000  
E 1  26980524.360   141783553.590          50.000    26980530.520   105877305.836          50.000  
E 5  27521939.800   144628691.875          50.000    27521947.740   108001918.805          50.000  
E 9  25925825.040   136241057.793          50.000    25925833.020   101738426.316          50.000  
E12  22772318.880   119669346.078          50.000    22772321.260    89363461.676          50.000  
E24  23153765.240   121673662.434          50.000    23153782.360    90860164.203          50.000  
E26  26539205.980   139464400.293          50.000    26539213.460   104145470.750          50.000  
E31  23804062.360   125091153.930          50.000    23804067.800    93412210.711          50.000  
E33  24272896.140   127554919.641          50.000    24272899.720    95252039.863          50.000  
> 2020  6  5 17 44 29.0000000  0 17       0.000000000000
G 2  23818957.620   125169441.785          50.000                                                  
G 6  22232134.460   116830577.609          50.000    22232139.000    87243605.297          50.000  
G13  23349542.860   122702690.242          50.000                                                  
G15  23876793.060   125473165.176          50.000                                                  
G17  21117764.820   110974548.637          50.000                                                  
G19  20069513.680   105465992.543          50.000                                                  
G24  22124885.240   116266980.566          50.000    22124888.860    86822736.855          50.000  
G28  22369043.760   117550232.973          50.000                                                  
G30  24061822.080   126445636.914          50.000    24061827.020    94423678.316          50.000  
E 1  26980880.960   141785427.496          50.000    26980887.100   105878705.180          50.000  
E 5  27522195.980   144630038.168          50.000    27522203.940   108002924.148          50.000  
E 9  25926294.940   136243527.105          50.000    25926302.920   101740270.281          50.000  
E12  22771885.100   119667066.484          50.000    22771887.480    89361759.383          50.000  
E24  23153453.200   121672022.578          50.000    23153470.300    90858939.637          50.000  
E26  26539687.580   139466931.164          50.000    26539695.080   104147360.688          50.000  
E31  23804108.060   125091394.063          50.000    23804113.500    93412390.035          50.000  
E33  24272978.580   127555352.875          50.000    24272982.160    95252363.383          50.000  
> 2020  6  5 17 44 30.0000000  0 17       0.000000000000
G 2  23818315.200   125166065.922          50.000                                                  
G 6  22231589.100   116827711.625          50.000    22231593.620    87241465.121          50.000  
G13  23350135.200   122705802.973          50.000                                                  
G15  23877227.940   125475450.434          50.000                                                  
G17  21118105.560   110976339.230          50.000                                                  
G19  20069548.780   105466177.047          50.000                                                  
G24  22124424.060   116264557.047          50.000    22124427.680    86820927.090          50.000  
G28  22369339.820   117551788.750          50.000                                                  
G30  24062502.600   126449213.086          50.000    24062507.540    94426348.836          50.000  
E 1  26981237.580   141787301.535          50.000    26981243.740   105880104.625          50.000  
E 5  27522452.240   144631384.785          50.000    27522460.200   108003929.742          50.000  
E 9  25926764.840   136245996.395          50.000    25926772.800   101742114.230          50.000  
E12  22771451.380   119664787.238          50.000    22771453.740    89360057.348          50.000  
E24  23153141.160   121670382.785          50.000    23153158.260    90857715.117          50.000  
E26  26540169.240   139469462.266          50.000    26540176.740   104149250.793          50.000  
E31  23804153.800   125091634.395          50.000    23804159.240    93412569.504          50.000  
E33  24273061.120   127555786.594          50.000    24273064.700    95252687.266          50.000  
> 2020  6  5 17 44 31.0000000  0 17       0.000000000000
G 2  23817672.820   125162690.160          50.000                                                  
G 6  22231043.780   116824846.020          50.000    22231048.300    87239325.227          50.000  
G13  23350727.560   122708915.871          50.000                                                  
G15  23877662.860   125477735.949          50.000                                                  
G17  21118446.360   110978130.137          50.000                                                  
G19  20069584.000   105466362.105          50.000                                                  
G24  22123962.960   116262133.949          50.000    22123966.580    86819117.637          50.000  
G28  22369635.900   117553344.621          50.000                                                  
G30  24063183.160   126452789.426          50.000    24063188.100    94429019.484          50.000  
E 1  26981594.240   141789175.730          50.000    26981600.380   105881504.184          50.000  
E 5  27522708.560   144632731.723          50.000    27522716.520   108004935.570          50.000  
E 9  25927234.720   136248465.680          50.000    25927242.700   101743958.176          50.000  
E12  22771017.700   119662508.305          50.000    22771020.080    89358355.551          50.000  
E24  23152829.120   121668743.063          50.000    23152846.240    90856490.648          50.000  
E26  26540650.940   139471993.590          50.000    26540658.440   104151141.070          50.000  
E31  23804199.560   125091874.910          50.000    23804205.000    93412749.105          50.000  
E33  24273143.740   127556220.781          50.000    24273147.320    95253011.496          50.000  
> 2020  6  5 17 44 32.0000000  0 17       0.000000000000
G 2  23817030.460   125159314.516          50.000                                                  
G 6  22230498.540   116821980.781          50.000    22230503.060    87237185.605          50.000  
G13  23351319.960   122712028.930          50.000                                                  
G15  23878097.820   125480021.730          50.000                                                  
G17  21118787.220   110979921.367          50.000                                                  
G19  20069619.320   105466547.730          50.000                                                  
G24  22123501.940   116259711.266          50.000    22123505.560    86817308.496          50.000  
G28  22369931.980   117554900.605          50.000                                                  
G30  24063863.740   126456365.957          50.000    24063868.680    94431690.270          50.000  
E 1  26981950.900   141791050.051          50.000    26981957.060   105882903.836          50.000  
E 5  27522964.940   144634078.988          50.000    27522972.880   108005941.645          50.000  
E 9  25927704.620   136250934.957          50.000    25927712.600   101745802.113          50.000  
E12  22770584.120   119660229.727          50.000    22770586.480    89356654.016          50.000  
E24  23152517.100   121667103.387          50.000    23152534.220    90855266.219          50.000  
E26  26541132.680   139474525.152          50.000    26541140.180   104153031.516          50.000  
E31  23804245.380   125092115.617          50.000    23804250.820    93412928.855          50.000  
E33  24273226.460   127556655.453          50.000    24273230.040    95253336.090          50.000  
> 2020  6  5 17 44 33.0000000  0 17       0.000000000000
G 2  23816388.100   125155938.980          50.000                                                  
G 6  22229953.380   116819115.918          50.000    22229957.900    87235046.266          50.000  
G13  23351912.380   122715142.156          50.000                                                  
G15  23878532.840   125482307.762          50.000                                                  
G17  21119128.140   110981712.902          50.000                                                  
G19  20069654.760   105466733.922          50.000                                                  
G24  22123041.000   116257288.980          50.000    22123044.620    86815499.652          50.000  
G28  22370228.100   117556456.695          50.000                                                  
G30  24064544.380   126459942.652          50.000    24064549.300    94434361.184          50.000  
E 1  26982307.600   141792924.512          50.000    26982313.760   105884303.598          50.000  
E 5  27523221.380   144635426.574          50.000    27523229.320   108006947.961          50.000  
E 9  25928174.500   136253404.215          50.000    25928182.480   101747646.039          50.000  
E12  22770150.580   119657951.473          50.000    22770152.940    89354952.723          50.000  
E24  23152205.100   121665463.777          50.000    23152222.220    90854041.836          50.000  
E26  26541614.460   139477056.926          50.000    26541621.960   104154922.125          50.000  
E31  23804291.220   125092356.496          50.000    23804296.640    93413108.734          50.000  
E33  24273309.260   127557090.602          50.000    24273312.840    95253661.035          50.000  
> 2020  6  5 17 44 34.0000000  0 17       0.000000000000
G 2  23815745.780   125152563.551          50.000                                                  
G 6  22229408.280   116816251.426          50.000    22229412.800    87232907.203          50.000  
G13  23352504.840   122718255.535          50.000                                                  
G15  23878967.920   125484594.059          50.000                                                  
G17  21119469.120   110983504.762          50.000                                                  
G19  20069690.300   105466920.672          50.000                                                  
G24  22122580.120   116254867.094          50.000    22122583.740    86813691.105          50.000  
G28  22370524.240   117558012.891          50.000                                                  
G30  24065225.020   126463519.520          50.000    24065229.960    94437032.219          50.000  
E 1  26982664.340   141794799.105          50.000    26982670.480   105885703.453          50.000  
E 5  27523477.880   144636774.488          50.000    27523485.840   108007954.516          50.000  
E 9  25928644.380   136255873.465          50.000    25928652.360   101749489.961          50.000  
E12  22769717.100   119655673.563          50.000    22769719.480    89353251.684          50.000  
E24  23151893.100   121663824.227          50.000    23151910.220    90852817.496          50.000  
E26  26542096.300   139479588.934          50.000    26542103.800   104156812.910          50.000  
E31  23804337.080   125092597.566          50.000    23804342.520    93413288.754          50.000  
E33  24273392.160   127557526.227          50.000    24273395.740    95253986.340          50.000  
> 2020  6  5 17 44 35.0000000  0 17       0.000000000000
G 2  23815103.480   125149188.234          50.000                                                  
G 6  22228863.260   116813387.293          50.000    22228867.780    87230768.406          50.000  
G13  23353097.320   122721369.078          50.000                                                  
G15  23879403.020   125486880.617          50.000                                                  
G17  21119810.160   110985296.934          50.000                                                  
G19  20069725.940   105467107.984          50.000                                                  
G24  22122119.340   116252445.605          50.000    22122122.940    86811882.855          50.000  
G28  22370820.400   117559569.195          50.000                                                  
G30  24065905.720   126467096.547          50.000    24065910.660    94439703.379          50.000  
E 1  26983021.080   141796673.820          50.000    26983027.240   105887103.402          50.000  
E 5  27523734.440   144638122.719          50.000    27523742.400   108008961.313          50.000  
E 9  25929114.260   136258342.695          50.000    25929122.240   101751333.867          50.000  
E12  22769283.700   119653395.965          50.000    22769286.060    89351550.883          50.000  
E24  23151581.120   121662184.734          50.000    23151598.240    90851593.199          50.000  
E26  26542578.160   139482121.156          50.000    26542585.660   104158703.855          50.000  
E31  23804383.000   125092838.820          50.000    23804388.440    93413468.914          50.000  
E33  24273475.160   127557962.320          50.000    24273478.740    95254311.992          50.000  
> 2020  6  5 17 44 36.0000000  0 17       0.000000000000
G 2  23814461.200   125145813.023          50.000                                                  
G 6  22228318.300   116810523.535          50.000    22228322.820    87228629.891          50.000  
G13  23353689.840   122724482.793          50.000                                                  
G15  23879838.200   125489167.434          50.000                                                  
G17  21120151.260   110987089.430          50.000                                                  
G19  20069761.700   105467295.867          50.000                                                  
G24  22121658.620   116250024.547          50.000    22121662.240    86810074.930          50.000  
G28  22371116.560   117561125.613          50.000                                                  
G30  24066586.440   126470673.766          50.000    24066591.380    94442374.680          50.000  
E 1  26983377.860   141798548.688          50.000    26983384.020   105888503.465          50.000  
E 5  27523991.060   144639471.270          50.000    27523999.020   108009968.348          50.000  
E 9  25929584.140   136260811.922          50.000    25929592.120   101753177.770          50.000  
E12  22768850.340   119651118.719          50.000    22768852.720    89349850.344          50.000  
E24  23151269.160   121660545.309          50.000    23151286.260    90850368.953          50.000  
E26  26543060.080   139484653.605          50.000    26543067.580   104160594.969          50.000  
E31  23804428.940   125093080.262          50.000    23804434.380    93413649.207          50.000  
E33  24273558.240   127558398.902          50.000    24273561.820    95254638.012          50.000  
> 2020  6  5 17 44 37.0000000  0 17       0.000000000000
G 2  23813818.940   125142437.926          50.000                                                  
G 6  22227773.420   116807660.137          50.000    22227777.920    87226491.648          50.000  
G13  23354282.400   122727596.664          50.000                                                  
G15  23880273.420   125491454.516          50.000                                                  
G17  21120492.420   110988882.227          50.000                                                  
G19  20069797.540   105467484.301          50.000                                                  
G24  22121197.980   116247603.906          50.000    22121201.600    86808267.313          50.000  
G28  22371412.760   117562682.133          50.000                                                  
G30  24067267.200   126474251.152          50.000    24067272.140    94445046.109          50.000  
E 1  26983734.660   141800423.676          50.000    26983740.820   105889903.617          50.000  
E 5  27524247.760   144640820.148          50.000    27524255.700   108010975.625          50.000  
E 9  25930054.020   136263281.137          50.000    25930062.000   101755021.664          50.000  
E12  22768417.060   119648841.785          50.000    22768419.440    89348150.039          50.000  
E24  23150957.200   121658905.930          50.000    23150974.300    90849144.746          50.000  
E26  26543542.040   139487186.273          50.000    26543549.520   104162486.246          50.000  
E31  23804474.920   125093321.883          50.000    23804480.360    93413829.641          50.000  
E33  24273641.400   127558835.949          50.000    24273644.980    95254964.383          50.000  
> 2020  6  5 17 44 38.0000000  0 17       0.000000000000
G 2  23813176.700   125139062.945          50.000                                                  
G 6  22227228.600   116804797.117          50.000    22227233.100    87224353.684          50.000  
G13  23354874.980   122730710.707          50.000                                                  
G15  23880708.680   125493741.852          50.000                                                  
G17  21120833.640   110990675.344          50.000                                                  
G19  20069833.520   105467673.305          50.000                                                  
G24  22120737.420   116245183.668          50.000    22120741.040    86806459.996          50.000  
G28  22371708.980   117564238.766          50.000                                                  
G30  24067947.980   126477828.719          50.000    24067952.920    94447717.668          50.000  
E 1  26984091.480   141802298.805          50.000    26984097.640   105891303.875          50.000  
E 5  27524504.500   144642169.348          50.000    27524512.440   108011983.141          50.000  
E 9  25930523.900   136265750.328          50.000    25930531.880   101756865.539          50.000  
E12  22767983.840   119646565.215          50.000    22767986.220    89346450.000          50.000  
E24  23150645.240   121657266.621          50.000    23150662.360    90847920.586          50.000  
E26  26544024.020   139489719.172          50.000    26544031.520   104164377.695          50.000  
E31  23804520.940   125093563.695          50.000    23804526.380    93414010.215          50.000  
E33  24273724.660   127559273.480          50.000    24273728.240    95255291.109          50.000  
> 2020  6  5 17 44 39.0000000  0 17       0.000000000000
G 2  23812534.480   125135688.059          50.000                                                  
G 6  22226683.840   116801934.461          50.000    22226688.360    87222215.992          50.000  
G13  23355467.600   122733824.914          50.000                                                  
G15  23881144.000   125496029.449          50.000                                                  
G17  21121174.920   110992468.773          50.000                                                  
G19  20069869.580   105467862.875          50.000                                                  
G24  22120276.960   116242763.836          50.000    22120280.560    86804652.984          50.000  
G28  22372005.220   117565795.508          50.000                                                  
G30  24068628.800   126481406.457          50.000    24068633.740    94450389.359          50.000  
E 1  26984448.340   141804174.070          50.000    26984454.500   105892704.234          50.000  
E 5  27524761.300   144643518.875          50.000    27524769.260   108012990.906          50.000  
E 9  25930993.780   136268219.520          50.000    25931001.760   101758709.414          50.000  
E12  22767550.700   119644288.957          50.000    22767553.060    89344750.203          50.000  
E24  23150333.300   121655627.367          50.000    23150350.420    90846696.469          50.000  
E26  26544506.060   139492252.297          50.000    26544513.560   104166269.313          50.000  
E31  23804567.000   125093805.688          50.000    23804572.440    93414190.922          50.000  
E33  24273808.020   127559711.488          50.000    24273811.600    95255618.191          50.000  
> 2020  6  5 17 44 40.0000000  0 17       0.000000000000
G 2  23811892.280   125132313.305          50.000                                                  
G 6  22226139.180   116799072.188          50.000    22226143.680    87220078.586          50.000  
G13  23356060.240   122736939.273          50.000                                                  
G15  23881579.360   125498317.297          50.000                                                  
G17  21121516.260   110994262.523          50.000                                                  
G19  20069905.760   105468053.000          50.000                                                  
G24  22119816.540   116240344.410          50.000    22119820.160    86802846.277          50.000  
G28  22372301.480   117567352.355          50.000                                                  
G30  24069309.660   126484984.379          50.000    24069314.600    94453061.184          50.000  
E 1  26984805.220   141806049.473          50.000    26984811.380   105894104.695          50.000  
E 5  27525018.180   144644868.719          50.000    27525026.120   108013998.902          50.000  
E 9  25931463.640   136270688.695          50.000    25931471.620   101760553.281          50.000  
E12  22767117.600   119642013.039          50.000    22767119.980    89343050.652          50.000  
E24  23150021.380   121653988.180          50.000    23150038.480    90845472.398          50.000  
E26  26544988.160   139494785.648          50.000    26544995.640   104168161.102          50.000  
E31  23804613.080   125094047.871          50.000    23804618.520    93414371.773          50.000  
E33  24273891.460   127560149.977          50.000    24273895.040    95255945.637          50.000  
> 2020  6  5 17 44 41.0000000  0 17       0.000000000000
G 2  23811250.100   125128938.648          50.000                                                  
G 6  22225594.580   116796210.281          50.000    22225599.080    87217941.453          50.000  
G13  23356652.920   122740053.801          50.000                                                  
G15  23882014.780   125500605.402          50.000                                                  
G17  21121857.660   110996056.590          50.000                                                  
G19  20069942.060   105468243.688          50.000                                                  
G24  22119356.240   116237925.430          50.000    22119359.840    86801039.898          50.000  
G28  22372597.760   117568909.309          50.000                                                  
G30  24069990.560   126488562.461          50.000    24069995.480    94455733.129          50.000  
E 1  26985162.120   141807925.020          50.000    26985168.280   105895505.266          50.000  
E 5  27525275.100   144646218.883          50.000    27525283.060   108015007.145          50.000  
E 9  25931933.520   136273157.859          50.000    25931941.500   101762397.133          50.000  
E12  22766684.580   119639737.457          50.000    22766686.940    89341351.355          50.000  
E24  23149709.460   121652349.043          50.000    23149726.580    90844248.371          50.000  
E26  26545470.280   139497319.223          50.000    26545477.780   104170053.051          50.000  
E31  23804659.200   125094290.230          50.000    23804664.640    93414552.758          50.000  
E33  24273975.000   127560588.945          50.000    24273978.580    95256273.434          50.000  
> 2020  6  5 17 44 42.0000000  0 17       0.000000000000
G 2  23810607.940   125125564.102          50.000                                                  
G 6  22225050.040   116793348.746          50.000    22225054.540    87215804.598          50.000  
G13  23357245.620   122743168.492          50.000                                                  
G15  23882450.240   125502893.777          50.000                                                  
G17  21122199.120   110997850.965          50.000                                                  
G19  20069978.440   105468434.945          50.000                                                  
G24  22118895.980   116235506.848          50.000    22118899.600    86799233.820          50.000  
G28  22372894.060   117570466.375          50.000                                                  
G30  24070671.480   126492140.727          50.000    24070676.400    94458405.215          50.000  
E 1  26985519.060   141809800.688          50.000    26985525.220   105896905.926          50.000  
E 5  27525532.100   144647569.375          50.000    27525540.060   108016015.629          50.000  
E 9  25932403.380   136275627.012          50.000    25932411.360   101764240.980          50.000  
E12  22766251.600   119637462.207          50.000    22766253.980    89339652.309          50.000  
E24  23149397.560   121650709.969          50.000    23149414.660    90843024.387          50.000  
E26  26545952.440   139499853.012          50.000    26545959.940   104171945.168          50.000  
E31  23804705.360   125094532.777          50.000    23804710.800    93414733.883          50.000  
E33  24274058.620   127561028.383          50.000    24274062.200    95256601.586          50.000  
> 2020  6  5 17 44 43.0000000  0 17       0.000000000000
G 2  23809965.800   125122189.672          50.000                                                  
G 6  22224505.580   116790487.578          50.000    22224510.080    87213668.020          50.000  
G13  23357838.360   122746283.352          50.000                                                  
G15  23882885.760   125505182.410          50.000                                                  
G17  21122540.640   110999645.668          50.000                                                  
G19  20070014.940   105468626.754          50.000                                                  
G24  22118435.820   116233088.699          50.000    22118439.440    86797428.066          50.000  
G28  22373190.380   117572023.551          50.000                                                  
G30  24071352.420   126495719.152          50.000    24071357.360    94461077.414          50.000  
E 1  26985876.020   141811676.488          50.000    26985882.160   105898306.688          50.000  
E 5  27525789.160   144648920.191          50.000    27525797.100   108017024.355          50.000  
E 9  25932873.240   136278096.145          50.000    25932881.220   101766084.813          50.000  
E12  22765818.700   119635187.289          50.000    22765821.080    89337953.508          50.000  
E24  23149085.660   121649070.953          50.000    23149102.780    90841800.449          50.000  
E26  26546434.660   139502387.031          50.000    26546442.160   104173837.453          50.000  
E31  23804751.560   125094775.516          50.000    23804757.000    93414915.148          50.000  
E33  24274142.340   127561468.297          50.000    24274145.920    95256930.094          50.000  
> 2020  6  5 17 44 44.0000000  0 17       0.000000000000
G 2  23809323.700   125118815.336          50.000                                                  
G 6  22223961.180   116787626.781          50.000    22223965.680    87211531.715          50.000  
G13  23358431.140   122749398.371          50.000                                                  
G15  23883321.320   125507471.293          50.000                                                  
G17  21122882.220   111001440.668          50.000                                                  
G19  20070051.560   105468819.133          50.000                                                  
G24  22117975.740   116230670.930          50.000    22117979.340    86795622.594          50.000  
G28  22373486.720   117573580.844          50.000                                                  
G30  24072033.420   126499297.758          50.000    24072038.340    94463749.750          50.000  
E 1  26986233.000   141813552.438          50.000    26986239.160   105899707.555          50.000  
E 5  27526046.260   144650271.328          50.000    27526054.220   108018033.316          50.000  
E 9  25933343.100   136280565.266          50.000    25933351.080   101767928.641          50.000  
E12  22765385.860   119632912.715          50.000    22765388.240    89336254.961          50.000  
E24  23148773.780   121647432.004          50.000    23148790.900    90840576.559          50.000  
E26  26546916.900   139504921.273          50.000    26546924.400   104175729.906          50.000  
E31  23804797.780   125095018.438          50.000    23804803.220    93415096.547          50.000  
E33  24274226.140   127561908.691          50.000    24274229.720    95257258.961          50.000  
> 2020  6  5 17 44 45.0000000  0 17       0.000000000000
G 2  23808681.600   125115441.129          50.000                                                  
G 6  22223416.860   116784766.355          50.000    22223421.360    87209395.688          50.000  
G13  23359023.940   122752513.555          50.000                                                  
G15  23883756.920   125509760.441          50.000                                                  
G17  21123223.840   111003235.984          50.000                                                  
G19  20070088.280   105469012.074          50.000                                                  
G24  22117515.740   116228253.563          50.000    22117519.320    86793817.422          50.000  
G28  22373783.080   117575138.234          50.000                                                  
G30  24072714.440   126502876.543          50.000    24072719.360    94466422.223          50.000  
E 1  26986590.000   141815428.496          50.000    26986596.160   105901108.508          50.000  
E 5  27526303.440   144651622.781          50.000    27526311.400   108019042.520          50.000  
E 9  25933812.960   136283034.379          50.000    25933820.940   101769772.457          50.000  
E12  22764953.100   119630638.473          50.000    22764955.460    89334556.664          50.000  
E24  23148461.920   121645793.105          50.000    23148479.020    90839352.707          50.000  
E26  26547399.200   139507455.738          50.000    26547406.700   104177622.523          50.000  
E31  23804844.040   125095261.531          50.000    23804849.480    93415278.078          50.000  
E33  24274310.040   127562349.559          50.000    24274313.620    95257588.180          50.000  
> 2020  6  5 17 44 46.0000000  0 17       0.000000000000
G 2  23808039.520   125112067.023          50.000                                                  
G 6  22222872.600   116781906.305          50.000    22222877.100    87207259.941          50.000  
G13  23359616.760   122755628.887          50.000                                                  
G15  23884192.580   125512049.855          50.000                                                  
G17  21123565.540   111005031.613          50.000                                                  
G19  20070125.100   105469205.578          50.000                                                  
G24  22117055.800   116225836.621          50.000    22117059.400    86792012.570          50.000  
G28  22374079.460   117576695.738          50.000                                                  
G30  24073395.500   126506455.492          50.000    24073400.420    94469094.816          50.000  
E 1  26986947.040   141817304.719          50.000    26986953.200   105902509.582          50.000  
E 5  27526560.680   144652974.566          50.000    27526568.640   108020051.969          50.000  
E 9  25934282.820   136285503.473          50.000    25934290.800   101771616.258          50.000  
E12  22764520.380   119628364.563          50.000    22764522.760    89332858.617          50.000  
E24  23148150.060   121644154.281          50.000    23148167.160    90838128.910          50.000  
E26  26547881.540   139509990.430          50.000    26547889.040   104179515.313          50.000  
E31  23804890.340   125095504.832          50.000    23804895.780    93415459.766          50.000  
E33  24274394.020   127562790.910          50.000    24274397.600    95257917.762          50.000  
> 2020  6  5 17 44 47.0000000  0 17       0.000000000000
G 2  23807397.480   125108693.035          50.000                                                  
G 6  22222328.420   116779046.625          50.000    22222332.920    87205124.469          50.000  
G13  23360209.620   122758744.391          50.000                                                  
G15  23884628.300   125514339.523          50.000                                                  
G17  21123907.300   111006827.559          50.000                                                  
G19  20070162.020   105469399.648          50.000                                                  
G24  22116595.960   116223420.098          50.000    22116599.540    86790208.023          50.000  
G28  22374375.880   117578253.355          50.000                                                  
G30  24074076.580   126510034.629          50.000    24074081.520    94471767.547          50.000  
E 1  26987304.100   141819181.063          50.000    26987310.260   105903910.746          50.000  
E 5  27526817.980   144654326.676          50.000    27526825.940   108021061.660          50.000  
E 9  25934752.680   136287972.563          50.000    25934760.660   101773460.059          50.000  
E12  22764087.740   119626090.984          50.000    22764090.120    89331160.816          50.000  
E24  23147838.220   121642515.520          50.000    23147855.320    90836905.160          50.000  
E26  26548363.920   139512525.348          50.000    26548371.420   104181408.270          50.000  
E31  23804936.680   125095748.301          50.000    23804942.120    93415641.574          50.000  
E33  24274478.100   127563232.727          50.000    24274481.680    95258247.688          50.000  
> 2020  6  5 17 44 48.0000000  0 17       0.000000000000
G 2  23806755.440   125105319.160          50.000                                                  
G 6  22221784.320   116776187.305          50.000    22221788.820    87202989.262          50.000  
G13  23360802.520   122761860.059          50.000                                                  
G15  23885064.060   125516629.441          50.000                                                  
G17  21124249.120   111008623.809          50.000                                                  
G19  20070199.060   105469594.277          50.000                                                  
G24  22116136.180   116221003.977          50.000    22116139.780    86788403.781          50.000  
G28  22374672.300   117579811.074          50.000                                                  
G30  24074757.700   126513613.914          50.000    24074762.620    94474440.387          50.000  
E 1  26987661.180   141821057.539          50.000    26987667.340   105905312.012          50.000  
E 5  27527075.340   144655679.098          50.000    27527083.300   108022071.586          50.000  
E 9  25935222.520   136290441.633          50.000    25935230.500   101775303.848          50.000  
E12  22763655.160   119623817.730          50.000    22763657.520    89329463.258          50.000  
E24  23147526.380   121640876.789          50.000    23147543.480    90835681.434          50.000  
E26  26548846.340   139515060.480          50.000    26548853.840   104183301.387          50.000  
E31  23804983.040   125095991.953          50.000    23804988.480    93415823.523          50.000  
E33  24274562.280   127563675.023          50.000    24274565.860    95258577.973          50.000  
