     3.03           OBSERVATION DATA    M: Mixed            RINEX VERSION / TYPE
sbp2rinex v2.2 (RTKL                    20210504 171525 UTC PGM / RUN BY / DATE 
log: 2020-05-29-US-MTV-2.sbp                                COMMENT             
format: Swift Navigation SBP, option: CONVBASE,EPHALL,OBSALLCOMMENT             
                                                            MARKER NAME         
                                                            MARKER NUMBER       
                                                            MARKER TYPE         
                                                            OBSERVER / AGENCY   
                                                            REC # / TYPE / VERS 
                                                            ANT # / TYPE        
 -2742494.8151 -4329263.4988  3784240.0183                  APPROX POSITION XYZ 
        0.0000        0.0000        0.0000                  ANTENNA: DELTA H/E/N
G    6 C1C L1C S1C C5I L5I S5I                              SYS / # / OBS TYPES 
E    6 C1B L1B S1B C5I L5I S5I                              SYS / # / OBS TYPES 
  2020     5    29    23    27    0.0000000     GPS         TIME OF FIRST OBS   
  2020     5    30     0     1   13.0000000     GPS         TIME OF LAST OBS    
G                                                           SYS / PHASE SHIFT   
E                                                           SYS / PHASE SHIFT   
  0                                                         GLONASS SLOT / FRQ #
 C1C    0.000 C1P    0.000 C2C    0.000 C2P    0.000        GLONASS COD/PHS/BIS 
                                                            END OF HEADER       
> 2020  5 29 23 27  0.0000000  0 14       0.000000000000
G 2  24431722.820   128389570.980          50.000                                                  
G 5  21438567.420   112660347.578          50.000                                                  
G12  22714398.040   119364945.488          50.000                                                  
G21  23331791.120   122609380.746          50.000                                                  
G25  21188116.300   111344235.438          50.000    21188119.100    83146666.406          50.000  
G29  20630775.000   108415448.359          50.000                                                  
G31  24805318.200   130352737.238          50.000                                                  
E 2  24271145.300   127545716.363          50.000    24271149.240    95245167.086          50.000  
E 4  27393448.800   143953528.102          50.000    27393453.000   107497751.879          50.000  
E 9  24545160.760   128985646.078          50.000    24545166.600    96320432.477          50.000  
E11  25328453.260   133101931.137          50.000    25328454.160    99394289.609          50.000  
E25  26611787.300   139845815.445          50.000    26611795.380   104430292.063          50.000  
E30  24710333.340   129853644.645          50.000    24710338.380    96968615.766          50.000  
E36  23546397.280   123737117.902          50.000    23546402.300    92401081.488          50.000  
> 2020  5 29 23 27  1.0000000  0 14       0.000000000000
G 2  24432191.020   128392031.367          50.000                                                  
G 5  21438874.480   112661961.164          50.000                                                  
G12  22715064.720   119368448.922          50.000                                                  
G21  23331409.880   122607377.340          50.000                                                  
G25  21188562.920   111346582.391          50.000    21188565.720    83148419.000          50.000  
G29  20630600.280   108414530.109          50.000                                                  
G31  24805578.360   130354104.418          50.000                                                  
E 2  24271398.720   127547048.055          50.000    24271402.660    95246161.527          50.000  
E 4  27393453.220   143953551.344          50.000    27393457.420   107497769.234          50.000  
E 9  24544770.260   128983594.008          50.000    24544776.100    96318900.090          50.000  
E11  25328807.060   133103790.359          50.000    25328807.960    99395677.988          50.000  
E25  26612372.700   139848891.730          50.000    26612380.780   104432589.289          50.000  
E30  24710076.840   129852296.734          50.000    24710081.880    96967609.211          50.000  
E36  23546479.500   123737550.035          50.000    23546484.520    92401404.184          50.000  
> 2020  5 29 23 27  2.0000000  0 14       0.000000000000
G 2  24432659.220   128394491.723          50.000                                                  
G 5  21439181.640   112663575.379          50.000                                                  
G12  22715731.460   119371952.617          50.000                                                  
G21  23331028.680   122605374.168          50.000                                                  
G25  21189009.620   111348929.852          50.000    21189012.420    83150171.973          50.000  
G29  20630425.580   108413612.145          50.000                                                  
G31  24805838.600   130355471.996          50.000                                                  
E 2  24271652.220   127548380.188          50.000    24271656.140    95247156.301          50.000  
E 4  27393457.740   143953575.027          50.000    27393461.920   107497786.918          50.000  
E 9  24544379.800   128981542.180          50.000    24544385.640    96317367.883          50.000  
E11  25329160.860   133105649.578          50.000    25329161.760    99397066.363          50.000  
E25  26612958.120   139851968.117          50.000    26612966.200   104434886.586          50.000  
E30  24709820.420   129850949.254          50.000    24709825.460    96966602.977          50.000  
E36  23546561.760   123737982.281          50.000    23546566.780    92401726.965          50.000  
> 2020  5 29 23 27  3.0000000  0 14       0.000000000000
G 2  24433127.400   128396952.047          50.000                                                  
G 5  21439488.940   112665190.176          50.000                                                  
G12  22716398.240   119375456.582          50.000                                                  
G21  23330647.540   122603371.230          50.000                                                  
G25  21189456.420   111351277.813          50.000    21189459.220    83151925.320          50.000  
G29  20630250.960   108412694.457          50.000                                                  
G31  24806098.920   130356839.965          50.000                                                  
E 2  24271905.800   127549712.777          50.000    24271909.740    95248151.418          50.000  
E 4  27393462.320   143953599.156          50.000    27393466.520   107497804.938          50.000  
E 9  24543989.400   128979490.605          50.000    24543995.240    96315835.859          50.000  
E11  25329514.660   133107508.805          50.000    25329515.560    99398454.746          50.000  
E25  26613543.540   139855044.566          50.000    26613551.620   104437183.934          50.000  
E30  24709564.100   129849602.195          50.000    24709569.140    96965597.055          50.000  
E36  23546644.040   123738414.641          50.000    23546649.060    92402049.832          50.000  
> 2020  5 29 23 27  4.0000000  0 14       0.000000000000
G 2  24433595.580   128399412.344          50.000                                                  
G 5  21439796.340   112666805.613          50.000                                                  
G12  22717065.080   119378960.797          50.000                                                  
G21  23330266.440   122601368.520          50.000                                                  
G25  21189903.320   111353626.277          50.000    21189906.120    83153679.043          50.000  
G29  20630076.380   108411777.078          50.000                                                  
G31  24806359.320   130358208.340          50.000                                                  
E 2  24272159.460   127551045.781          50.000    24272163.400    95249146.840          50.000  
E 4  27393467.000   143953623.730          50.000    27393471.180   107497823.289          50.000  
E 9  24543599.040   128977439.254          50.000    24543604.880    96314304.012          50.000  
E11  25329868.460   133109368.023          50.000    25329869.360    99399843.125          50.000  
E25  26614129.000   139858121.137          50.000    26614137.080   104439481.367          50.000  
E30  24709307.840   129848255.563          50.000    24709312.880    96964591.453          50.000  
E36  23546726.320   123738847.105          50.000    23546731.360    92402372.773          50.000  
> 2020  5 29 23 27  5.0000000  0 14       0.000000000000
G 2  24434063.760   128401872.605          50.000                                                  
G 5  21440103.860   112668421.645          50.000                                                  
G12  22717731.960   119382465.270          50.000                                                  
G21  23329885.360   122599366.035          50.000                                                  
G25  21190350.320   111355975.242          50.000    21190353.120    83155433.141          50.000  
G29  20629901.860   108410859.973          50.000                                                  
G31  24806619.780   130359577.113          50.000                                                  
E 2  24272413.200   127552379.234          50.000    24272417.140    95250142.602          50.000  
E 4  27393471.760   143953648.750          50.000    27393475.940   107497841.973          50.000  
E 9  24543208.740   128975388.160          50.000    24543214.580    96312772.352          50.000  
E11  25330222.260   133111227.223          50.000    25330223.160    99401231.488          50.000  
E25  26614714.460   139861197.781          50.000    26614722.540   104441778.859          50.000  
E30  24709051.660   129846909.359          50.000    24709056.700    96963586.172          50.000  
E36  23546808.640   123739279.676          50.000    23546813.660    92402695.797          50.000  
> 2020  5 29 23 27  6.0000000  0 14       0.000000000000
G 2  24434531.920   128404332.844          50.000                                                  
G 5  21440411.500   112670038.289          50.000                                                  
G12  22718398.880   119385970.004          50.000                                                  
G21  23329504.360   122597363.777          50.000                                                  
G25  21190797.400   111358324.723          50.000    21190800.200    83157187.621          50.000  
G29  20629727.400   108409943.148          50.000                                                  
G31  24806880.320   130360946.285          50.000                                                  
E 2  24272667.040   127553713.137          50.000    24272670.980    95251138.695          50.000  
E 4  27393476.600   143953674.211          50.000    27393480.800   107497860.988          50.000  
E 9  24542818.460   128973337.305          50.000    24542824.300    96311240.871          50.000  
E11  25330576.060   133113086.434          50.000    25330576.960    99402619.859          50.000  
E25  26615299.960   139864274.531          50.000    26615308.040   104444076.430          50.000  
E30  24708795.560   129845563.586          50.000    24708800.600    96962581.215          50.000  
E36  23546890.980   123739712.348          50.000    23546896.000    92403018.898          50.000  
> 2020  5 29 23 27  7.0000000  0 14       0.000000000000
G 2  24435000.080   128406793.055          50.000                                                  
G 5  21440719.240   112671655.531          50.000                                                  
G12  22719065.860   119389474.984          50.000                                                  
G21  23329123.380   122595361.754          50.000                                                  
G25  21191244.600   111360674.699          50.000    21191247.400    83158942.473          50.000  
G29  20629553.000   108409026.617          50.000                                                  
G31  24807140.940   130362315.852          50.000                                                  
E 2  24272920.960   127555047.453          50.000    24272924.880    95252135.102          50.000  
E 4  27393481.540   143953700.113          50.000    27393485.720   107497880.328          50.000  
E 9  24542428.240   128971286.695          50.000    24542434.080    96309709.574          50.000  
E11  25330929.840   133114945.633          50.000    25330930.740    99404008.219          50.000  
E25  26615885.460   139867351.371          50.000    26615893.540   104446374.066          50.000  
E30  24708539.560   129844218.230          50.000    24708544.600    96961576.563          50.000  
E36  23546973.340   123740145.125          50.000    23546978.360    92403342.078          50.000  
> 2020  5 29 23 27  8.0000000  0 14       0.000000000000
G 2  24435468.240   128409253.242          50.000                                                  
G 5  21441027.120   112673273.383          50.000                                                  
G12  22719732.900   119392980.234          50.000                                                  
G21  23328742.440   122593359.965          50.000                                                  
G25  21191691.880   111363025.176          50.000    21191694.680    83160697.695          50.000  
G29  20629378.640   108408110.367          50.000                                                  
G31  24807401.640   130363685.824          50.000                                                  
E 2  24273174.960   127556382.215          50.000    24273178.880    95253131.840          50.000  
E 4  27393486.540   143953726.469          50.000    27393490.740   107497900.012          50.000  
E 9  24542038.080   128969236.332          50.000    24542043.920    96308178.461          50.000  
E11  25331283.640   133116804.824          50.000    25331284.540    99405396.578          50.000  
E25  26616470.980   139870428.289          50.000    26616479.060   104448671.766          50.000  
E30  24708283.620   129842873.313          50.000    24708288.660    96960572.242          50.000  
E36  23547055.720   123740578.023          50.000    23547060.740    92403665.344          50.000  
> 2020  5 29 23 27  9.0000000  0 14       0.000000000000
G 2  24435936.400   128411713.395          50.000                                                  
G 5  21441335.100   112674891.828          50.000                                                  
G12  22720399.960   119396485.742          50.000                                                  
G21  23328361.560   122591358.402          50.000                                                  
G25  21192139.260   111365376.160          50.000    21192142.060    83162453.301          50.000  
G29  20629204.340   108407194.406          50.000                                                  
G31  24807662.420   130365056.180          50.000                                                  
E 2  24273429.020   127557717.406          50.000    24273432.960    95254128.898          50.000  
E 4  27393491.640   143953753.262          50.000    27393495.840   107497920.020          50.000  
E 9  24541647.940   128967186.211          50.000    24541653.780    96306647.527          50.000  
E11  25331637.440   133118664.020          50.000    25331638.340    99406784.934          50.000  
E25  26617056.520   139873505.301          50.000    26617064.600   104450969.527          50.000  
E30  24708027.780   129841528.820          50.000    24708032.820    96959568.242          50.000  
E36  23547138.100   123741011.016          50.000    23547143.140    92403988.684          50.000  
> 2020  5 29 23 27 10.0000000  0 14       0.000000000000
G 2  24436404.540   128414173.512          50.000                                                  
G 5  21441643.200   112676510.871          50.000                                                  
G12  22721067.100   119399991.492          50.000                                                  
G21  23327980.720   122589357.078          50.000                                                  
G25  21192586.720   111367727.637          50.000    21192589.520    83164209.273          50.000  
G29  20629030.080   108406278.734          50.000                                                  
G31  24807923.260   130366426.949          50.000                                                  
E 2  24273683.200   127559053.043          50.000    24273687.120    95255126.289          50.000  
E 4  27393496.840   143953780.496          50.000    27393501.020   107497940.355          50.000  
E 9  24541257.860   128965136.324          50.000    24541263.700    96305116.770          50.000  
E11  25331991.220   133120523.199          50.000    25331992.120    99408173.285          50.000  
E25  26617642.060   139876582.402          50.000    26617650.160   104453267.363          50.000  
E30  24707772.000   129840184.750          50.000    24707777.040    96958564.551          50.000  
E36  23547220.520   123741444.117          50.000    23547225.540    92404312.102          50.000  
> 2020  5 29 23 27 11.0000000  0 14       0.000000000000
G 2  24436872.680   128416633.605          50.000                                                  
G 5  21441951.400   112678130.516          50.000                                                  
G12  22721734.260   119403497.516          50.000                                                  
G21  23327599.920   122587355.980          50.000                                                  
G25  21193034.300   111370079.613          50.000    21193037.100    83165965.617          50.000  
G29  20628855.900   108405363.352          50.000                                                  
G31  24808184.180   130367798.109          50.000                                                  
E 2  24273937.440   127560389.129          50.000    24273941.380    95256124.012          50.000  
E 4  27393502.100   143953808.172          50.000    27393506.280   107497961.023          50.000  
E 9  24540867.840   128963086.684          50.000    24540873.660    96303586.195          50.000  
E11  25332345.020   133122382.383          50.000    25332345.920    99409561.637          50.000  
E25  26618227.640   139879659.598          50.000    26618235.740   104455565.266          50.000  
E30  24707516.320   129838841.109          50.000    24707521.360    96957561.184          50.000  
E36  23547302.960   123741877.320          50.000    23547307.980    92404635.598          50.000  
> 2020  5 29 23 27 12.0000000  0 14       0.000000000000
G 2  24437340.820   128419093.668          50.000                                                  
G 5  21442259.720   112679750.781          50.000                                                  
G12  22722401.500   119407003.801          50.000                                                  
G21  23327219.180   122585355.117          50.000                                                  
G25  21193481.960   111372432.105          50.000    21193484.760    83167722.348          50.000  
G29  20628681.760   108404448.238          50.000                                                  
G31  24808445.180   130369169.676          50.000                                                  
E 2  24274191.780   127561725.633          50.000    24274195.700    95257122.051          50.000  
E 4  27393507.440   143953836.293          50.000    27393511.640   107497982.023          50.000  
E 9  24540477.840   128961037.289          50.000    24540483.680    96302055.805          50.000  
E11  25332698.800   133124241.566          50.000    25332699.700    99410949.984          50.000  
E25  26618813.240   139882736.883          50.000    26618821.320   104457863.234          50.000  
E30  24707260.720   129837497.887          50.000    24707265.760    96956558.133          50.000  
E36  23547385.420   123742310.641          50.000    23547390.440    92404959.184          50.000  
> 2020  5 29 23 27 13.0000000  0 14       0.000000000000
G 2  24437808.960   128421553.703          50.000                                                  
G 5  21442568.160   112681371.641          50.000                                                  
G12  22723068.760   119410510.336          50.000                                                  
G21  23326838.460   122583354.496          50.000                                                  
G25  21193929.720   111374785.086          50.000    21193932.520    83169479.441          50.000  
G29  20628507.680   108403533.438          50.000                                                  
G31  24808706.260   130370541.637          50.000                                                  
E 2  24274446.180   127563062.586          50.000    24274450.120    95258120.426          50.000  
E 4  27393512.880   143953864.859          50.000    27393517.080   107498003.355          50.000  
E 9  24540087.900   128958988.145          50.000    24540093.740    96300525.602          50.000  
E11  25333052.600   133126100.727          50.000    25333053.500    99412338.316          50.000  
E25  26619398.840   139885814.258          50.000    26619406.920   104460161.270          50.000  
E30  24707005.200   129836155.102          50.000    24707010.220    96955555.402          50.000  
E36  23547467.900   123742744.059          50.000    23547472.920    92405282.836          50.000  
> 2020  5 29 23 27 14.0000000  0 14       0.000000000000
G 2  24438277.080   128424013.715          50.000                                                  
G 5  21442876.720   112682993.109          50.000                                                  
G12  22723736.100   119414017.137          50.000                                                  
G21  23326457.800   122581354.113          50.000                                                  
G25  21194377.580   111377138.590          50.000    21194380.380    83171236.930          50.000  
G29  20628333.640   108402618.906          50.000                                                  
G31  24808967.420   130371913.988          50.000                                                  
E 2  24274700.680   127564399.969          50.000    24274704.620    95259119.117          50.000  
E 4  27393518.400   143953893.871          50.000    27393522.600   107498025.020          50.000  
E 9  24539698.000   128956939.238          50.000    24539703.840    96298995.578          50.000  
E11  25333406.380   133127959.887          50.000    25333407.280    99413726.652          50.000  
E25  26619984.460   139888891.723          50.000    26619992.560   104462459.375          50.000  
E30  24706749.740   129834812.730          50.000    24706754.780    96954552.980          50.000  
E36  23547550.380   123743177.582          50.000    23547555.420    92405606.574          50.000  
> 2020  5 29 23 27 15.0000000  0 14       0.000000000000
G 2  24438745.200   128426473.688          50.000                                                  
G 5  21443185.380   112684615.180          50.000                                                  
G12  22724403.460   119417524.188          50.000                                                  
G21  23326077.180   122579353.957          50.000                                                  
G25  21194825.520   111379492.590          50.000    21194828.320    83172994.789          50.000  
G29  20628159.660   108401704.668          50.000                                                  
G31  24809228.640   130373286.738          50.000                                                  
E 2  24274955.260   127565737.789          50.000    24274959.200    95260118.141          50.000  
E 4  27393524.000   143953923.328          50.000    27393528.200   107498047.016          50.000  
E 9  24539308.160   128954890.578          50.000    24539314.000    96297465.734          50.000  
E11  25333760.160   133129819.043          50.000    25333761.060    99415114.980          50.000  
E25  26620570.100   139891969.277          50.000    26620578.200   104464757.547          50.000  
E30  24706494.380   129833470.797          50.000    24706499.420    96953550.891          50.000  
E36  23547632.900   123743611.227          50.000    23547637.940    92405930.398          50.000  
> 2020  5 29 23 27 16.0000000  0 14       0.000000000000
G 2  24439213.320   128428933.641          50.000                                                  
G 5  21443494.180   112686237.852          50.000                                                  
G12  22725070.880   119421031.500          50.000                                                  
G21  23325696.620   122577354.039          50.000                                                  
G25  21195273.580   111381847.094          50.000    21195276.380    83174753.020          50.000  
G29  20627985.740   108400790.719          50.000                                                  
G31  24809489.940   130374659.895          50.000                                                  
E 2  24275209.920   127567076.043          50.000    24275213.860    95261117.484          50.000  
E 4  27393529.700   143953953.227          50.000    27393533.880   107498069.344          50.000  
E 9  24538918.360   128952842.164          50.000    24538924.200    96295936.074          50.000  
E11  25334113.960   133131678.203          50.000    25334114.860    99416503.316          50.000  
E25  26621155.760   139895046.930          50.000    26621163.860   104467055.789          50.000  
E30  24706239.100   129832129.285          50.000    24706244.140    96952549.113          50.000  
E36  23547715.440   123744044.965          50.000    23547720.480    92406254.293          50.000  
> 2020  5 29 23 27 17.0000000  0 14       0.000000000000
G 2  24439681.420   128431393.555          50.000                                                  
G 5  21443803.080   112687861.113          50.000                                                  
G12  22725738.360   119424539.066          50.000                                                  
G21  23325316.080   122575354.340          50.000                                                  
G25  21195721.720   111384202.086          50.000    21195724.520    83176511.617          50.000  
G29  20627811.880   108399877.047          50.000                                                  
G31  24809751.320   130376033.453          50.000                                                  
E 2  24275464.660   127568414.742          50.000    24275468.600    95262117.164          50.000  
E 4  27393535.480   143953983.566          50.000    27393539.660   107498092.000          50.000  
E 9  24538528.600   128950793.992          50.000    24538534.440    96294406.598          50.000  
E11  25334467.740   133133537.359          50.000    25334468.640    99417891.645          50.000  
E25  26621741.440   139898124.672          50.000    26621749.540   104469354.102          50.000  
E30  24705983.900   129830788.203          50.000    24705988.940    96951547.656          50.000  
E36  23547798.000   123744478.813          50.000    23547803.040    92406578.273          50.000  
> 2020  5 29 23 27 18.0000000  0 14       0.000000000000
G 2  24440149.520   128433853.441          50.000                                                  
G 5  21444112.100   112689485.020          50.000                                                  
G12  22726405.880   119428046.895          50.000                                                  
G21  23324935.600   122573354.871          50.000                                                  
G25  21196169.960   111386557.594          50.000    21196172.760    83178270.598          50.000  
G29  20627638.080   108398963.664          50.000                                                  
G31  24810012.780   130377407.406          50.000                                                  
E 2  24275719.500   127569753.871          50.000    24275723.440    95263117.160          50.000  
E 4  27393541.340   143954014.355          50.000    27393545.520   107498114.992          50.000  
E 9  24538138.900   128948746.066          50.000    24538144.720    96292877.309          50.000  
E11  25334821.520   133135396.504          50.000    25334822.420    99419279.969          50.000  
E25  26622327.140   139901202.492          50.000    26622335.220   104471652.469          50.000  
E30  24705728.780   129829447.547          50.000    24705733.820    96950546.516          50.000  
E36  23547880.580   123744912.773          50.000    23547885.620    92406902.332          50.000  
> 2020  5 29 23 27 19.0000000  0 14       0.000000000000
G 2  24440617.620   128436313.305          50.000                                                  
G 5  21444421.220   112691109.527          50.000                                                  
G12  22727073.440   119431554.973          50.000                                                  
G21  23324555.140   122571355.637          50.000                                                  
G25  21196618.280   111388913.602          50.000    21196621.080    83180029.953          50.000  
G29  20627464.320   108398050.574          50.000                                                  
G31  24810274.320   130378781.750          50.000                                                  
E 2  24275974.400   127571093.445          50.000    24275978.340    95264117.492          50.000  
E 4  27393547.280   143954045.602          50.000    27393551.460   107498138.324          50.000  
E 9  24537749.240   128946698.387          50.000    24537755.060    96291348.195          50.000  
E11  25335175.300   133137255.656          50.000    25335176.200    99420668.293          50.000  
E25  26622912.840   139904280.398          50.000    26622920.940   104473950.906          50.000  
E30  24705473.740   129828107.324          50.000    24705478.780    96949545.703          50.000  
E36  23547963.180   123745346.832          50.000    23547968.200    92407226.465          50.000  
> 2020  5 29 23 27 20.0000000  0 14       0.000000000000
G 2  24441085.700   128438773.137          50.000                                                  
G 5  21444730.480   112692734.637          50.000                                                  
G12  22727741.060   119435063.320          50.000                                                  
G21  23324174.740   122569356.625          50.000                                                  
G25  21197066.720   111391270.105          50.000    21197069.520    83181789.680          50.000  
G29  20627290.620   108397137.773          50.000                                                  
G31  24810535.920   130380156.492          50.000                                                  
E 2  24276229.400   127572433.449          50.000    24276233.340    95265118.141          50.000  
E 4  27393553.300   143954077.258          50.000    27393557.480   107498161.965          50.000  
E 9  24537359.620   128944650.945          50.000    24537365.440    96289819.266          50.000  
E11  25335529.100   133139114.785          50.000    25335529.980    99422056.605          50.000  
E25  26623498.560   139907358.398          50.000    26623506.660   104476249.410          50.000  
E30  24705218.800   129826767.527          50.000    24705223.820    96948545.203          50.000  
E36  23548045.800   123745781.000          50.000    23548050.820    92407550.684          50.000  
> 2020  5 29 23 27 21.0000000  0 14       0.000000000000
G 2  24441553.800   128441232.938          50.000                                                  
G 5  21445039.840   112694360.359          50.000                                                  
G12  22728408.720   119438571.906          50.000                                                  
G21  23323794.400   122567357.844          50.000                                                  
G25  21197515.240   111393627.113          50.000    21197518.040    83183549.781          50.000  
G29  20627116.960   108396225.254          50.000                                                  
G31  24810797.600   130381531.633          50.000                                                  
E 2  24276484.480   127573773.895          50.000    24276488.420    95266119.125          50.000  
E 4  27393559.420   143954109.371          50.000    27393563.600   107498185.945          50.000  
E 9  24536970.040   128942603.754          50.000    24536975.880    96288290.520          50.000  
E11  25335882.880   133140973.914          50.000    25335883.780    99423444.914          50.000  
E25  26624084.300   139910436.488          50.000    26624092.400   104478547.980          50.000  
E30  24704963.920   129825428.152          50.000    24704968.960    96947545.023          50.000  
E36  23548128.440   123746215.273          50.000    23548133.460    92407874.980          50.000  
> 2020  5 29 23 27 22.0000000  0 14       0.000000000000
G 2  24442021.880   128443692.699          50.000                                                  
G 5  21445349.320   112695986.695          50.000                                                  
G12  22729076.440   119442080.742          50.000                                                  
G21  23323414.080   122565359.297          50.000                                                  
G25  21197963.860   111395984.617          50.000    21197966.660    83185310.254          50.000  
G29  20626943.380   108395313.023          50.000                                                  
G31  24811059.360   130382907.160          50.000                                                  
E 2  24276739.640   127575114.777          50.000    24276743.580    95267120.434          50.000  
E 4  27393565.600   143954141.938          50.000    27393569.800   107498210.266          50.000  
E 9  24536580.520   128940556.801          50.000    24536586.360    96286761.953          50.000  
E11  25336236.660   133142833.043          50.000    25336237.560    99424833.223          50.000  
E25  26624670.060   139913514.668          50.000    26624678.160   104480846.617          50.000  
E30  24704709.120   129824089.203          50.000    24704714.160    96946545.160          50.000  
E36  23548211.100   123746649.652          50.000    23548216.120    92408199.352          50.000  
> 2020  5 29 23 27 23.0000000  0 14       0.000000000000
G 2  24442489.940   128446152.445          50.000                                                  
G 5  21445658.920   112697613.617          50.000                                                  
G12  22729744.200   119445589.855          50.000                                                  
G21  23323033.800   122563360.969          50.000                                                  
G25  21198412.580   111398342.625          50.000    21198415.380    83187071.105          50.000  
G29  20626769.840   108394401.094          50.000                                                  
G31  24811321.180   130384283.094          50.000                                                  
E 2  24276994.880   127576456.090          50.000    24276998.820    95268122.059          50.000  
E 4  27393571.900   143954174.953          50.000    27393576.080   107498234.918          50.000  
E 9  24536191.040   128938510.090          50.000    24536196.880    96285233.566          50.000  
E11  25336590.440   133144692.180          50.000    25336591.340    99426221.539          50.000  
E25  26625255.840   139916592.941          50.000    26625263.940   104483145.324          50.000  
E30  24704454.420   129822750.684          50.000    24704459.440    96945545.617          50.000  
E36  23548293.780   123747084.145          50.000    23548298.800    92408523.813          50.000  
> 2020  5 29 23 27 24.0000000  0 14       0.000000000000
G 2  24442958.020   128448612.156          50.000                                                  
G 5  21445968.620   112699241.133          50.000                                                  
G12  22730412.000   119449099.215          50.000                                                  
G21  23322653.580   122561362.871          50.000                                                  
G25  21198861.380   111400701.145          50.000    21198864.180    83188832.336          50.000  
G29  20626596.360   108393489.441          50.000                                                  
G31  24811583.080   130385659.418          50.000                                                  
E 2  24277250.220   127577797.848          50.000    24277254.160    95269124.023          50.000  
E 4  27393578.260   143954208.406          50.000    27393582.440   107498259.902          50.000  
E 9  24535801.620   128936463.641          50.000    24535807.460    96283705.375          50.000  
E11  25336944.220   133146551.301          50.000    25336945.120    99427609.844          50.000  
E25  26625841.640   139919671.305          50.000    26625849.740   104485444.102          50.000  
E30  24704199.780   129821412.598          50.000    24704204.820    96944546.398          50.000  
E36  23548376.480   123747518.734          50.000    23548381.500    92408848.344          50.000  
> 2020  5 29 23 27 25.0000000  0 14       0.000000000000
G 2  24443426.080   128451071.836          50.000                                                  
G 5  21446278.440   112700869.238          50.000                                                  
G12  22731079.860   119452608.840          50.000                                                  
G21  23322273.400   122559364.992          50.000                                                  
G25  21199310.280   111403060.164          50.000    21199313.100    83190593.938          50.000  
G29  20626422.940   108392578.078          50.000                                                  
G31  24811845.080   130387036.145          50.000                                                  
E 2  24277505.620   127579140.051          50.000    24277509.560    95270126.316          50.000  
E 4  27393584.700   143954242.293          50.000    27393588.900   107498285.207          50.000  
E 9  24535412.240   128934417.430          50.000    24535418.060    96282177.363          50.000  
E11  25337298.000   133148410.414          50.000    25337298.900    99428998.141          50.000  
E25  26626427.440   139922749.750          50.000    26626435.540   104487742.938          50.000  
E30  24703945.240   129820074.934          50.000    24703950.260    96943547.496          50.000  
E36  23548459.200   123747953.441          50.000    23548464.240    92409172.961          50.000  
> 2020  5 29 23 27 26.0000000  0 14       0.000000000000
G 2  24443894.140   128453531.484          50.000                                                  
G 5  21446588.380   112702497.977          50.000                                                  
G12  22731747.780   119456118.719          50.000                                                  
G21  23321893.260   122557367.352          50.000                                                  
G25  21199759.280   111405419.676          50.000    21199762.100    83192355.910          50.000  
G29  20626249.560   108391667.008          50.000                                                  
G31  24812107.140   130388413.277          50.000                                                  
E 2  24277761.120   127580482.660          50.000    24277765.060    95271128.914          50.000  
E 4  27393591.240   143954276.625          50.000    27393595.420   107498310.844          50.000  
E 9  24535022.900   128932371.457          50.000    24535028.740    96280649.527          50.000  
E11  25337651.760   133150269.523          50.000    25337652.660    99430386.438          50.000  
E25  26627013.280   139925828.285          50.000    26627021.380   104490041.840          50.000  
E30  24703690.760   129818737.707          50.000    24703695.800    96942548.918          50.000  
E36  23548541.940   123748388.246          50.000    23548546.980    92409497.656          50.000  
> 2020  5 29 23 27 27.0000000  0 14       0.000000000000
G 2  24444362.180   128455991.109          50.000                                                  
G 5  21446898.420   112704127.305          50.000                                                  
G12  22732415.740   119459628.852          50.000                                                  
G21  23321513.160   122555369.938          50.000                                                  
G25  21200208.380   111407779.695          50.000    21200211.200    83194118.262          50.000  
G29  20626076.240   108390756.223          50.000                                                  
G31  24812369.260   130389790.797          50.000                                                  
E 2  24278016.700   127581825.734          50.000    24278020.640    95272131.859          50.000  
E 4  27393597.860   143954311.410          50.000    27393602.040   107498336.820          50.000  
E 9  24534633.620   128930325.734          50.000    24534639.440    96279121.879          50.000  
E11  25338005.540   133152128.629          50.000    25338006.440    99431774.727          50.000  
E25  26627599.120   139928906.926          50.000    26627607.220   104492340.824          50.000  
E30  24703436.380   129817400.898          50.000    24703441.420    96941550.652          50.000  
E36  23548624.700   123748823.160          50.000    23548629.740    92409822.430          50.000  
> 2020  5 29 23 27 28.0000000  0 14       0.000000000000
G 2  24444830.240   128458450.699          50.000                                                  
G 5  21447208.580   112705757.223          50.000                                                  
G12  22733083.740   119463139.246          50.000                                                  
G21  23321133.100   122553372.754          50.000                                                  
G25  21200657.580   111410140.219          50.000    21200660.380    83195880.988          50.000  
G29  20625902.980   108389845.723          50.000                                                  
G31  24812631.480   130391168.715          50.000                                                  
E 2  24278272.360   127583169.230          50.000    24278276.300    95273135.117          50.000  
E 4  27393604.560   143954346.645          50.000    27393608.760   107498363.133          50.000  
E 9  24534244.360   128928280.254          50.000    24534250.200    96277594.414          50.000  
E11  25338359.320   133153987.738          50.000    25338360.220    99433163.023          50.000  
E25  26628184.980   139931985.648          50.000    26628193.080   104494639.863          50.000  
E30  24703182.080   129816064.512          50.000    24703187.100    96940552.699          50.000  
E36  23548707.500   123749258.188          50.000    23548712.520    92410147.285          50.000  
> 2020  5 29 23 27 29.0000000  0 14       0.000000000000
G 2  24445298.280   128460910.258          50.000                                                  
G 5  21447518.860   112707387.750          50.000                                                  
G12  22733751.800   119466649.898          50.000                                                  
G21  23320753.100   122551375.797          50.000                                                  
G25  21201106.860   111412501.238          50.000    21201109.680    83197644.090          50.000  
G29  20625729.780   108388935.504          50.000                                                  
G31  24812893.760   130392547.035          50.000                                                  
E 2  24278528.100   127584513.168          50.000    24278532.040    95274138.707          50.000  
E 4  27393611.340   143954382.309          50.000    27393615.540   107498389.766          50.000  
E 9  24533855.180   128926235.012          50.000    24533861.000    96276067.121          50.000  
E11  25338713.100   133155846.840          50.000    25338714.000    99434551.313          50.000  
E25  26628770.860   139935064.449          50.000    26628778.960   104496938.969          50.000  
E30  24702927.840   129814728.563          50.000    24702932.880    96939555.074          50.000  
E36  23548790.300   123749693.309          50.000    23548795.320    92410472.215          50.000  
> 2020  5 29 23 27 30.0000000  0 14       0.000000000000
G 2  24445766.300   128463369.793          50.000                                                  
G 5  21447829.260   112709018.887          50.000                                                  
G12  22734419.900   119470160.797          50.000                                                  
G21  23320373.140   122549379.066          50.000                                                  
G25  21201556.260   111414862.770          50.000    21201559.060    83199407.570          50.000  
G29  20625556.620   108388025.586          50.000                                                  
G31  24813156.120   130393925.746          50.000                                                  
E 2  24278783.920   127585857.555          50.000    24278787.860    95275142.629          50.000  
E 4  27393618.220   143954418.430          50.000    27393622.420   107498416.738          50.000  
E 9  24533466.020   128924190.020          50.000    24533471.840    96274540.020          50.000  
E11  25339066.880   133157705.930          50.000    25339067.780    99435939.594          50.000  
E25  26629356.760   139938143.344          50.000    26629364.860   104499238.141          50.000  
E30  24702673.700   129813393.043          50.000    24702678.740    96938557.773          50.000  
E36  23548873.120   123750128.543          50.000    23548878.140    92410797.227          50.000  
> 2020  5 29 23 27 31.0000000  0 14       0.000000000000
G 2  24446234.340   128465829.301          50.000                                                  
G 5  21448139.780   112710650.629          50.000                                                  
G12  22735088.060   119473671.957          50.000                                                  
G21  23319993.220   122547382.578          50.000                                                  
G25  21202005.740   111417224.797          50.000    21202008.540    83201171.418          50.000  
G29  20625383.520   108387115.957          50.000                                                  
G31  24813418.560   130395304.852          50.000                                                  
E 2  24279039.840   127587202.367          50.000    24279043.780    95276146.875          50.000  
E 4  27393625.180   143954454.992          50.000    27393629.360   107498444.039          50.000  
E 9  24533076.920   128922145.289          50.000    24533082.740    96273013.113          50.000  
E11  25339420.640   133159565.016          50.000    25339421.540    99437327.871          50.000  
E25  26629942.680   139941222.328          50.000    26629950.780   104501537.379          50.000  
E30  24702419.640   129812057.941          50.000    24702424.680    96937560.785          50.000  
E36  23548955.960   123750563.891          50.000    23548960.980    92411122.324          50.000  
> 2020  5 29 23 27 32.0000000  0 14       0.000000000000
G 2  24446702.360   128468288.777          50.000                                                  
G 5  21448450.400   112712282.965          50.000                                                  
G12  22735756.260   119477183.371          50.000                                                  
G21  23319613.340   122545386.316          50.000                                                  
G25  21202455.300   111419587.328          50.000    21202458.120    83202935.645          50.000  
G29  20625210.480   108386206.617          50.000                                                  
G31  24813681.060   130396684.359          50.000                                                  
E 2  24279295.840   127588547.617          50.000    24279299.780    95277151.441          50.000  
E 4  27393632.220   143954491.988          50.000    27393636.400   107498471.668          50.000  
E 9  24532687.860   128920100.785          50.000    24532693.680    96271486.375          50.000  
E11  25339774.420   133161424.098          50.000    25339775.320    99438716.148          50.000  
E25  26630528.600   139944301.402          50.000    26630536.700   104503836.684          50.000  
E30  24702165.660   129810723.270          50.000    24702170.700    96936564.113          50.000  
E36  23549038.820   123750999.336          50.000    23549043.840    92411447.496          50.000  
> 2020  5 29 23 27 33.0000000  0 14       0.000000000000
G 2  24447170.380   128470748.215          50.000                                                  
G 5  21448761.140   112713915.910          50.000                                                  
G12  22736424.500   119480695.039          50.000                                                  
G21  23319233.500   122543390.281          50.000                                                  
G25  21202904.980   111421950.348          50.000    21202907.780    83204700.238          50.000  
G29  20625037.500   108385297.559          50.000                                                  
G31  24813943.660   130398064.266          50.000                                                  
E 2  24279551.900   127589893.297          50.000    24279555.840    95278156.332          50.000  
E 4  27393639.340   143954529.445          50.000    27393643.540   107498499.637          50.000  
E 9  24532298.860   128918056.531          50.000    24532304.680    96269959.824          50.000  
E11  25340128.180   133163283.172          50.000    25340129.080    99440104.418          50.000  
E25  26631114.560   139947380.574          50.000    26631122.660   104506136.063          50.000  
E30  24701911.760   129809389.023          50.000    24701916.800    96935567.762          50.000  
E36  23549121.700   123751434.887          50.000    23549126.720    92411772.742          50.000  
> 2020  5 29 23 27 34.0000000  0 14       0.000000000000
G 2  24447638.400   128473207.633          50.000                                                  
G 5  21449072.000   112715549.465          50.000                                                  
G12  22737092.800   119484206.957          50.000                                                  
G21  23318853.720   122541394.477          50.000                                                  
G25  21203354.740   111424313.875          50.000    21203357.540    83206465.207          50.000  
G29  20624864.560   108384388.801          50.000                                                  
G31  24814206.320   130399444.566          50.000                                                  
E 2  24279808.060   127591239.406          50.000    24279812.000    95279161.547          50.000  
E 4  27393646.560   143954567.328          50.000    27393650.740   107498527.930          50.000  
E 9  24531909.880   128916012.520          50.000    24531915.720    96268433.453          50.000  
E11  25340481.960   133165142.250          50.000    25340482.860    99441492.688          50.000  
E25  26631700.520   139950459.824          50.000    26631708.620   104508435.500          50.000  
E30  24701657.940   129808055.207          50.000    24701662.980    96934571.730          50.000  
E36  23549204.600   123751870.543          50.000    23549209.640    92412098.070          50.000  
> 2020  5 29 23 27 35.0000000  0 14       0.000000000000
G 2  24448106.400   128475667.008          50.000                                                  
G 5  21449382.960   112717183.602          50.000                                                  
G12  22737761.160   119487719.133          50.000                                                  
G21  23318473.960   122539398.887          50.000                                                  
G25  21203804.600   111426677.902          50.000    21203807.400    83208230.551          50.000  
G29  20624691.680   108383480.328          50.000                                                  
G31  24814469.060   130400825.266          50.000                                                  
E 2  24280064.300   127592585.973          50.000    24280068.240    95280167.098          50.000  
E 4  27393653.860   143954605.660          50.000    27393658.040   107498556.551          50.000  
E 9  24531520.980   128913968.754          50.000    24531526.800    96266907.266          50.000  
E11  25340835.720   133167001.309          50.000    25340836.620    99442880.945          50.000  
E25  26632286.500   139953539.156          50.000    26632294.600   104510734.996          50.000  
E30  24701404.220   129806721.813          50.000    24701409.240    96933576.016          50.000  
E36  23549287.520   123752306.301          50.000    23549292.560    92412423.477          50.000  
> 2020  5 29 23 27 36.0000000  0 14       0.000000000000
G 2  24448574.400   128478126.371          50.000                                                  
G 5  21449694.040   112718818.344          50.000                                                  
G12  22738429.540   119491231.566          50.000                                                  
G21  23318094.260   122537403.531          50.000                                                  
G25  21204254.560   111429042.438          50.000    21204257.360    83209996.273          50.000  
G29  20624518.860   108382572.145          50.000                                                  
G31  24814731.880   130402206.363          50.000                                                  
E 2  24280320.640   127593932.961          50.000    24280324.560    95281172.965          50.000  
E 4  27393661.240   143954644.438          50.000    27393665.420   107498585.508          50.000  
E 9  24531132.100   128911925.238          50.000    24531137.920    96265381.266          50.000  
E11  25341189.500   133168860.379          50.000    25341190.400    99444269.211          50.000  
E25  26632872.500   139956618.582          50.000    26632880.600   104513034.566          50.000  
E30  24701150.560   129805388.848          50.000    24701155.580    96932580.617          50.000  
E36  23549370.480   123752742.176          50.000    23549375.500    92412748.965          50.000  
> 2020  5 29 23 27 37.0000000  0 14       0.000000000000
G 2  24449042.400   128480585.695          50.000                                                  
G 5  21450005.240   112720453.691          50.000                                                  
G12  22739098.000   119494744.258          50.000                                                  
G21  23317714.600   122535408.414          50.000                                                  
G25  21204704.600   111431407.465          50.000    21204707.420    83211762.367          50.000  
G29  20624346.100   108381664.238          50.000                                                  
G31  24814994.760   130403587.848          50.000                                                  
E 2  24280577.040   127595280.375          50.000    24280580.980    95282179.148          50.000  
E 4  27393668.700   143954683.684          50.000    27393672.880   107498614.816          50.000  
E 9  24530743.280   128909881.973          50.000    24530749.100    96263855.453          50.000  
E11  25341543.260   133170719.445          50.000    25341544.160    99445657.477          50.000  
E25  26633458.500   139959698.102          50.000    26633466.620   104515334.207          50.000  
E30  24700896.980   129804056.316          50.000    24700902.020    96931585.551          50.000  
E36  23549453.440   123753178.152          50.000    23549458.460    92413074.535          50.000  
> 2020  5 29 23 27 38.0000000  0 14       0.000000000000
G 2  24449510.380   128483044.984          50.000                                                  
G 5  21450316.540   112722089.629          50.000                                                  
G12  22739766.500   119498257.227          50.000                                                  
G21  23317334.980   122533413.508          50.000                                                  
G25  21205154.760   111433772.992          50.000    21205157.560    83213528.832          50.000  
G29  20624173.380   108380756.629          50.000                                                  
G31  24815257.720   130404969.734          50.000                                                  
E 2  24280833.520   127596628.254          50.000    24280837.460    95283185.680          50.000  
E 4  27393676.240   143954723.328          50.000    27393680.440   107498644.422          50.000  
E 9  24530354.500   128907838.938          50.000    24530360.320    96262329.813          50.000  
E11  25341897.020   133172578.488          50.000    25341897.940    99447045.719          50.000  
E25  26634044.540   139962777.715          50.000    26634052.640   104517633.914          50.000  
E30  24700643.500   129802724.211          50.000    24700648.520    96930590.793          50.000  
E36  23549536.420   123753614.227          50.000    23549541.440    92413400.172          50.000  
> 2020  5 29 23 27 39.0000000  0 14       0.000000000000
G 2  24449978.360   128485504.258          50.000                                                  
G 5  21450627.960   112723726.176          50.000                                                  
G12  22740435.040   119501770.453          50.000                                                  
G21  23316955.400   122531418.840          50.000                                                  
G25  21205605.000   111436139.016          50.000    21205607.800    83215295.668          50.000  
G29  20624000.720   108379849.301          50.000                                                  
G31  24815520.760   130406352.020          50.000                                                  
E 2  24281090.100   127597976.543          50.000    24281094.040    95284192.520          50.000  
E 4  27393683.880   143954763.453          50.000    27393688.060   107498674.387          50.000  
E 9  24529965.780   128905796.164          50.000    24529971.600    96260804.363          50.000  
E11  25342250.800   133174437.527          50.000    25342251.700    99448433.961          50.000  
E25  26634630.580   139965857.414          50.000    26634638.700   104519933.684          50.000  
E30  24700390.080   129801392.535          50.000    24700395.120    96929596.363          50.000  
E36  23549619.420   123754050.418          50.000    23549624.440    92413725.898          50.000  
> 2020  5 29 23 27 40.0000000  0 14       0.000000000000
G 2  24450446.340   128487963.492          50.000                                                  
G 5  21450939.500   112725363.336          50.000                                                  
G12  22741103.620   119505283.914          50.000                                                  
G21  23316575.880   122529424.414          50.000                                                  
G25  21206055.340   111438505.547          50.000    21206058.140    83217062.879          50.000  
G29  20623828.120   108378942.262          50.000                                                  
G31  24815783.880   130407734.691          50.000                                                  
E 2  24281346.760   127599325.277          50.000    24281350.700    95285199.691          50.000  
E 4  27393691.600   143954804.008          50.000    27393695.780   107498704.668          50.000  
E 9  24529577.100   128903753.629          50.000    24529582.920    96259279.098          50.000  
E11  25342604.560   133176296.563          50.000    25342605.460    99449822.203          50.000  
E25  26635216.660   139968937.188          50.000    26635224.760   104522233.516          50.000  
E30  24700136.760   129800061.281          50.000    24700141.780    96928602.246          50.000  
E36  23549702.440   123754486.707          50.000    23549707.460    92414051.703          50.000  
> 2020  5 29 23 27 41.0000000  0 14       0.000000000000
G 2  24450914.320   128490422.703          50.000                                                  
G 5  21451251.160   112727001.090          50.000                                                  
G12  22741772.260   119508797.641          50.000                                                  
G21  23316196.400   122527430.211          50.000                                                  
G25  21206505.760   111440872.578          50.000    21206508.580    83218830.469          50.000  
G29  20623655.580   108378035.512          50.000                                                  
G31  24816047.080   130409117.762          50.000                                                  
E 2  24281603.500   127600674.445          50.000    24281607.440    95286207.188          50.000  
E 4  27393699.400   143954845.000          50.000    27393703.580   107498735.281          50.000  
E 9  24529188.460   128901711.336          50.000    24529194.280    96257754.012          50.000  
E11  25342958.320   133178155.609          50.000    25342959.220    99451210.453          50.000  
E25  26635802.740   139972017.059          50.000    26635810.840   104524533.414          50.000  
E30  24699883.500   129798730.461          50.000    24699888.540    96927608.449          50.000  
E36  23549785.480   123754923.105          50.000    23549790.520    92414377.582          50.000  
> 2020  5 29 23 27 42.0000000  0 14       0.000000000000
G 2  24451382.280   128492881.879          50.000                                                  
G 5  21451562.940   112728639.445          50.000                                                  
G12  22742440.960   119512311.633          50.000                                                  
G21  23315816.940   122525436.227          50.000                                                  
G25  21206956.280   111443240.105          50.000    21206959.100    83220598.426          50.000  
G29  20623483.080   108377129.063          50.000                                                  
G31  24816310.340   130410501.238          50.000                                                  
E 2  24281860.320   127602024.066          50.000    24281864.260    95287215.020          50.000  
E 4  27393707.280   143954886.426          50.000    27393711.460   107498766.219          50.000  
E 9  24528799.860   128899669.289          50.000    24528805.680    96256229.105          50.000  
E11  25343312.080   133180014.641          50.000    25343312.980    99452598.688          50.000  
E25  26636388.840   139975097.016          50.000    26636396.940   104526833.379          50.000  
E30  24699630.340   129797400.063          50.000    24699635.360    96926614.973          50.000  
E36  23549868.560   123755359.609          50.000    23549873.580    92414703.543          50.000  
> 2020  5 29 23 27 43.0000000  0 14       0.000000000000
G 2  24451850.240   128495341.039          50.000                                                  
G 5  21451874.820   112730278.410          50.000                                                  
G12  22743109.700   119515825.863          50.000                                                  
G21  23315437.540   122523442.488          50.000                                                  
G25  21207406.900   111445608.133          50.000    21207409.720    83222366.758          50.000  
G29  20623310.640   108376222.891          50.000                                                  
G31  24816573.680   130411885.102          50.000                                                  
E 2  24282117.220   127603374.098          50.000    24282121.160    95288223.160          50.000  
E 4  27393715.260   143954928.332          50.000    27393719.440   107498797.512          50.000  
E 9  24528411.320   128897627.488          50.000    24528417.140    96254704.387          50.000  
E11  25343665.840   133181873.668          50.000    25343666.740    99453986.922          50.000  
E25  26636974.940   139978177.055          50.000    26636983.060   104529133.406          50.000  
E30  24699377.260   129796070.102          50.000    24699382.280    96925621.820          50.000  
E36  23549951.640   123755796.227          50.000    23549956.660    92415029.586          50.000  
> 2020  5 29 23 27 44.0000000  0 14       0.000000000000
G 2  24452318.200   128497800.160          50.000                                                  
G 5  21452186.820   112731917.961          50.000                                                  
G12  22743778.480   119519340.348          50.000                                                  
G21  23315058.200   122521448.957          50.000                                                  
G25  21207857.620   111447976.668          50.000    21207860.440    83224135.465          50.000  
G29  20623138.260   108375317.004          50.000                                                  
G31  24816837.100   130413269.371          50.000                                                  
E 2  24282374.200   127604724.566          50.000    24282378.140    95289231.629          50.000  
E 4  27393723.300   143954970.645          50.000    27393727.500   107498829.105          50.000  
E 9  24528022.820   128895585.930          50.000    24528028.640    96253179.852          50.000  
E11  25344019.600   133183732.695          50.000    25344020.520    99455375.156          50.000  
E25  26637561.080   139981257.180          50.000    26637569.200   104531433.500          50.000  
E30  24699124.240   129794740.559          50.000    24699129.280    96924628.980          50.000  
E36  23550034.740   123756232.941          50.000    23550039.760    92415355.707          50.000  
> 2020  5 29 23 27 45.0000000  0 14       0.000000000000
G 2  24452786.160   128500259.254          50.000                                                  
G 5  21452498.920   112733558.109          50.000                                                  
G12  22744447.320   119522855.090          50.000                                                  
G21  23314678.880   122519455.684          50.000                                                  
G25  21208308.440   111450345.688          50.000    21208311.240    83225904.539          50.000  
G29  20622965.920   108374411.414          50.000                                                  
G31  24817100.580   130414654.027          50.000                                                  
E 2  24282631.280   127606075.484          50.000    24282635.220    95290240.430          50.000  
E 4  27393731.440   143955013.410          50.000    27393735.640   107498861.043          50.000  
E 9  24527634.380   128893544.629          50.000    24527640.200    96251655.500          50.000  
E11  25344373.360   133185591.711          50.000    25344374.260    99456763.379          50.000  
E25  26638147.220   139984337.414          50.000    26638155.340   104533733.668          50.000  
E30  24698871.340   129793411.461          50.000    24698876.360    96923636.473          50.000  
E36  23550117.860   123756669.766          50.000    23550122.900    92415681.906          50.000  
> 2020  5 29 23 27 46.0000000  0 14       0.000000000000
G 2  24453254.100   128502718.324          50.000                                                  
G 5  21452811.160   112735198.875          50.000                                                  
G12  22745116.200   119526370.094          50.000                                                  
G21  23314299.620   122517462.609          50.000                                                  
G25  21208759.340   111452715.227          50.000    21208762.160    83227674.000          50.000  
G29  20622793.660   108373506.098          50.000                                                  
G31  24817364.160   130416039.078          50.000                                                  
E 2  24282888.440   127607426.852          50.000    24282892.380    95291249.566          50.000  
E 4  27393739.660   143955056.629          50.000    27393743.860   107498893.316          50.000  
E 9  24527245.980   128891503.570          50.000    24527251.800    96250131.336          50.000  
E11  25344727.120   133187450.727          50.000    25344728.020    99458151.605          50.000  
E25  26638733.400   139987417.707          50.000    26638741.500   104536033.887          50.000  
E30  24698618.480   129792082.773          50.000    24698623.520    96922644.273          50.000  
E36  23550201.020   123757106.695          50.000    23550206.040    92416008.188          50.000  
> 2020  5 29 23 27 47.0000000  0 14       0.000000000000
G 2  24453722.040   128505177.352          50.000                                                  
G 5  21453123.500   112736840.234          50.000                                                  
G12  22745785.140   119529885.344          50.000                                                  
G21  23313920.400   122515469.793          50.000                                                  
G25  21209210.340   111455085.254          50.000    21209213.160    83229443.824          50.000  
G29  20622621.440   108372601.082          50.000                                                  
G31  24817627.800   130417424.523          50.000                                                  
E 2  24283145.680   127608778.645          50.000    24283149.620    95292259.020          50.000  
E 4  27393747.980   143955100.289          50.000    27393752.160   107498925.922          50.000  
E 9  24526857.620   128889462.754          50.000    24526863.440    96248607.355          50.000  
E11  25345080.880   133189309.746          50.000    25345081.780    99459539.836          50.000  
E25  26639319.580   139990498.113          50.000    26639327.680   104538334.184          50.000  
E30  24698365.740   129790754.523          50.000    24698370.760    96921652.398          50.000  
E36  23550284.180   123757543.730          50.000    23550289.200    92416334.543          50.000  
> 2020  5 29 23 27 48.0000000  0 14       0.000000000000
G 2  24454189.980   128507636.363          50.000                                                  
G 5  21453435.940   112738482.207          50.000                                                  
G12  22746454.120   119533400.844          50.000                                                  
G21  23313541.220   122513477.195          50.000                                                  
G25  21209661.440   111457455.789          50.000    21209664.260    83231214.027          50.000  
G29  20622449.260   108371696.344          50.000                                                  
G31  24817891.520   130418810.367          50.000                                                  
E 2  24283403.000   127610130.863          50.000    24283406.940    95293268.797          50.000  
E 4  27393756.360   143955144.395          50.000    27393760.560   107498958.855          50.000  
E 9  24526469.320   128887422.184          50.000    24526475.140    96247083.555          50.000  
E11  25345434.640   133191168.750          50.000    25345435.540    99460928.051          50.000  
E25  26639905.780   139993578.586          50.000    26639913.880   104540634.535          50.000  
E30  24698113.060   129789426.699          50.000    24698118.080    96920660.844          50.000  
E36  23550367.360   123757980.875          50.000    23550372.380    92416660.980          50.000  
> 2020  5 29 23 27 49.0000000  0 14       0.000000000000
G 2  24454657.900   128510095.340          50.000                                                  
G 5  21453748.520   112740124.777          50.000                                                  
G12  22747123.140   119536916.609          50.000                                                  
G21  23313162.080   122511484.820          50.000                                                  
G25  21210112.640   111459826.813          50.000    21210115.440    83232984.598          50.000  
G29  20622277.160   108370791.891          50.000                                                  
G31  24818155.300   130420196.602          50.000                                                  
E 2  24283660.400   127611483.512          50.000    24283664.340    95294278.891          50.000  
E 4  27393764.840   143955188.945          50.000    27393769.040   107498992.125          50.000  
E 9  24526081.060   128885381.867          50.000    24526086.880    96245559.941          50.000  
E11  25345788.400   133193027.754          50.000    25345789.300    99462316.266          50.000  
E25  26640491.980   139996659.172          50.000    26640500.100   104542934.973          50.000  
E30  24697860.460   129788099.301          50.000    24697865.480    96919669.605          50.000  
E36  23550450.560   123758418.121          50.000    23550455.600    92416987.496          50.000  
> 2020  5 29 23 27 50.0000000  0 14       0.000000000000
G 2  24455125.820   128512554.285          50.000                                                  
G 5  21454061.200   112741767.949          50.000                                                  
G12  22747792.220   119540432.613          50.000                                                  
G21  23312782.980   122509492.680          50.000                                                  
G25  21210563.920   111462198.344          50.000    21210566.740    83234755.547          50.000  
G29  20622105.100   108369887.734          50.000                                                  
G31  24818419.180   130421583.230          50.000                                                  
E 2  24283917.880   127612836.609          50.000    24283921.820    95295289.316          50.000  
E 4  27393773.400   143955233.934          50.000    27393777.600   107499025.719          50.000  
E 9  24525692.840   128883341.793          50.000    24525698.660    96244036.512          50.000  
E11  25346142.160   133194886.738          50.000    25346143.060    99463704.469          50.000  
E25  26641078.220   139999739.836          50.000    26641086.340   104545235.465          50.000  
E30  24697607.940   129786772.332          50.000    24697612.980    96918678.688          50.000  
E36  23550533.800   123758855.469          50.000    23550538.820    92417314.090          50.000  
> 2020  5 29 23 27 51.0000000  0 14       0.000000000000
G 2  24455593.740   128515013.203          50.000                                                  
G 5  21454374.000   112743411.734          50.000                                                  
G12  22748461.340   119543948.875          50.000                                                  
G21  23312403.940   122507500.766          50.000                                                  
G25  21211015.300   111464570.379          50.000    21211018.120    83236526.867          50.000  
G29  20621933.100   108368983.863          50.000                                                  
G31  24818683.120   130422970.258          50.000                                                  
E 2  24284175.440   127614190.121          50.000    24284179.380    95296300.059          50.000  
E 4  27393782.060   143955279.375          50.000    27393786.240   107499059.656          50.000  
E 9  24525304.680   128881301.969          50.000    24525310.480    96242513.266          50.000  
E11  25346495.900   133196745.723          50.000    25346496.820    99465092.672          50.000  
E25  26641664.460   140002820.566          50.000    26641672.580   104547536.008          50.000  
E30  24697355.520   129785445.789          50.000    24697360.540    96917688.086          50.000  
E36  23550617.040   123759292.930          50.000    23550622.060    92417640.762          50.000  
> 2020  5 29 23 27 52.0000000  0 14       0.000000000000
G 2  24456061.660   128517472.090          50.000                                                  
G 5  21454686.920   112745056.113          50.000                                                  
G12  22749130.520   119547465.391          50.000                                                  
G21  23312024.920   122505509.090          50.000                                                  
G25  21211466.780   111466942.895          50.000    21211469.600    83238298.551          50.000  
G29  20621761.160   108368080.285          50.000                                                  
G31  24818947.140   130424357.680          50.000                                                  
E 2  24284433.100   127615544.102          50.000    24284437.040    95297311.145          50.000  
E 4  27393790.780   143955325.258          50.000    27393794.980   107499093.918          50.000  
E 9  24524916.540   128879262.379          50.000    24524922.360    96240990.199          50.000  
E11  25346849.660   133198604.707          50.000    25346850.560    99466480.875          50.000  
E25  26642250.720   140005901.398          50.000    26642258.840   104549836.625          50.000  
E30  24697103.160   129784119.672          50.000    24697108.180    96916697.809          50.000  
E36  23550700.300   123759730.496          50.000    23550705.320    92417967.520          50.000  
> 2020  5 29 23 27 53.0000000  0 14       0.000000000000
G 2  24456529.560   128519930.941          50.000                                                  
G 5  21454999.960   112746701.102          50.000                                                  
G12  22749799.740   119550982.164          50.000                                                  
G21  23311645.960   122503517.641          50.000                                                  
G25  21211918.360   111469315.926          50.000    21211921.180    83240070.617          50.000  
G29  20621589.260   108367177.000          50.000                                                  
G31  24819211.220   130425745.488          50.000                                                  
E 2  24284690.820   127616898.480          50.000    24284694.780    95298322.531          50.000  
E 4  27393799.600   143955371.582          50.000    27393803.780   107499128.512          50.000  
E 9  24524528.480   128877223.051          50.000    24524534.300    96239467.324          50.000  
E11  25347203.420   133200463.688          50.000    25347204.320    99467869.070          50.000  
E25  26642837.020   140008982.320          50.000    26642845.140   104552137.313          50.000  
E30  24696850.880   129782793.992          50.000    24696855.920    96915707.852          50.000  
E36  23550783.600   123760168.168          50.000    23550788.620    92418294.348          50.000  
> 2020  5 29 23 27 54.0000000  0 14       0.000000000000
G 2  24456997.460   128522389.770          50.000                                                  
G 5  21455313.100   112748346.691          50.000                                                  
G12  22750469.000   119554499.188          50.000                                                  
G21  23311267.040   122501526.418          50.000                                                  
G25  21212370.020   111471689.449          50.000    21212372.840    83241843.051          50.000  
G29  20621417.420   108366274.004          50.000                                                  
G31  24819475.400   130427133.699          50.000                                                  
E 2  24284948.640   127618253.332          50.000    24284952.600    95299334.270          50.000  
E 4  27393808.500   143955418.355          50.000    27393812.680   107499163.438          50.000  
E 9  24524140.440   128875183.957          50.000    24524146.260    96237944.629          50.000  
E11  25347557.160   133202322.668          50.000    25347558.080    99469257.270          50.000  
E25  26643423.320   140012063.336          50.000    26643431.440   104554438.066          50.000  
E30  24696598.700   129781468.742          50.000    24696603.740    96914718.219          50.000  
E36  23550866.900   123760605.941          50.000    23550871.920    92418621.258          50.000  
> 2020  5 29 23 27 55.0000000  0 14       0.000000000000
G 2  24457465.360   128524848.566          50.000                                                  
G 5  21455626.360   112749992.875          50.000                                                  
G12  22751138.320   119558016.457          50.000                                                  
G21  23310888.160   122499535.414          50.000                                                  
G25  21212821.780   111474063.480          50.000    21212824.600    83243615.867          50.000  
G29  20621245.640   108365371.289          50.000                                                  
G31  24819739.640   130428522.297          50.000                                                  
E 2  24285206.540   127619608.586          50.000    24285210.480    95300346.309          50.000  
E 4  27393817.480   143955465.570          50.000    27393821.680   107499198.699          50.000  
E 9  24523752.460   128873145.121          50.000    24523758.280    96236422.121          50.000  
E11  25347910.920   133204181.645          50.000    25347911.820    99470645.469          50.000  
E25  26644009.620   140015144.430          50.000    26644017.740   104556738.883          50.000  
E30  24696346.600   129780143.918          50.000    24696351.620    96913728.902          50.000  
E36  23550950.220   123761043.828          50.000    23550955.240    92418948.250          50.000  
> 2020  5 29 23 27 56.0000000  0 14       0.000000000000
G 2  24457933.240   128527307.379          50.000                                                  
G 5  21455939.740   112751639.664          50.000                                                  
G12  22751807.700   119561533.965          50.000                                                  
G21  23310509.340   122497544.633          50.000                                                  
G25  21213273.640   111476437.992          50.000    21213276.460    83245389.039          50.000  
G29  20621073.920   108364468.863          50.000                                                  
G31  24820003.960   130429911.270          50.000                                                  
E 2  24285464.540   127620964.301          50.000    24285468.480    95301358.691          50.000  
E 4  27393826.560   143955513.254          50.000    27393830.740   107499234.313          50.000  
E 9  24523364.540   128871106.543          50.000    24523370.360    96234899.809          50.000  
E11  25348264.660   133206040.609          50.000    25348265.580    99472033.652          50.000  
E25  26644595.980   140018225.477          50.000    26644604.120   104559039.578          50.000  
E30  24696094.580   129778819.469          50.000    24696099.620    96912739.836          50.000  
E36  23551033.560   123761481.820          50.000    23551038.600    92419275.324          50.000  
> 2020  5 29 23 27 57.0000000  0 14       0.000000000000
G 2  24458401.120   128529766.125          50.000                                                  
G 5  21456253.220   112753287.039          50.000                                                  
G12  22752477.100   119565051.742          50.000                                                  
G21  23310130.560   122495554.098          50.000                                                  
G25  21213725.600   111478813.016          50.000    21213728.420    83247162.594          50.000  
G29  20620902.260   108363566.719          50.000                                                  
G31  24820268.360   130431300.664          50.000                                                  
E 2  24285722.600   127622320.445          50.000    24285726.540    95302371.395          50.000  
E 4  27393835.700   143955561.355          50.000    27393839.900   107499270.234          50.000  
E 9  24522976.660   128869068.195          50.000    24522982.460    96233377.672          50.000  
E11  25348618.420   133207899.555          50.000    25348619.320    99473421.828          50.000  
E25  26645182.340   140021306.742          50.000    26645190.480   104561340.523          50.000  
E30  24695842.640   129777495.500          50.000    24695847.680    96911751.160          50.000  
E36  23551116.940   123761919.918          50.000    23551121.960    92419602.477          50.000  
> 2020  5 29 23 27 58.0000000  0 14       0.000000000000
G 2  24458869.000   128532224.824          50.000                                                  
G 5  21456566.820   112754935.043          50.000                                                  
G12  22753146.560   119568569.773          50.000                                                  
G21  23309751.820   122493563.805          50.000                                                  
G25  21214177.640   111481188.539          50.000    21214180.460    83248936.523          50.000  
G29  20620730.640   108362664.879          50.000                                                  
G31  24820532.820   130432690.449          50.000                                                  
E 2  24285980.740   127623677.023          50.000    24285984.680    95303384.422          50.000  
E 4  27393844.940   143955609.906          50.000    27393849.140   107499306.488          50.000  
E 9  24522588.820   128867030.098          50.000    24522594.620    96231855.715          50.000  
E11  25348972.160   133209758.512          50.000    25348973.060    99474810.008          50.000  
E25  26645768.700   140024388.102          50.000    26645776.840   104563641.535          50.000  
E30  24695590.780   129776171.961          50.000    24695595.820    96910762.805          50.000  
E36  23551200.320   123762358.121          50.000    23551205.340    92419929.703          50.000  
> 2020  5 29 23 27 59.0000000  0 14       0.000000000000
G 2  24459336.860   128534683.500          50.000                                                  
G 5  21456880.540   112756583.629          50.000                                                  
G12  22753816.080   119572088.066          50.000                                                  
G21  23309373.120   122491573.746          50.000                                                  
G25  21214629.780   111483564.555          50.000    21214632.600    83250710.820          50.000  
G29  20620559.080   108361763.324          50.000                                                  
G31  24820797.360   130434080.633          50.000                                                  
E 2  24286238.980   127625034.039          50.000    24286242.920    95304397.781          50.000  
E 4  27393854.260   143955658.891          50.000    27393858.460   107499343.066          50.000  
E 9  24522201.020   128864992.238          50.000    24522206.840    96230333.941          50.000  
E11  25349325.920   133211617.473          50.000    25349326.820    99476198.191          50.000  
E25  26646355.080   140027469.543          50.000    26646363.220   104565942.609          50.000  
E30  24695339.000   129774848.855          50.000    24695344.040    96909774.770          50.000  
E36  23551283.740   123762796.426          50.000    23551288.760    92420257.012          50.000  
> 2020  5 29 23 28  0.0000000  0 14       0.000000000000
G 2  24459804.740   128537142.148          50.000                                                  
G 5  21457194.360   112758232.813          50.000                                                  
G12  22754485.640   119575606.598          50.000                                                  
G21  23308994.460   122489583.887          50.000                                                  
G25  21215082.020   111485941.070          50.000    21215084.840    83252485.488          50.000  
G29  20620387.580   108360862.059          50.000                                                  
G31  24821061.980   130435471.207          50.000                                                  
E 2  24286497.300   127626391.492          50.000    24286501.240    95305411.461          50.000  
E 4  27393863.680   143955708.328          50.000    27393867.860   107499379.984          50.000  
E 9  24521813.280   128862954.641          50.000    24521819.100    96228812.359          50.000  
E11  25349679.660   133213476.418          50.000    25349680.560    99477586.367          50.000  
E25  26646941.480   140030551.078          50.000    26646949.620   104568243.750          50.000  
E30  24695087.300   129773526.180          50.000    24695092.340    96908787.063          50.000  
E36  23551367.160   123763234.840          50.000    23551372.180    92420584.398          50.000  
> 2020  5 29 23 28  1.0000000  0 14       0.000000000000
G 2  24460272.600   128539600.770          50.000                                                  
G 5  21457508.320   112759882.602          50.000                                                  
G12  22755155.240   119579125.391          50.000                                                  
G21  23308615.840   122487594.273          50.000                                                  
G25  21215534.360   111488318.086          50.000    21215537.180    83254260.535          50.000  
G29  20620216.120   108359961.086          50.000                                                  
G31  24821326.680   130436862.176          50.000                                                  
E 2  24286755.680   127627749.363          50.000    24286759.640    95306425.457          50.000  
E 4  27393873.160   143955758.203          50.000    27393877.360   107499417.230          50.000  
E 9  24521425.580   128860917.281          50.000    24521431.400    96227290.957          50.000  
E11  25350033.400   133215335.359          50.000    25350034.300    99478974.539          50.000  
E25  26647527.880   140033632.695          50.000    26647536.040   104570544.957          50.000  
E30  24694835.680   129772203.922          50.000    24694840.720    96907799.660          50.000  
E36  23551450.600   123763673.363          50.000    23551455.640    92420911.867          50.000  
> 2020  5 29 23 28  2.0000000  0 14       0.000000000000
G 2  24460740.440   128542059.348          50.000                                                  
G 5  21457822.380   112761532.992          50.000                                                  
G12  22755824.900   119582644.430          50.000                                                  
G21  23308237.280   122485604.898          50.000                                                  
G25  21215986.780   111490695.598          50.000    21215989.600    83256035.945          50.000  
G29  20620044.720   108359060.391          50.000                                                  
G31  24821591.440   130438253.535          50.000                                                  
E 2  24287014.160   127629107.660          50.000    24287018.100    95307439.770          50.000  
E 4  27393882.740   143955808.547          50.000    27393886.940   107499454.824          50.000  
E 9  24521037.920   128858880.172          50.000    24521043.740    96225769.738          50.000  
E11  25350387.140   133217194.293          50.000    25350388.060    99480362.699          50.000  
E25  26648114.320   140036714.395          50.000    26648122.460   104572846.223          50.000  
E30  24694584.140   129770882.102          50.000    24694589.180    96906812.586          50.000  
E36  23551534.080   123764111.980          50.000    23551539.100    92421239.406          50.000  
> 2020  5 29 23 28  3.0000000  0 14       0.000000000000
G 2  24461208.300   128544517.895          50.000                                                  
G 5  21458136.540   112763184.000          50.000                                                  
G12  22756494.600   119586163.727          50.000                                                  
G21  23307858.760   122483615.754          50.000                                                  
G25  21216439.300   111493073.613          50.000    21216442.120    83257811.738          50.000  
G29  20619873.380   108358160.000          50.000                                                  
G31  24821856.280   130439645.289          50.000                                                  
E 2  24287272.720   127630466.430          50.000    24287276.680    95308454.434          50.000  
E 4  27393892.400   143955859.309          50.000    27393896.600   107499492.734          50.000  
E 9  24520650.320   128856843.305          50.000    24520656.140    96224248.707          50.000  
E11  25350740.880   133219053.211          50.000    25350741.800    99481750.852          50.000  
E25  26648700.760   140039796.176          50.000    26648708.900   104575147.551          50.000  
E30  24694332.700   129769560.703          50.000    24694337.720    96905825.832          50.000  
E36  23551617.560   123764550.703          50.000    23551622.580    92421567.023          50.000  
> 2020  5 29 23 28  4.0000000  0 14       0.000000000000
G 2  24461676.140   128546976.438          50.000                                                  
G 5  21458450.840   112764835.590          50.000                                                  
G12  22757164.340   119589683.273          50.000                                                  
G21  23307480.280   122481626.809          50.000                                                  
G25  21216891.920   111495452.133          50.000    21216894.740    83259587.902          50.000  
G29  20619702.100   108357259.906          50.000                                                  
G31  24822121.200   130441037.434          50.000                                                  
E 2  24287531.380   127631825.609          50.000    24287535.320    95309469.406          50.000  
E 4  27393902.140   143955910.508          50.000    27393906.340   107499530.965          50.000  
E 9  24520262.760   128854806.691          50.000    24520268.580    96222727.859          50.000  
E11  25351094.620   133220912.137          50.000    25351095.540    99483139.012          50.000  
E25  26649287.220   140042878.055          50.000    26649295.380   104577448.949          50.000  
E30  24694081.320   129768239.734          50.000    24694086.360    96904839.391          50.000  
E36  23551701.060   123764989.543          50.000    23551706.100    92421894.730          50.000  
> 2020  5 29 23 28  5.0000000  0 14       0.000000000000
G 2  24462143.980   128549434.934          50.000                                                  
G 5  21458765.240   112766487.797          50.000                                                  
G12  22757834.140   119593203.082          50.000                                                  
G21  23307101.840   122479638.113          50.000                                                  
G25  21217344.640   111497831.145          50.000    21217347.440    83261364.434          50.000  
G29  20619530.880   108356360.090          50.000                                                  
G31  24822386.200   130442429.969          50.000                                                  
E 2  24287790.100   127633185.223          50.000    24287794.040    95310484.699          50.000  
E 4  27393911.980   143955962.176          50.000    27393916.160   107499569.547          50.000  
E 9  24519875.260   128852770.324          50.000    24519881.080    96221207.199          50.000  
E11  25351448.380   133222771.063          50.000    25351449.280    99484527.172          50.000  
E25  26649873.700   140045960.031          50.000    26649881.860   104579750.422          50.000  
E30  24693830.020   129766919.199          50.000    24693835.060    96903853.281          50.000  
E36  23551784.600   123765428.492          50.000    23551789.620    92422222.516          50.000  
> 2020  5 29 23 28  6.0000000  0 14       0.000000000000
G 2  24462611.820   128551893.395          50.000                                                  
G 5  21459079.760   112768140.609          50.000                                                  
G12  22758504.000   119596723.137          50.000                                                  
G21  23306723.440   122477649.660          50.000                                                  
G25  21217797.440   111500210.652          50.000    21217800.260    83263141.344          50.000  
G29  20619359.700   108355460.570          50.000                                                  
G31  24822651.260   130443822.906          50.000                                                  
E 2  24288048.920   127634545.289          50.000    24288052.860    95311500.336          50.000  
E 4  27393921.900   143956014.285          50.000    27393926.080   107499608.461          50.000  
E 9  24519487.800   128850734.203          50.000    24519493.620    96219686.719          50.000  
E11  25351802.120   133224629.992          50.000    25351803.020    99485915.328          50.000  
E25  26650460.200   140049042.074          50.000    26650468.360   104582051.945          50.000  
E30  24693578.820   129765599.090          50.000    24693583.860    96902867.484          50.000  
E36  23551868.140   123765867.535          50.000    23551873.160    92422550.371          50.000  
> 2020  5 29 23 28  7.0000000  0 14       0.000000000000
G 2  24463079.640   128554351.832          50.000                                                  
G 5  21459394.400   112769794.016          50.000                                                  
G12  22759173.880   119600243.438          50.000                                                  
G21  23306345.100   122475661.426          50.000                                                  
G25  21218250.340   111502590.660          50.000    21218253.160    83264918.617          50.000  
G29  20619188.580   108354561.336          50.000                                                  
G31  24822916.400   130445216.234          50.000                                                  
E 2  24288307.800   127635905.789          50.000    24288311.760    95312516.293          50.000  
E 4  27393931.900   143956066.820          50.000    27393936.080   107499647.691          50.000  
E 9  24519100.380   128848698.324          50.000    24519106.200    96218166.422          50.000  
E11  25352155.860   133226488.902          50.000    25352156.760    99487303.480          50.000  
E25  26651046.720   140052124.211          50.000    26651054.860   104584353.539          50.000  
E30  24693327.700   129764279.414          50.000    24693332.720    96901882.012          50.000  
E36  23551951.720   123766306.688          50.000    23551956.740    92422878.313          50.000  
> 2020  5 29 23 28  8.0000000  0 14       0.000000000000
G 2  24463547.460   128556810.230          50.000                                                  
G 5  21459709.140   112771448.027          50.000                                                  
G12  22759843.820   119603764.008          50.000                                                  
G21  23305966.780   122473673.414          50.000                                                  
G25  21218703.340   111504971.180          50.000    21218706.160    83266696.277          50.000  
G29  20619017.520   108353662.402          50.000                                                  
G31  24823181.620   130446609.949          50.000                                                  
E 2  24288566.780   127637266.711          50.000    24288570.720    95313532.563          50.000  
E 4  27393941.980   143956119.809          50.000    27393946.160   107499687.262          50.000  
E 9  24518713.020   128846662.703          50.000    24518718.820    96216646.316          50.000  
E11  25352509.600   133228347.809          50.000    25352510.500    99488691.621          50.000  
E25  26651633.240   140055206.430          50.000    26651641.400   104586655.191          50.000  
E30  24693076.640   129762960.164          50.000    24693081.680    96900896.859          50.000  
E36  23552035.300   123766745.945          50.000    23552040.320    92423206.328          50.000  
> 2020  5 29 23 28  9.0000000  0 14       0.000000000000
G 2  24464015.280   128559268.613          50.000                                                  
G 5  21460024.000   112773102.633          50.000                                                  
G12  22760513.820   119607284.820          50.000                                                  
G21  23305588.520   122471685.625          50.000                                                  
G25  21219156.420   111507352.184          50.000    21219159.240    83268474.301          50.000  
G29  20618846.520   108352763.746          50.000                                                  
G31  24823446.920   130448004.059          50.000                                                  
E 2  24288825.840   127638628.066          50.000    24288829.780    95314549.160          50.000  
E 4  27393952.140   143956173.262          50.000    27393956.340   107499727.180          50.000  
E 9  24518325.700   128844627.332          50.000    24518331.500    96215126.398          50.000  
E11  25352863.320   133230206.703          50.000    25352864.240    99490079.754          50.000  
E25  26652219.780   140058288.730          50.000    26652227.940   104588956.906          50.000  
E30  24692825.680   129761641.336          50.000    24692830.720    96899912.023          50.000  
E36  23552118.900   123767185.309          50.000    23552123.940    92423534.422          50.000  
> 2020  5 29 23 28 10.0000000  0 14       0.000000000000
G 2  24464483.080   128561726.957          50.000                                                  
G 5  21460338.980   112774757.828          50.000                                                  
G12  22761183.860   119610805.887          50.000                                                  
G21  23305210.300   122469698.066          50.000                                                  
G25  21219609.620   111509733.684          50.000    21219612.440    83270252.691          50.000  
G29  20618675.560   108351865.398          50.000                                                  
G31  24823712.280   130449398.566          50.000                                                  
E 2  24289084.980   127639989.871          50.000    24289088.920    95315566.090          50.000  
E 4  27393962.400   143956227.141          50.000    27393966.580   107499767.414          50.000  
E 9  24517938.420   128842592.203          50.000    24517944.240    96213606.660          50.000  
E11  25353217.060   133232065.590          50.000    25353217.980    99491467.883          50.000  
E25  26652806.360   140061371.133          50.000    26652814.500   104591258.699          50.000  
E30  24692574.800   129760322.949          50.000    24692579.840    96898927.512          50.000  
E36  23552202.540   123767624.781          50.000    23552207.560    92423862.602          50.000  
> 2020  5 29 23 28 11.0000000  0 14       0.000000000000
G 2  24464950.880   128564185.273          50.000                                                  
G 5  21460654.060   112776413.645          50.000                                                  
G12  22761853.940   119614327.215          50.000                                                  
G21  23304832.120   122467710.750          50.000                                                  
G25  21220062.900   111512115.695          50.000    21220065.720    83272031.465          50.000  
G29  20618504.660   108350967.336          50.000                                                  
G31  24823977.720   130450793.473          50.000                                                  
E 2  24289344.200   127641352.105          50.000    24289348.160    95316583.344          50.000  
E 4  27393972.740   143956281.461          50.000    27393976.920   107499807.977          50.000  
E 9  24517551.200   128840557.320          50.000    24517557.000    96212087.109          50.000  
E11  25353570.800   133233924.484          50.000    25353571.700    99492856.020          50.000  
E25  26653392.920   140064453.602          50.000    26653401.080   104593560.543          50.000  
E30  24692324.000   129759004.992          50.000    24692329.040    96897943.324          50.000  
E36  23552286.180   123768064.355          50.000    23552291.200    92424190.855          50.000  
> 2020  5 29 23 28 12.0000000  0 14       0.000000000000
G 2  24465418.680   128566643.551          50.000                                                  
G 5  21460969.260   112778070.051          50.000                                                  
G12  22762524.080   119617848.785          50.000                                                  
G21  23304454.000   122465723.656          50.000                                                  
G25  21220516.280   111514498.199          50.000    21220519.080    83273810.605          50.000  
G29  20618333.820   108350069.555          50.000                                                  
G31  24824243.240   130452188.762          50.000                                                  
E 2  24289603.520   127642714.777          50.000    24289607.460    95317600.922          50.000  
E 4  27393983.160   143956336.242          50.000    27393987.340   107499848.883          50.000  
E 9  24517164.020   128838522.703          50.000    24517169.820    96210567.754          50.000  
E11  25353924.540   133235783.387          50.000    25353925.440    99494244.160          50.000  
E25  26653979.520   140067536.180          50.000    26653987.680   104595862.465          50.000  
E30  24692073.280   129757687.453          50.000    24692078.320    96896959.445          50.000  
E36  23552369.860   123768504.039          50.000    23552374.880    92424519.191          50.000  
> 2020  5 29 23 28 13.0000000  0 14       0.000000000000
G 2  24465886.460   128569101.801          50.000                                                  
G 5  21461284.600   112779727.070          50.000                                                  
G12  22763194.260   119621370.605          50.000                                                  
G21  23304075.900   122463736.813          50.000                                                  
G25  21220969.740   111516881.195          50.000    21220972.560    83275590.117          50.000  
G29  20618163.040   108349172.063          50.000                                                  
G31  24824508.820   130453584.449          50.000                                                  
E 2  24289862.900   127644077.891          50.000    24289866.860    95318618.828          50.000  
E 4  27393993.660   143956391.453          50.000    27393997.860   107499890.117          50.000  
E 9  24516776.880   128836488.328          50.000    24516782.700    96209048.582          50.000  
E11  25354278.280   133237642.281          50.000    25354279.180    99495632.293          50.000  
E25  26654566.140   140070618.832          50.000    26654574.280   104598164.441          50.000  
E30  24691822.640   129756370.355          50.000    24691827.680    96895975.902          50.000  
E36  23552453.540   123768943.832          50.000    23552458.560    92424847.609          50.000  
> 2020  5 29 23 28 14.0000000  0 14       0.000000000000
G 2  24466354.260   128571560.023          50.000                                                  
G 5  21461600.020   112781384.672          50.000                                                  
G12  22763864.500   119624892.676          50.000                                                  
G21  23303697.860   122461750.176          50.000                                                  
G25  21221423.300   111519264.676          50.000    21221426.120    83277369.988          50.000  
G29  20617992.300   108348274.863          50.000                                                  
G31  24824774.500   130454980.531          50.000                                                  
E 2  24290122.380   127645441.434          50.000    24290126.320    95319637.063          50.000  
E 4  27394004.260   143956447.117          50.000    27394008.440   107499931.680          50.000  
E 9  24516389.800   128834454.195          50.000    24516395.620    96207529.590          50.000  
E11  25354632.000   133239501.160          50.000    25354632.920    99497020.418          50.000  
E25  26655152.760   140073701.574          50.000    26655160.920   104600466.488          50.000  
E30  24691572.100   129755053.695          50.000    24691577.120    96894992.680          50.000  
E36  23552537.240   123769383.734          50.000    23552542.280    92425176.105          50.000  
> 2020  5 29 23 28 15.0000000  0 14       0.000000000000
G 2  24466822.040   128574018.215          50.000                                                  
G 5  21461915.560   112783042.879          50.000                                                  
G12  22764534.760   119628415.008          50.000                                                  
G21  23303319.860   122459763.781          50.000                                                  
G25  21221876.960   111521648.676          50.000    21221879.780    83279150.246          50.000  
G29  20617821.620   108347377.945          50.000                                                  
G31  24825040.240   130456377.004          50.000                                                  
E 2  24290381.920   127646805.379          50.000    24290385.880    95320655.594          50.000  
E 4  27394014.920   143956503.207          50.000    27394019.120   107499973.570          50.000  
E 9  24516002.760   128832420.309          50.000    24516008.580    96206010.781          50.000  
E11  25354985.740   133241360.020          50.000    25354986.640    99498408.531          50.000  
E25  26655739.400   140076784.406          50.000    26655747.560   104602768.602          50.000  
E30  24691321.620   129753737.445          50.000    24691326.660    96894009.770          50.000  
E36  23552620.980   123769823.730          50.000    23552626.000    92425504.676          50.000  
> 2020  5 29 23 28 16.0000000  0 14       0.000000000000
G 2  24467289.800   128576476.367          50.000                                                  
G 5  21462231.220   112784701.676          50.000                                                  
G12  22765205.100   119631937.598          50.000                                                  
G21  23302941.900   122457777.609          50.000                                                  
G25  21222330.720   111524033.164          50.000    21222333.540    83280930.867          50.000  
G29  20617651.000   108346481.313          50.000                                                  
G31  24825306.040   130457773.875          50.000                                                  
E 2  24290641.580   127648169.805          50.000    24290645.520    95321674.484          50.000  
E 4  27394025.680   143956559.750          50.000    27394029.880   107500015.797          50.000  
E 9  24515615.780   128830386.664          50.000    24515621.580    96204492.152          50.000  
E11  25355339.460   133243218.879          50.000    25355340.380    99499796.641          50.000  
E25  26656326.060   140079867.320          50.000    26656334.220   104605070.773          50.000  
E30  24691071.220   129752421.633          50.000    24691076.260    96893027.184          50.000  
E36  23552704.720   123770263.836          50.000    23552709.760    92425833.328          50.000  
> 2020  5 29 23 28 17.0000000  0 14       0.000000000000
G 2  24467757.580   128578934.496          50.000                                                  
G 5  21462547.000   112786361.090          50.000                                                  
G12  22765875.480   119635460.453          50.000                                                  
G21  23302564.000   122455791.676          50.000                                                  
G25  21222784.560   111526418.141          50.000    21222787.380    83282711.855          50.000  
G29  20617480.440   108345584.977          50.000                                                  
G31  24825571.940   130459171.137          50.000                                                  
E 2  24290901.300   127649534.641          50.000    24290905.240    95322693.676          50.000  
E 4  27394036.540   143956616.734          50.000    27394040.720   107500058.348          50.000  
E 9  24515228.840   128828353.273          50.000    24515234.640    96202973.711          50.000  
E11  25355693.200   133245077.750          50.000    25355694.100    99501184.758          50.000  
E25  26656912.740   140082950.309          50.000    26656920.900   104607373.004          50.000  
E30  24690820.920   129751106.258          50.000    24690825.960    96892044.926          50.000  
E36  23552788.500   123770704.043          50.000    23552793.520    92426162.055          50.000  
> 2020  5 29 23 28 18.0000000  0 14       0.000000000000
G 2  24468225.340   128581392.594          50.000                                                  
G 5  21462862.900   112788021.098          50.000                                                  
G12  22766545.900   119638983.555          50.000                                                  
G21  23302186.120   122453805.965          50.000                                                  
G25  21223238.500   111528803.617          50.000    21223241.320    83284493.219          50.000  
G29  20617309.920   108344688.930          50.000                                                  
G31  24825837.900   130460568.793          50.000                                                  
E 2  24291161.100   127650899.910          50.000    24291165.040    95323713.199          50.000  
E 4  27394047.460   143956674.176          50.000    27394051.640   107500101.242          50.000  
E 9  24514841.940   128826320.129          50.000    24514847.740    96201455.457          50.000  
E11  25356046.920   133246936.613          50.000    25356047.840    99502572.867          50.000  
E25  26657499.440   140086033.387          50.000    26657507.600   104609675.301          50.000  
E30  24690570.680   129749791.297          50.000    24690575.720    96891062.973          50.000  
E36  23552872.280   123771144.355          50.000    23552877.300    92426490.859          50.000  
> 2020  5 29 23 28 19.0000000  0 14       0.000000000000
G 2  24468693.100   128583850.660          50.000                                                  
G 5  21463178.900   112789681.711          50.000                                                  
G12  22767216.380   119642506.910          50.000                                                  
G21  23301808.300   122451820.480          50.000                                                  
G25  21223692.540   111531189.609          50.000    21223695.360    83286274.965          50.000  
G29  20617139.460   108343793.180          50.000                                                  
G31  24826103.940   130461966.832          50.000                                                  
E 2  24291420.980   127652265.625          50.000    24291424.920    95324733.051          50.000  
E 4  27394058.480   143956732.051          50.000    27394062.660   107500144.461          50.000  
E 9  24514455.080   128824287.246          50.000    24514460.900    96199937.398          50.000  
E11  25356400.660   133248795.469          50.000    25356401.560    99503960.977          50.000  
E25  26658086.140   140089116.563          50.000    26658094.300   104611977.668          50.000  
E30  24690320.540   129748476.770          50.000    24690325.580    96890081.348          50.000  
E36  23552956.100   123771584.777          50.000    23552961.120    92426819.746          50.000  
> 2020  5 29 23 28 20.0000000  0 14       0.000000000000
G 2  24469160.840   128586308.703          50.000                                                  
G 5  21463495.020   112791342.926          50.000                                                  
G12  22767886.900   119646030.508          50.000                                                  
G21  23301430.520   122449835.230          50.000                                                  
G25  21224146.680   111533576.078          50.000    21224149.500    83288057.070          50.000  
G29  20616969.060   108342897.715          50.000                                                  
G31  24826370.060   130463365.266          50.000                                                  
E 2  24291680.940   127653631.746          50.000    24291684.900    95325753.203          50.000  
E 4  27394069.580   143956790.383          50.000    27394073.760   107500188.023          50.000  
E 9  24514068.280   128822254.602          50.000    24514074.100    96198419.516          50.000  
E11  25356754.380   133250654.316          50.000    25356755.300    99505349.074          50.000  
E25  26658672.880   140092199.820          50.000    26658681.040   104614280.102          50.000  
E30  24690070.480   129747162.672          50.000    24690075.500    96889100.043          50.000  
E36  23553039.920   123772025.305          50.000    23553044.940    92427148.711          50.000  
> 2020  5 29 23 28 21.0000000  0 14       0.000000000000
G 2  24469628.580   128588766.703          50.000                                                  
G 5  21463811.240   112793004.734          50.000                                                  
G12  22768557.460   119649554.387          50.000                                                  
G21  23301052.780   122447850.211          50.000                                                  
G25  21224600.900   111535963.051          50.000    21224603.720    83289839.547          50.000  
G29  20616798.720   108342002.547          50.000                                                  
G31  24826636.240   130464764.098          50.000                                                  
E 2  24291941.000   127654998.352          50.000    24291944.940    95326773.723          50.000  
E 4  27394080.760   143956849.148          50.000    27394084.940   107500231.906          50.000  
E 9  24513681.540   128820222.203          50.000    24513687.340    96196901.820          50.000  
E11  25357108.100   133252513.148          50.000    25357109.020    99506737.164          50.000  
E25  26659259.620   140095283.148          50.000    26659267.780   104616582.582          50.000  
E30  24689820.500   129745849.016          50.000    24689825.520    96888119.066          50.000  
E36  23553123.780   123772465.930          50.000    23553128.800    92427477.746          50.000  
> 2020  5 29 23 28 22.0000000  0 14       0.000000000000
G 2  24470096.320   128591224.684          50.000                                                  
G 5  21464127.600   112794667.141          50.000                                                  
G12  22769228.100   119653078.559          50.000                                                  
G21  23300675.080   122445865.402          50.000                                                  
G25  21225055.220   111538350.527          50.000    21225058.040    83291622.402          50.000  
G29  20616628.420   108341107.664          50.000                                                  
G31  24826902.500   130466163.309          50.000                                                  
E 2  24292201.140   127656365.363          50.000    24292205.080    95327794.543          50.000  
E 4  27394092.020   143956908.355          50.000    27394096.220   107500276.117          50.000  
E 9  24513294.820   128818190.051          50.000    24513300.640    96195384.305          50.000  
E11  25357461.820   133254371.980          50.000    25357462.740    99508125.250          50.000  
E25  26659846.360   140098366.570          50.000    26659854.520   104618885.133          50.000  
E30  24689570.600   129744535.773          50.000    24689575.620    96887138.398          50.000  
E36  23553207.640   123772906.668          50.000    23553212.660    92427806.875          50.000  
> 2020  5 29 23 28 23.0000000  0 14       0.000000000000
G 2  24470564.060   128593682.629          50.000                                                  
G 5  21464444.060   112796330.164          50.000                                                  
G12  22769898.760   119656602.891          50.000                                                  
G21  23300297.440   122443880.855          50.000                                                  
G25  21225509.640   111540738.496          50.000    21225512.460    83293405.625          50.000  
G29  20616458.200   108340213.074          50.000                                                  
G31  24827168.840   130467562.922          50.000                                                  
E 2  24292461.360   127657732.813          50.000    24292465.300    95328815.688          50.000  
E 4  27394103.380   143956968.012          50.000    27394107.560   107500320.664          50.000  
E 9  24512908.180   128816158.152          50.000    24512913.980    96193866.980          50.000  
E11  25357815.560   133256230.820          50.000    25357816.460    99509513.344          50.000  
E25  26660433.140   140101450.066          50.000    26660441.300   104621187.742          50.000  
E30  24689320.780   129743222.965          50.000    24689325.800    96886158.059          50.000  
E36  23553291.540   123773347.512          50.000    23553296.560    92428136.074          50.000  
> 2020  5 29 23 28 24.0000000  0 14       0.000000000000
G 2  24471031.780   128596140.547          50.000                                                  
G 5  21464760.620   112797993.770          50.000                                                  
G12  22770569.480   119660127.500          50.000                                                  
G21  23299919.820   122441896.512          50.000                                                  
G25  21225964.160   111543126.961          50.000    21225966.980    83295189.215          50.000  
G29  20616288.020   108339318.766          50.000                                                  
G31  24827435.260   130468962.926          50.000                                                  
E 2  24292721.660   127659100.691          50.000    24292725.600    95329837.152          50.000  
E 4  27394114.820   143957028.109          50.000    27394119.000   107500365.543          50.000  
E 9  24512521.560   128814126.500          50.000    24512527.360    96192349.840          50.000  
E11  25358169.280   133258089.660          50.000    25358170.200    99510901.441          50.000  
E25  26661019.920   140104533.656          50.000    26661028.100   104623490.418          50.000  
E30  24689071.040   129741910.598          50.000    24689076.060    96885178.043          50.000  
E36  23553375.440   123773788.457          50.000    23553380.460    92428465.352          50.000  
> 2020  5 29 23 28 25.0000000  0 14       0.000000000000
G 2  24471499.500   128598598.426          50.000                                                  
G 5  21465077.320   112799657.988          50.000                                                  
G12  22771240.240   119663652.375          50.000                                                  
G21  23299542.260   122439912.410          50.000                                                  
G25  21226418.760   111545515.918          50.000    21226421.580    83296973.176          50.000  
G29  20616117.880   108338424.758          50.000                                                  
G31  24827701.740   130470363.324          50.000                                                  
E 2  24292982.040   127660469.008          50.000    24292985.980    95330858.949          50.000  
E 4  27394126.340   143957088.660          50.000    27394130.520   107500410.762          50.000  
E 9  24512135.000   128812095.109          50.000    24512140.800    96190832.891          50.000  
E11  25358523.000   133259948.488          50.000    25358523.920    99512289.523          50.000  
E25  26661606.740   140107617.336          50.000    26661614.900   104625793.168          50.000  
E30  24688821.380   129740598.648          50.000    24688826.420    96884198.344          50.000  
E36  23553459.360   123774229.512          50.000    23553464.400    92428794.707          50.000  
> 2020  5 29 23 28 26.0000000  0 14       0.000000000000
G 2  24471967.220   128601056.273          50.000                                                  
G 5  21465394.120   112801322.797          50.000                                                  
G12  22771911.040   119667177.500          50.000                                                  
G21  23299164.740   122437928.535          50.000                                                  
G25  21226873.460   111547905.379          50.000    21226876.280    83298757.512          50.000  
G29  20615947.820   108337531.043          50.000                                                  
G31  24827968.300   130471764.113          50.000                                                  
E 2  24293242.500   127661837.727          50.000    24293246.440    95331881.043          50.000  
E 4  27394137.940   143957149.652          50.000    27394142.120   107500456.309          50.000  
E 9  24511748.480   128810063.953          50.000    24511754.280    96189316.121          50.000  
E11  25358876.720   133261807.309          50.000    25358877.640    99513677.602          50.000  
E25  26662193.560   140110701.105          50.000    26662201.720   104628095.977          50.000  
E30  24688571.800   129739287.129          50.000    24688576.840    96883218.957          50.000  
E36  23553543.320   123774670.668          50.000    23553548.340    92429124.145          50.000  
> 2020  5 29 23 28 27.0000000  0 14       0.000000000000
G 2  24472434.920   128603514.098          50.000                                                  
G 5  21465711.040   112802988.211          50.000                                                  
G12  22772581.900   119670702.871          50.000                                                  
G21  23298787.260   122435944.906          50.000                                                  
G25  21227328.240   111550295.328          50.000    21227331.060    83300542.215          50.000  
G29  20615777.800   108336637.613          50.000                                                  
G31  24828234.940   130473165.293          50.000                                                  
E 2  24293503.040   127663206.934          50.000    24293507.000    95332903.504          50.000  
E 4  27394149.640   143957211.094          50.000    27394153.820   107500502.191          50.000  
E 9  24511362.020   128808033.063          50.000    24511367.820    96187799.551          50.000  
E11  25359230.440   133263666.117          50.000    25359231.360    99515065.672          50.000  
E25  26662780.400   140113784.938          50.000    26662788.560   104630398.836          50.000  
E30  24688322.320   129737976.043          50.000    24688327.340    96882239.902          50.000  
E36  23553627.280   123775111.934          50.000    23553632.320    92429453.660          50.000  
> 2020  5 29 23 28 28.0000000  0 14       0.000000000000
G 2  24472902.620   128605971.887          50.000                                                  
G 5  21466028.080   112804654.227          50.000                                                  
G12  22773252.800   119674228.477          50.000                                                  
G21  23298409.840   122433961.500          50.000                                                  
G25  21227783.140   111552685.789          50.000    21227785.960    83302327.297          50.000  
G29  20615607.840   108335744.480          50.000                                                  
G31  24828501.660   130474566.867          50.000                                                  
E 2  24293763.680   127664576.555          50.000    24293767.620    95333926.273          50.000  
E 4  27394161.400   143957272.973          50.000    27394165.600   107500548.398          50.000  
E 9  24510975.600   128806002.410          50.000    24510981.400    96186283.152          50.000  
E11  25359584.160   133265524.930          50.000    25359585.080    99516453.746          50.000  
E25  26663367.240   140116868.871          50.000    26663375.420   104632701.770          50.000  
E30  24688072.900   129736665.395          50.000    24688077.940    96881261.172          50.000  
E36  23553711.280   123775553.305          50.000    23553716.300    92429783.258          50.000  
> 2020  5 29 23 28 29.0000000  0 14       0.000000000000
G 2  24473370.320   128608429.648          50.000                                                  
G 5  21466345.220   112806320.836          50.000                                                  
G12  22773923.760   119677754.352          50.000                                                  
G21  23298032.440   122431978.324          50.000                                                  
G25  21228238.120   111555076.727          50.000    21228240.940    83304112.738          50.000  
G29  20615437.940   108334851.637          50.000                                                  
G31  24828768.440   130475968.832          50.000                                                  
E 2  24294024.380   127665946.609          50.000    24294028.340    95334949.363          50.000  
E 4  27394173.280   143957335.301          50.000    27394177.460   107500594.941          50.000  
E 9  24510589.220   128803972.004          50.000    24510595.020    96184766.945          50.000  
E11  25359937.880   133267383.727          50.000    25359938.800    99517841.809          50.000  
E25  26663954.120   140119952.875          50.000    26663962.280   104635004.758          50.000  
E30  24687823.580   129735355.164          50.000    24687828.600    96880282.754          50.000  
E36  23553795.280   123775994.773          50.000    23553800.320    92430112.926          50.000  
> 2020  5 29 23 28 30.0000000  0 14       0.000000000000
G 2  24473838.020   128610887.387          50.000                                                  
G 5  21466662.480   112807988.043          50.000                                                  
G12  22774594.760   119681280.449          50.000                                                  
G21  23297655.100   122429995.371          50.000                                                  
G25  21228693.200   111557468.172          50.000    21228696.020    83305898.555          50.000  
G29  20615268.100   108333959.070          50.000                                                  
G31  24829035.300   130477371.184          50.000                                                  
E 2  24294285.180   127667317.090          50.000    24294289.140    95335972.773          50.000  
E 4  27394185.220   143957398.059          50.000    27394189.400   107500641.809          50.000  
E 9  24510202.900   128801941.855          50.000    24510208.700    96183250.926          50.000  
E11  25360291.600   133269242.527          50.000    25360292.520    99519229.875          50.000  
E25  26664541.000   140123036.992          50.000    26664549.180   104637307.828          50.000  
E30  24687574.320   129734045.355          50.000    24687579.360    96879304.652          50.000  
E36  23553879.320   123776436.348          50.000    23553884.340    92430442.672          50.000  
> 2020  5 29 23 28 31.0000000  0 14       0.000000000000
G 2  24474305.700   128613345.082          50.000                                                  
G 5  21466979.860   112809655.852          50.000                                                  
G12  22775265.800   119684806.801          50.000                                                  
G21  23297277.800   122428012.660          50.000                                                  
G25  21229148.360   111559860.105          50.000    21229151.180    83307684.742          50.000  
G29  20615098.300   108333066.805          50.000                                                  
G31  24829302.240   130478773.926          50.000                                                  
E 2  24294546.060   127668688.016          50.000    24294550.000    95336996.516          50.000  
E 4  27394197.240   143957461.277          50.000    27394201.420   107500689.016          50.000  
E 9  24509816.620   128799911.953          50.000    24509822.420    96181735.094          50.000  
E11  25360645.320   133271101.328          50.000    25360646.240    99520617.938          50.000  
E25  26665127.920   140126121.176          50.000    26665136.080   104639610.953          50.000  
E30  24687325.160   129732735.992          50.000    24687330.200    96878326.879          50.000  
E36  23553963.360   123776878.035          50.000    23553968.400    92430772.504          50.000  
> 2020  5 29 23 28 32.0000000  0 14       0.000000000000
G 2  24474773.380   128615802.746          50.000                                                  
G 5  21467297.340   112811324.262          50.000                                                  
G12  22775936.900   119688333.410          50.000                                                  
G21  23296900.540   122426030.160          50.000                                                  
G25  21229603.640   111562252.551          50.000    21229606.460    83309471.305          50.000  
G29  20614928.560   108332174.816          50.000                                                  
G31  24829569.240   130480177.055          50.000                                                  
E 2  24294807.020   127670059.355          50.000    24294810.960    95338020.566          50.000  
E 4  27394209.360   143957524.930          50.000    27394213.540   107500736.547          50.000  
E 9  24509430.380   128797882.293          50.000    24509436.180    96180219.438          50.000  
E11  25360999.040   133272960.105          50.000    25360999.940    99522005.988          50.000  
E25  26665714.820   140129205.438          50.000    26665723.000   104641914.129          50.000  
E30  24687076.080   129731427.055          50.000    24687081.120    96877349.430          50.000  
E36  23554047.440   123777319.820          50.000    23554052.460    92431102.406          50.000  
> 2020  5 29 23 28 33.0000000  0 14       0.000000000000
G 2  24475241.060   128618260.391          50.000                                                  
G 5  21467614.940   112812993.277          50.000                                                  
G12  22776608.040   119691860.262          50.000                                                  
G21  23296523.340   122424047.906          50.000                                                  
G25  21230059.000   111564645.484          50.000    21230061.820    83311258.234          50.000  
G29  20614758.880   108331283.125          50.000                                                  
G31  24829836.320   130481580.586          50.000                                                  
E 2  24295068.060   127671431.148          50.000    24295072.020    95339044.957          50.000  
E 4  27394221.560   143957589.035          50.000    27394225.740   107500784.418          50.000  
E 9  24509044.200   128795852.895          50.000    24509050.000    96178703.980          50.000  
E11  25361352.760   133274818.891          50.000    25361353.660    99523394.039          50.000  
E25  26666301.760   140132289.801          50.000    26666309.940   104644217.387          50.000  
E30  24686827.080   129730118.543          50.000    24686832.100    96876372.293          50.000  
E36  23554131.520   123777761.719          50.000    23554136.560    92431432.398          50.000  
> 2020  5 29 23 28 34.0000000  0 14       0.000000000000
G 2  24475708.720   128620718.000          50.000                                                  
G 5  21467932.660   112814662.887          50.000                                                  
G12  22777279.220   119695387.375          50.000                                                  
G21  23296146.160   122422065.859          50.000                                                  
G25  21230514.440   111567038.906          50.000    21230517.280    83313045.531          50.000  
G29  20614589.240   108330391.715          50.000                                                  
G31  24830103.480   130482984.496          50.000                                                  
E 2  24295329.180   127672803.367          50.000    24295333.140    95340069.668          50.000  
E 4  27394233.840   143957653.578          50.000    27394238.020   107500832.617          50.000  
E 9  24508658.060   128793823.734          50.000    24508663.860    96177188.699          50.000  
E11  25361706.460   133276677.652          50.000    25361707.380    99524782.074          50.000  
E25  26666888.720   140135374.223          50.000    26666896.880   104646520.688          50.000  
E30  24686578.160   129728810.461          50.000    24686583.180    96875395.480          50.000  
E36  23554215.640   123778203.711          50.000    23554220.660    92431762.457          50.000  
> 2020  5 29 23 28 35.0000000  0 14       0.000000000000
G 2  24476176.400   128623175.578          50.000                                                  
G 5  21468250.480   112816333.102          50.000                                                  
G12  22777950.460   119698914.711          50.000                                                  
G21  23295769.040   122420084.063          50.000                                                  
G25  21230970.000   111569432.832          50.000    21230972.820    83314833.199          50.000  
G29  20614419.680   108329500.613          50.000                                                  
G31  24830370.720   130484388.809          50.000                                                  
E 2  24295590.400   127674176.027          50.000    24295594.340    95341094.703          50.000  
E 4  27394246.200   143957718.570          50.000    27394250.380   107500881.152          50.000  
E 9  24508271.980   128791794.836          50.000    24508277.780    96175673.617          50.000  
E11  25362060.180   133278536.438          50.000    25362061.100    99526170.129          50.000  
E25  26667475.680   140138458.750          50.000    26667483.840   104648824.066          50.000  
E30  24686329.320   129727502.820          50.000    24686334.360    96874418.996          50.000  
E36  23554299.760   123778645.820          50.000    23554304.800    92432092.605          50.000  
> 2020  5 29 23 28 36.0000000  0 14       0.000000000000
G 2  24476644.040   128625633.121          50.000                                                  
G 5  21468568.440   112818003.914          50.000                                                  
G12  22778621.740   119702442.309          50.000                                                  
G21  23295391.960   122418102.484          50.000                                                  
G25  21231425.640   111571827.258          50.000    21231428.460    83316621.242          50.000  
G29  20614250.160   108328609.777          50.000                                                  
G31  24830638.020   130485793.512          50.000                                                  
E 2  24295851.680   127675549.117          50.000    24295855.640    95342120.063          50.000  
E 4  27394258.660   143957784.000          50.000    27394262.840   107500930.012          50.000  
E 9  24507885.920   128789766.172          50.000    24507891.720    96174158.707          50.000  
E11  25362413.880   133280395.199          50.000    25362414.800    99527558.164          50.000  
E25  26668062.660   140141543.367          50.000    26668070.840   104651127.508          50.000  
E30  24686080.560   129726195.609          50.000    24686085.600    96873442.832          50.000  
E36  23554383.920   123779088.035          50.000    23554388.940    92432422.828          50.000  
> 2020  5 29 23 28 37.0000000  0 14       0.000000000000
G 2  24477111.700   128628090.637          50.000                                                  
G 5  21468886.500   112819675.332          50.000                                                  
G12  22779293.060   119705970.141          50.000                                                  
G21  23295014.920   122416121.148          50.000                                                  
G25  21231881.380   111574222.172          50.000    21231884.200    83318409.652          50.000  
G29  20614080.700   108327719.258          50.000                                                  
G31  24830905.400   130487198.605          50.000                                                  
E 2  24296113.060   127676922.641          50.000    24296117.000    95343145.746          50.000  
E 4  27394271.200   143957849.887          50.000    27394275.380   107500979.211          50.000  
E 9  24507499.940   128787737.770          50.000    24507505.740    96172643.992          50.000  
E11  25362767.600   133282253.973          50.000    25362768.520    99528946.207          50.000  
E25  26668649.660   140144628.066          50.000    26668657.840   104653431.016          50.000  
E30  24685831.900   129724888.816          50.000    24685836.920    96872466.984          50.000  
E36  23554468.080   123779530.348          50.000    23554473.100    92432753.129          50.000  
> 2020  5 29 23 28 38.0000000  0 14       0.000000000000
G 2  24477579.340   128630548.121          50.000                                                  
G 5  21469204.660   112821347.332          50.000                                                  
G12  22779964.440   119709498.234          50.000                                                  
G21  23294637.920   122414140.047          50.000                                                  
G25  21232337.220   111576617.574          50.000    21232340.040    83320198.426          50.000  
G29  20613911.300   108326829.027          50.000                                                  
G31  24831172.860   130488604.094          50.000                                                  
E 2  24296374.520   127678296.582          50.000    24296378.460    95344171.738          50.000  
E 4  27394283.820   143957916.207          50.000    27394288.000   107501028.738          50.000  
E 9  24507113.980   128785709.609          50.000    24507119.780    96171129.457          50.000  
E11  25363121.320   133284112.727          50.000    25363122.220    99530334.238          50.000  
E25  26669236.680   140147712.828          50.000    26669244.840   104655734.570          50.000  
E30  24685583.300   129723582.461          50.000    24685588.340    96871491.457          50.000  
E36  23554552.280   123779972.766          50.000    23554557.300    92433083.504          50.000  
> 2020  5 29 23 28 39.0000000  0 14       0.000000000000
G 2  24478046.980   128633005.582          50.000                                                  
G 5  21469522.960   112823019.945          50.000                                                  
G12  22780635.860   119713026.566          50.000                                                  
G21  23294260.980   122412159.164          50.000                                                  
G25  21232793.140   111579013.484          50.000    21232795.960    83321987.582          50.000  
G29  20613741.940   108325939.086          50.000                                                  
G31  24831440.380   130490009.965          50.000                                                  
E 2  24296636.060   127679670.973          50.000    24296640.000    95345198.070          50.000  
E 4  27394296.520   143957982.980          50.000    27394300.700   107501078.602          50.000  
E 9  24506728.080   128783681.711          50.000    24506733.880    96169615.121          50.000  
E11  25363475.020   133285971.469          50.000    25363475.940    99531722.262          50.000  
E25  26669823.700   140150797.688          50.000    26669831.880   104658038.195          50.000  
E30  24685334.800   129722276.539          50.000    24685339.820    96870516.258          50.000  
E36  23554636.480   123780415.293          50.000    23554641.500    92433413.961          50.000  
> 2020  5 29 23 28 40.0000000  0 14       0.000000000000
G 2  24478514.620   128635463.008          50.000                                                  
G 5  21469841.360   112824693.156          50.000                                                  
G12  22781307.320   119716555.145          50.000                                                  
G21  23293884.060   122410178.516          50.000                                                  
G25  21233249.160   111581409.891          50.000    21233251.980    83323777.102          50.000  
G29  20613572.640   108325049.438          50.000                                                  
G31  24831707.980   130491416.234          50.000                                                  
E 2  24296897.680   127681045.797          50.000    24296901.620    95346224.723          50.000  
E 4  27394309.300   143958050.191          50.000    27394313.500   107501128.789          50.000  
E 9  24506342.240   128781654.047          50.000    24506348.040    96168100.957          50.000  
E11  25363828.720   133287830.215          50.000    25363829.640    99533110.285          50.000  
E25  26670410.760   140153882.625          50.000    26670418.920   104660341.879          50.000  
E30  24685086.360   129720971.043          50.000    24685091.400    96869541.375          50.000  
E36  23554720.720   123780857.918          50.000    23554725.740    92433744.496          50.000  
> 2020  5 29 23 28 41.0000000  0 14       0.000000000000
G 2  24478982.240   128637920.406          50.000                                                  
G 5  21470159.860   112826366.957          50.000                                                  
G12  22781978.840   119720083.988          50.000                                                  
G21  23293507.200   122408198.094          50.000                                                  
G25  21233705.280   111583806.789          50.000    21233708.100    83325566.992          50.000  
G29  20613403.400   108324160.074          50.000                                                  
G31  24831975.660   130492822.902          50.000                                                  
E 2  24297159.380   127682421.055          50.000    24297163.320    95347251.703          50.000  
E 4  27394322.180   143958117.840          50.000    27394326.360   107501179.309          50.000  
E 9  24505956.440   128779626.645          50.000    24505962.240    96166586.992          50.000  
E11  25364182.440   133289688.945          50.000    25364183.340    99534498.297          50.000  
E25  26670997.820   140156967.664          50.000    26671006.000   104662645.641          50.000  
E30  24684838.020   129719665.988          50.000    24684843.040    96868566.820          50.000  
E36  23554804.960   123781300.652          50.000    23554809.980    92434075.109          50.000  
> 2020  5 29 23 28 42.0000000  0 14       0.000000000000
G 2  24479449.860   128640377.773          50.000                                                  
G 5  21470478.500   112828041.355          50.000                                                  
G12  22782650.400   119723613.074          50.000                                                  
G21  23293130.380   122406217.906          50.000                                                  
G25  21234161.480   111586204.188          50.000    21234164.320    83327357.258          50.000  
G29  20613234.220   108323271.004          50.000                                                  
G31  24832243.420   130494229.953          50.000                                                  
E 2  24297421.160   127683796.742          50.000    24297425.100    95348279.004          50.000  
E 4  27394335.140   143958185.949          50.000    27394339.320   107501230.168          50.000  
E 9  24505570.680   128777599.496          50.000    24505576.480    96165073.211          50.000  
E11  25364536.140   133291547.695          50.000    25364537.060    99535886.320          50.000  
E25  26671584.900   140160052.773          50.000    26671593.080   104664949.453          50.000  
E30  24684589.760   129718361.352          50.000    24684594.780    96867592.578          50.000  
E36  23554889.240   123781743.496          50.000    23554894.260    92434405.805          50.000  
> 2020  5 29 23 28 43.0000000  0 14       0.000000000000
G 2  24479917.480   128642835.105          50.000                                                  
G 5  21470797.240   112829716.363          50.000                                                  
G12  22783322.020   119727142.402          50.000                                                  
G21  23292753.620   122404237.945          50.000                                                  
G25  21234617.780   111588602.074          50.000    21234620.620    83329147.887          50.000  
G29  20613065.100   108322382.234          50.000                                                  
G31  24832511.240   130495637.391          50.000                                                  
E 2  24297683.020   127685172.852          50.000    24297686.980    95349306.613          50.000  
E 4  27394348.180   143958254.496          50.000    27394352.380   107501281.355          50.000  
E 9  24505184.980   128775572.590          50.000    24505190.760    96163559.613          50.000  
E11  25364889.840   133293406.438          50.000    25364890.760    99537274.344          50.000  
E25  26672172.000   140163137.973          50.000    26672180.160   104667253.332          50.000  
E30  24684341.580   129717057.148          50.000    24684346.600    96866618.664          50.000  
E36  23554973.520   123782186.441          50.000    23554978.540    92434736.574          50.000  
> 2020  5 29 23 28 44.0000000  0 14       0.000000000000
G 2  24480385.100   128645292.418          50.000                                                  
G 5  21471116.100   112831391.961          50.000                                                  
G12  22783993.680   119730671.980          50.000                                                  
G21  23292376.880   122402258.203          50.000                                                  
G25  21235074.180   111591000.457          50.000    21235077.020    83330938.887          50.000  
G29  20612896.020   108321493.750          50.000                                                  
G31  24832779.160   130497045.234          50.000                                                  
E 2  24297944.980   127686549.422          50.000    24297948.920    95350334.570          50.000  
E 4  27394361.320   143958323.496          50.000    27394365.500   107501332.883          50.000  
E 9  24504799.300   128773545.938          50.000    24504805.100    96162046.207          50.000  
E11  25365243.560   133295265.164          50.000    25365244.460    99538662.355          50.000  
E25  26672759.100   140166223.250          50.000    26672767.280   104669557.270          50.000  
E30  24684093.480   129715753.371          50.000    24684098.500    96865645.063          50.000  
E36  23555057.840   123782629.492          50.000    23555062.860    92435067.426          50.000  
> 2020  5 29 23 28 45.0000000  0 14       0.000000000000
G 2  24480852.700   128647749.684          50.000                                                  
G 5  21471435.060   112833068.152          50.000                                                  
G12  22784665.380   119734201.813          50.000                                                  
G21  23292000.200   122400278.715          50.000                                                  
G25  21235530.680   111593399.340          50.000    21235533.500    83332730.258          50.000  
G29  20612727.000   108320605.563          50.000                                                  
G31  24833047.140   130498453.469          50.000                                                  
E 2  24298207.020   127687926.414          50.000    24298210.960    95351362.844          50.000  
E 4  27394374.520   143958392.930          50.000    27394378.720   107501384.734          50.000  
E 9  24504413.700   128771519.535          50.000    24504419.500    96160532.988          50.000  
E11  25365597.260   133297123.887          50.000    25365598.180    99540050.359          50.000  
E25  26673346.220   140169308.605          50.000    26673354.400   104671861.266          50.000  
E30  24683845.460   129714450.039          50.000    24683850.480    96864671.797          50.000  
E36  23555142.160   123783072.652          50.000    23555147.180    92435398.355          50.000  
> 2020  5 29 23 28 46.0000000  0 14       0.000000000000
G 2  24481320.300   128650206.926          50.000                                                  
G 5  21471754.140   112834744.938          50.000                                                  
G12  22785337.140   119737731.883          50.000                                                  
G21  23291623.540   122398299.438          50.000                                                  
G25  21235987.260   111595798.703          50.000    21235990.100    83334521.992          50.000  
G29  20612558.040   108319717.656          50.000                                                  
G31  24833315.180   130499862.098          50.000                                                  
E 2  24298469.120   127689303.820          50.000    24298473.080    95352391.430          50.000  
E 4  27394387.820   143958462.809          50.000    27394392.020   107501436.914          50.000  
E 9  24504028.140   128769493.383          50.000    24504033.920    96159019.953          50.000  
E11  25365950.960   133298982.586          50.000    25365951.880    99541438.348          50.000  
E25  26673933.380   140172394.051          50.000    26673941.560   104674165.328          50.000  
E30  24683597.520   129713147.129          50.000    24683602.540    96863698.848          50.000  
E36  23555226.520   123783515.914          50.000    23555231.540    92435729.363          50.000  
> 2020  5 29 23 28 47.0000000  0 14       0.000000000000
G 2  24481787.880   128652664.129          50.000                                                  
G 5  21472073.340   112836422.332          50.000                                                  
G12  22786008.940   119741262.207          50.000                                                  
G21  23291246.940   122396320.395          50.000                                                  
G25  21236443.940   111598198.570          50.000    21236446.780    83336314.098          50.000  
G29  20612389.140   108318830.051          50.000                                                  
G31  24833583.320   130501271.113          50.000                                                  
E 2  24298731.320   127690681.680          50.000    24298735.280    95353420.348          50.000  
E 4  27394401.200   143958533.133          50.000    27394405.400   107501489.430          50.000  
E 9  24503642.620   128767467.480          50.000    24503648.400    96157507.105          50.000  
E11  25366304.660   133300841.305          50.000    25366305.580    99542826.355          50.000  
E25  26674520.540   140175479.586          50.000    26674528.720   104676469.457          50.000  
E30  24683349.660   129711844.648          50.000    24683354.700    96862726.215          50.000  
E36  23555310.880   123783959.281          50.000    23555315.900    92436060.449          50.000  
> 2020  5 29 23 28 48.0000000  0 14       0.000000000000
G 2  24482255.480   128655121.309          50.000                                                  
G 5  21472392.660   112838100.305          50.000                                                  
G12  22786680.780   119744792.785          50.000                                                  
G21  23290870.380   122394341.555          50.000                                                  
G25  21236900.720   111600598.941          50.000    21236903.540    83338106.582          50.000  
G29  20612220.280   108317942.727          50.000                                                  
G31  24833851.520   130502680.523          50.000                                                  
E 2  24298993.600   127692059.980          50.000    24298997.560    95354449.598          50.000  
E 4  27394414.680   143958603.910          50.000    27394418.860   107501542.281          50.000  
E 9  24503257.140   128765441.832          50.000    24503262.940    96155994.449          50.000  
E11  25366658.360   133302700.027          50.000    25366659.280    99544214.359          50.000  
E25  26675107.700   140178565.207          50.000    26675115.880   104678773.656          50.000  
E30  24683101.900   129710542.598          50.000    24683106.920    96861753.906          50.000  
E36  23555395.280   123784402.758          50.000    23555400.300    92436391.613          50.000  
> 2020  5 29 23 28 49.0000000  0 14       0.000000000000
G 2  24482723.060   128657578.457          50.000                                                  
G 5  21472712.080   112839778.883          50.000                                                  
G12  22787352.680   119748323.602          50.000                                                  
G21  23290493.860   122392362.957          50.000                                                  
G25  21237357.580   111602999.789          50.000    21237360.420    83339899.422          50.000  
G29  20612051.480   108317055.703          50.000                                                  
G31  24834119.800   130504090.316          50.000                                                  
E 2  24299255.960   127693438.699          50.000    24299259.920    95355479.160          50.000  
E 4  27394428.220   143958675.125          50.000    27394432.420   107501595.465          50.000  
E 9  24502871.720   128763416.430          50.000    24502877.520    96154481.973          50.000  
E11  25367012.060   133304558.723          50.000    25367012.980    99545602.348          50.000  
E25  26675694.900   140181650.898          50.000    26675703.080   104681077.902          50.000  
E30  24682854.200   129709240.984          50.000    24682859.240    96860781.922          50.000  
E36  23555479.680   123784846.336          50.000    23555484.700    92436722.859          50.000  
> 2020  5 29 23 28 50.0000000  0 14       0.000000000000
G 2  24483190.620   128660035.559          50.000                                                  
G 5  21473031.620   112841458.066          50.000                                                  
G12  22788024.620   119751854.672          50.000                                                  
G21  23290117.400   122390384.609          50.000                                                  
G25  21237814.560   111605401.145          50.000    21237817.380    83341692.641          50.000  
G29  20611882.740   108316168.973          50.000                                                  
G31  24834388.140   130505500.500          50.000                                                  
E 2  24299518.420   127694817.855          50.000    24299522.360    95356509.051          50.000  
E 4  27394441.860   143958746.785          50.000    27394446.040   107501648.977          50.000  
E 9  24502486.340   128761391.281          50.000    24502492.140    96152969.688          50.000  
E11  25367365.760   133306417.430          50.000    25367366.680    99546990.340          50.000  
E25  26676282.100   140184736.672          50.000    26676290.280   104683382.211          50.000  
E30  24682606.600   129707939.785          50.000    24682611.620    96859810.246          50.000  
E36  23555564.120   123785290.012          50.000    23555569.140    92437054.176          50.000  
> 2020  5 29 23 28 51.0000000  0 14       0.000000000000
G 2  24483658.200   128662492.645          50.000                                                  
G 5  21473351.260   112843137.840          50.000                                                  
G12  22788696.600   119755385.980          50.000                                                  
G21  23289740.980   122388406.508          50.000                                                  
G25  21238271.600   111607803.000          50.000    21238274.440    83343486.230          50.000  
G29  20611714.060   108315282.539          50.000                                                  
G31  24834656.560   130506911.070          50.000                                                  
E 2  24299780.940   127696197.445          50.000    24299784.880    95357539.262          50.000  
E 4  27394455.580   143958818.883          50.000    27394459.760   107501702.816          50.000  
E 9  24502101.020   128759366.379          50.000    24502106.820    96151457.590          50.000  
E11  25367719.460   133308276.117          50.000    25367720.380    99548378.320          50.000  
E25  26676869.320   140187822.543          50.000    26676877.500   104685686.590          50.000  
E30  24682359.060   129706639.031          50.000    24682364.100    96858838.906          50.000  
E36  23555648.560   123785733.793          50.000    23555653.580    92437385.570          50.000  
> 2020  5 29 23 28 52.0000000  0 15       0.000000000000
G 2  24484125.740   128664949.820          50.000                                                  
G 5  21473671.040   112844818.137          50.000                                                  
G12  22789368.660   119758917.504          50.000                                                  
G21  23289364.580   122386428.734          50.000                                                  
G25  21238728.740   111610205.453          50.000    21238731.580    83345280.176          50.000  
G26  24244841.840   127407406.676          50.000    24244844.220    95141883.191          50.000  
G29  20611545.440   108314396.402          50.000                                                  
G31  24834925.100   130508321.836          50.000                                                  
E 2  24300043.560   127697577.422          50.000    24300047.520    95358569.738          50.000  
E 4  27394469.400   143958891.445          50.000    27394473.580   107501757.008          50.000  
E 9  24501715.740   128757341.797          50.000    24501721.520    96149945.762          50.000  
E11  25368073.160   133310134.797          50.000    25368074.080    99549766.297          50.000  
E25  26677456.620   140190908.238          50.000    26677464.840   104687990.695          50.000  
E30  24682111.640   129705338.668          50.000    24682116.660    96857867.832          50.000  
E36  23555733.020   123786177.691          50.000    23555738.060    92437717.063          50.000  
> 2020  5 29 23 28 53.0000000  0 15       0.000000000000
G 2  24484593.300   128667406.840          50.000                                                  
G 5  21473990.920   112846499.117          50.000                                                  
G12  22790040.740   119762449.313          50.000                                                  
G21  23288988.240   122384451.063          50.000                                                  
G25  21239185.980   111612608.285          50.000    21239188.840    83347074.496          50.000  
G26  24244273.780   127404421.488          50.000    24244276.160    95139653.996          50.000  
G29  20611376.860   108313510.543          50.000                                                  
G31  24835193.680   130509733.172          50.000                                                  
E 2  24300306.260   127698957.871          50.000    24300310.200    95359600.594          50.000  
E 4  27394483.280   143958964.430          50.000    27394487.460   107501811.508          50.000  
E 9  24501330.500   128755317.398          50.000    24501336.280    96148434.039          50.000  
E11  25368426.860   133311993.465          50.000    25368427.760    99551154.262          50.000  
E25  26678043.860   140193994.270          50.000    26678052.080   104690295.195          50.000  
E30  24681864.280   129704038.762          50.000    24681869.300    96856897.121          50.000  
E36  23555817.520   123786621.684          50.000    23555822.540    92438048.613          50.000  
> 2020  5 29 23 28 54.0000000  0 15       0.000000000000
G 2  24485060.860   128669863.828          50.000                                                  
G 5  21474310.920   112848180.680          50.000                                                  
G12  22790712.860   119765981.359          50.000                                                  
G21  23288611.980   122382473.730          50.000                                                  
G25  21239643.320   111615011.617          50.000    21239646.180    83348869.195          50.000  
G26  24243705.780   127401436.617          50.000    24243708.160    95137425.035          50.000  
G29  20611208.360   108312625.023          50.000                                                  
G31  24835462.320   130511144.910          50.000                                                  
E 2  24300569.020   127700338.746          50.000    24300572.980    95360631.766          50.000  
E 4  27394497.260   143959037.863          50.000    27394501.440   107501866.344          50.000  
E 9  24500945.320   128753293.238          50.000    24500951.100    96146922.496          50.000  
E11  25368780.540   133313852.152          50.000    25368781.460    99552542.238          50.000  
E25  26678631.140   140197080.379          50.000    26678639.360   104692599.758          50.000  
E30  24681617.000   129702739.293          50.000    24681622.020    96855926.738          50.000  
E36  23555902.020   123787065.773          50.000    23555907.060    92438380.238          50.000  
> 2020  5 29 23 28 55.0000000  0 15       0.000000000000
G 2  24485528.400   128672320.785          50.000                                                  
G 5  21474631.020   112849862.859          50.000                                                  
G12  22791385.040   119769513.660          50.000                                                  
G21  23288235.720   122380496.520          50.000                                                  
G25  21240100.760   111617415.438          50.000    21240103.600    83350664.254          50.000  
G26  24243137.840   127398452.051          50.000    24243140.200    95135196.305          50.000  
G29  20611039.900   108311739.750          50.000                                                  
G31  24835731.040   130512557.020          50.000                                                  
E 2  24300831.880   127701720.070          50.000    24300835.840    95361663.273          50.000  
E 4  27394511.320   143959111.746          50.000    27394515.500   107501921.516          50.000  
E 9  24500560.180   128751269.340          50.000    24500565.960    96145411.141          50.000  
E11  25369134.240   133315710.820          50.000    25369135.160    99553930.207          50.000  
E25  26679218.420   140200166.563          50.000    26679226.640   104694904.371          50.000  
E30  24681369.800   129701440.254          50.000    24681374.820    96854956.680          50.000  
E36  23555986.560   123787509.969          50.000    23555991.580    92438711.945          50.000  
> 2020  5 29 23 28 56.0000000  0 15       0.000000000000
G 2  24485995.940   128674777.707          50.000                                                  
G 5  21474951.260   112851545.629          50.000                                                  
G12  22792057.280   119773046.211          50.000                                                  
G21  23287859.520   122378519.578          50.000                                                  
G25  21240558.280   111619819.746          50.000    21240561.140    83352459.680          50.000  
G26  24242569.940   127395467.793          50.000    24242572.320    95132967.801          50.000  
G29  20610871.500   108310854.789          50.000                                                  
G31  24835999.840   130513969.531          50.000                                                  
E 2  24301094.820   127703101.805          50.000    24301098.780    95362695.086          50.000  
E 4  27394525.460   143959186.059          50.000    27394529.640   107501977.008          50.000  
E 9  24500175.100   128749245.688          50.000    24500180.880    96143899.977          50.000  
E11  25369487.940   133317569.473          50.000    25369488.860    99555318.160          50.000  
E25  26679805.720   140203252.828          50.000    26679813.940   104697209.047          50.000  
E30  24681122.680   129700141.637          50.000    24681127.720    96853986.934          50.000  
E36  23556071.100   123787954.266          50.000    23556076.140    92439043.727          50.000  
> 2020  5 29 23 28 57.0000000  0 15       0.000000000000
G 2  24486463.460   128677234.594          50.000                                                  
G 5  21475271.580   112853228.992          50.000                                                  
G12  22792729.540   119776579.008          50.000                                                  
G21  23287483.380   122376542.859          50.000                                                  
G25  21241015.900   111622224.559          50.000    21241018.760    83354255.477          50.000  
G26  24242002.120   127392483.859          50.000    24242004.500    95130739.539          50.000  
G29  20610703.160   108309970.117          50.000                                                  
G31  24836268.700   130515382.430          50.000                                                  
E 2  24301357.840   127704483.992          50.000    24301361.800    95363727.238          50.000  
E 4  27394539.700   143959260.828          50.000    27394543.880   107502032.844          50.000  
E 9  24499790.060   128747222.285          50.000    24499795.840    96142388.996          50.000  
E11  25369841.640   133319428.129          50.000    25369842.540    99556706.117          50.000  
E25  26680393.040   140206339.172          50.000    26680401.260   104699513.785          50.000  
E30  24680875.640   129698843.457          50.000    24680880.680    96853017.512          50.000  
E36  23556155.680   123788398.680          50.000    23556160.700    92439375.590          50.000  
> 2020  5 29 23 28 58.0000000  0 15       0.000000000000
G 2  24486931.000   128679691.461          50.000                                                  
G 5  21475592.040   112854912.945          50.000                                                  
G12  22793401.860   119780112.055          50.000                                                  
G21  23287107.260   122374566.383          50.000                                                  
G25  21241473.620   111624629.859          50.000    21241476.480    83356051.641          50.000  
G26  24241434.360   127389500.234          50.000    24241436.740    95128511.508          50.000  
G29  20610534.860   108309085.746          50.000                                                  
G31  24836537.640   130516795.711          50.000                                                  
E 2  24301620.940   127705866.598          50.000    24301624.900    95364759.707          50.000  
E 4  27394554.000   143959336.035          50.000    27394558.180   107502089.004          50.000  
E 9  24499405.060   128745199.137          50.000    24499410.840    96140878.203          50.000  
E11  25370195.320   133321286.777          50.000    25370196.240    99558094.070          50.000  
E25  26680980.380   140209425.617          50.000    26680988.600   104701818.594          50.000  
E30  24680628.700   129697545.715          50.000    24680633.720    96852048.418          50.000  
E36  23556240.260   123788843.188          50.000    23556245.280    92439707.531          50.000  
> 2020  5 29 23 28 59.0000000  0 15       0.000000000000
G 2  24487398.520   128682148.297          50.000                                                  
G 5  21475912.600   112856597.504          50.000                                                  
G12  22794074.240   119783645.352          50.000                                                  
G21  23286731.180   122372590.121          50.000                                                  
G25  21241931.440   111627035.656          50.000    21241934.280    83357848.180          50.000  
G26  24240866.660   127386516.918          50.000    24240869.020    95126283.711          50.000  
G29  20610366.640   108308201.660          50.000                                                  
G31  24836806.660   130518209.391          50.000                                                  
E 2  24301884.140   127707249.641          50.000    24301888.100    95365792.496          50.000  
E 4  27394568.400   143959411.699          50.000    27394572.580   107502145.508          50.000  
E 9  24499020.120   128743176.246          50.000    24499025.900    96139367.605          50.000  
E11  25370549.020   133323145.430          50.000    25370549.940    99559482.023          50.000  
E25  26681567.720   140212512.137          50.000    26681575.940   104704123.457          50.000  
E30  24680381.820   129696248.395          50.000    24680386.860    96851079.645          50.000  
E36  23556324.880   123789287.805          50.000    23556329.900    92440039.551          50.000  
> 2020  5 29 23 29  0.0000000  0 15       0.000000000000
G 2  24487866.040   128684605.105          50.000                                                  
G 5  21476233.280   112858282.672          50.000                                                  
G12  22794746.640   119787178.891          50.000                                                  
G21  23286355.160   122370614.082          50.000                                                  
G25  21242389.340   111629441.941          50.000    21242392.180    83359645.082          50.000  
G26  24240299.000   127383533.922          50.000    24240301.380    95124056.152          50.000  
G29  20610198.460   108307317.871          50.000                                                  
G31  24837075.740   130519623.457          50.000                                                  
E 2  24302147.400   127708633.121          50.000    24302151.360    95366825.613          50.000  
E 4  27394582.900   143959487.801          50.000    27394587.080   107502202.340          50.000  
E 9  24498635.220   128741153.602          50.000    24498641.000    96137857.191          50.000  
E11  25370902.700   133325004.066          50.000    25370903.620    99560869.965          50.000  
E25  26682155.080   140215598.746          50.000    26682163.320   104706428.391          50.000  
E30  24680135.040   129694951.512          50.000    24680140.080    96850111.191          50.000  
E36  23556409.500   123789732.531          50.000    23556414.540    92440371.652          50.000  
> 2020  5 29 23 29  1.0000000  0 15       0.000000000000
G 2  24488333.560   128687061.871          50.000                                                  
G 5  21476554.060   112859968.430          50.000                                                  
G12  22795419.100   119790712.660          50.000                                                  
G21  23285979.180   122368638.281          50.000                                                  
G25  21242847.340   111631848.715          50.000    21242850.180    83361442.344          50.000  
G26  24239731.420   127380551.246          50.000    24239733.800    95121828.828          50.000  
G29  20610030.340   108306434.371          50.000                                                  
G31  24837344.920   130521037.906          50.000                                                  
E 2  24302410.760   127710017.043          50.000    24302414.720    95367859.063          50.000  
E 4  27394597.460   143959564.344          50.000    27394601.640   107502259.496          50.000  
E 9  24498250.380   128739131.211          50.000    24498256.160    96136346.965          50.000  
E11  25371256.400   133326862.711          50.000    25371257.320    99562257.914          50.000  
E25  26682742.460   140218685.426          50.000    26682750.700   104708733.379          50.000  
E30  24679888.340   129693655.074          50.000    24679893.360    96849143.074          50.000  
E36  23556494.160   123790177.367          50.000    23556499.180    92440703.832          50.000  
> 2020  5 29 23 29  2.0000000  0 15       0.000000000000
G 2  24488801.060   128689518.613          50.000                                                  
G 5  21476874.980   112861654.801          50.000                                                  
G12  22796091.620   119794246.691          50.000                                                  
G21  23285603.240   122366662.719          50.000                                                  
G25  21243305.420   111634255.992          50.000    21243308.280    83363239.988          50.000  
G26  24239163.900   127377568.863          50.000    24239166.280    95119601.730          50.000  
G29  20609862.260   108305551.160          50.000                                                  
G31  24837614.140   130522452.738          50.000                                                  
E 2  24302674.200   127711401.387          50.000    24302678.160    95368892.824          50.000  
E 4  27394612.120   143959641.336          50.000    27394616.300   107502316.988          50.000  
E 9  24497865.580   128737109.066          50.000    24497871.360    96134836.926          50.000  
E11  25371610.080   133328721.352          50.000    25371611.000    99563645.855          50.000  
E25  26683329.860   140221772.199          50.000    26683338.100   104711038.434          50.000  
E30  24679641.720   129692359.055          50.000    24679646.740    96848175.270          50.000  
E36  23556578.820   123790622.297          50.000    23556583.860    92441036.086          50.000  
> 2020  5 29 23 29  3.0000000  0 15       0.000000000000
G 2  24489268.560   128691975.328          50.000                                                  
G 5  21477196.000   112863341.770          50.000                                                  
G12  22796764.160   119797780.969          50.000                                                  
G21  23285227.340   122364687.359          50.000                                                  
G25  21243763.620   111636663.770          50.000    21243766.460    83365038.004          50.000  
G26  24238596.440   127374586.805          50.000    24238598.800    95117374.867          50.000  
G29  20609694.260   108304668.242          50.000                                                  
G31  24837883.460   130523867.969          50.000                                                  
E 2  24302937.720   127712786.164          50.000    24302941.660    95369926.910          50.000  
E 4  27394626.840   143959718.770          50.000    27394631.040   107502374.816          50.000  
E 9  24497480.840   128735087.184          50.000    24497486.600    96133327.078          50.000  
E11  25371963.780   133330579.977          50.000    25371964.680    99565033.793          50.000  
E25  26683917.280   140224859.047          50.000    26683925.500   104713343.543          50.000  
E30  24679395.180   129691063.461          50.000    24679400.200    96847207.781          50.000  
E36  23556663.520   123791067.328          50.000    23556668.540    92441368.414          50.000  
> 2020  5 29 23 29  4.0000000  0 15       0.000000000000
G 2  24489736.040   128694432.004          50.000                                                  
G 5  21477517.140   112865029.344          50.000                                                  
G12  22797436.760   119801315.492          50.000                                                  
G21  23284851.500   122362712.242          50.000                                                  
G25  21244221.880   111639072.027          50.000    21244224.740    83366836.375          50.000  
G26  24238029.020   127371605.055          50.000    24238031.400    95115148.238          50.000  
G29  20609526.300   108303785.613          50.000                                                  
G31  24838152.840   130525283.578          50.000                                                  
E 2  24303201.320   127714171.379          50.000    24303205.260    95370961.324          50.000  
E 4  27394641.680   143959796.652          50.000    27394645.860   107502432.973          50.000  
E 9  24497096.120   128733065.543          50.000    24497101.900    96131817.414          50.000  
E11  25372317.460   133332438.586          50.000    25372318.380    99566421.715          50.000  
E25  26684504.700   140227945.980          50.000    26684512.940   104715648.719          50.000  
E30  24679148.720   129689768.313          50.000    24679153.740    96846240.621          50.000  
E36  23556748.220   123791512.469          50.000    23556753.240    92441700.824          50.000  
> 2020  5 29 23 29  5.0000000  0 15       0.000000000000
G 2  24490203.540   128696888.652          50.000                                                  
G 5  21477838.380   112866717.512          50.000                                                  
G12  22798109.420   119804850.270          50.000                                                  
G21  23284475.680   122360737.336          50.000                                                  
G25  21244680.260   111641480.781          50.000    21244683.120    83368635.121          50.000  
G26  24237461.680   127368623.617          50.000    24237464.040    95112921.844          50.000  
G29  20609358.400   108302903.281          50.000                                                  
G31  24838422.300   130526699.582          50.000                                                  
E 2  24303465.000   127715557.023          50.000    24303468.940    95371996.059          50.000  
E 4  27394656.580   143959874.984          50.000    27394660.760   107502491.469          50.000  
E 9  24496711.480   128731044.164          50.000    24496717.240    96130307.945          50.000  
E11  25372671.140   133334297.203          50.000    25372672.060    99567809.645          50.000  
E25  26685092.140   140231032.996          50.000    26685100.380   104717953.957          50.000  
E30  24678902.340   129688473.590          50.000    24678907.380    96845273.785          50.000  
E36  23556832.960   123791957.715          50.000    23556837.980    92442033.316          50.000  
> 2020  5 29 23 29  6.0000000  0 15       0.000000000000
G 2  24490671.020   128699345.266          50.000                                                  
G 5  21478159.740   112868406.277          50.000                                                  
G12  22798782.120   119808385.277          50.000                                                  
G21  23284099.920   122358762.664          50.000                                                  
G25  21245138.720   111643890.023          50.000    21245141.580    83370434.227          50.000  
G26  24236894.380   127365642.500          50.000    24236896.760    95110695.684          50.000  
G29  20609190.540   108302021.234          50.000                                                  
G31  24838691.840   130528115.973          50.000                                                  
E 2  24303728.760   127716943.090          50.000    24303732.720    95373031.105          50.000  
E 4  27394671.560   143959953.746          50.000    27394675.760   107502550.285          50.000  
E 9  24496326.860   128729023.027          50.000    24496332.640    96128798.656          50.000  
E11  25373024.820   133336155.805          50.000    25373025.740    99569197.559          50.000  
E25  26685679.600   140234120.086          50.000    26685687.840   104720259.246          50.000  
E30  24678656.040   129687179.293          50.000    24678661.080    96844307.266          50.000  
E36  23556917.700   123792403.063          50.000    23556922.720    92442365.879          50.000  
> 2020  5 29 23 29  7.0000000  0 15       0.000000000000
G 2  24491138.500   128701801.852          50.000                                                  
G 5  21478481.220   112870095.648          50.000                                                  
G12  22799454.860   119811920.543          50.000                                                  
G21  23283724.200   122356788.223          50.000                                                  
G25  21245597.300   111646299.770          50.000    21245600.140    83372233.715          50.000  
G26  24236327.160   127362661.695          50.000    24236329.540    95108469.762          50.000  
G29  20609022.760   108301139.480          50.000                                                  
G31  24838961.440   130529532.746          50.000                                                  
E 2  24303992.600   127718329.605          50.000    24303996.560    95374066.492          50.000  
E 4  27394686.640   143960032.961          50.000    27394690.820   107502609.438          50.000  
E 9  24495942.300   128727002.152          50.000    24495948.080    96127289.563          50.000  
E11  25373378.500   133338014.422          50.000    25373379.420    99570585.488          50.000  
E25  26686267.080   140237207.262          50.000    26686275.300   104722564.605          50.000  
E30  24678409.840   129685885.430          50.000    24678414.860    96843341.070          50.000  
E36  23557002.480   123792848.520          50.000    23557007.500    92442698.527          50.000  
> 2020  5 29 23 29  8.0000000  0 15       0.000000000000
G 2  24491605.960   128704258.410          50.000                                                  
G 5  21478802.820   112871785.590          50.000                                                  
G12  22800127.640   119815456.035          50.000                                                  
G21  23283348.520   122354814.004          50.000                                                  
G25  21246055.940   111648710.000          50.000    21246058.800    83374033.563          50.000  
G26  24235760.000   127359681.207          50.000    24235762.360    95106244.074          50.000  
G29  20608855.020   108300258.016          50.000                                                  
G31  24839231.120   130530949.918          50.000                                                  
E 2  24304256.520   127719716.543          50.000    24304260.480    95375102.191          50.000  
E 4  27394701.800   143960112.625          50.000    27394705.980   107502668.926          50.000  
E 9  24495557.800   128724981.520          50.000    24495563.560    96125780.652          50.000  
E11  25373732.180   133339873.012          50.000    25373733.100    99571973.395          50.000  
E25  26686854.580   140240294.539          50.000    26686862.800   104724870.039          50.000  
E30  24678163.700   129684592.008          50.000    24678168.740    96842375.203          50.000  
E36  23557087.260   123793294.082          50.000    23557092.280    92443031.250          50.000  
> 2020  5 29 23 29  9.0000000  0 15       0.000000000000
G 2  24492073.420   128706714.930          50.000                                                  
G 5  21479124.520   112873476.133          50.000                                                  
G12  22800800.480   119818991.781          50.000                                                  
G21  23282972.880   122352840.020          50.000                                                  
G25  21246514.700   111651120.742          50.000    21246517.560    83375833.785          50.000  
G26  24235192.880   127356701.020          50.000    24235195.260    95104018.609          50.000  
G29  20608687.340   108299376.852          50.000                                                  
G31  24839500.880   130532367.473          50.000                                                  
E 2  24304520.540   127721103.902          50.000    24304524.500    95376138.207          50.000  
E 4  27394717.060   143960192.730          50.000    27394721.240   107502728.746          50.000  
E 9  24495173.320   128722961.141          50.000    24495179.100    96124271.930          50.000  
E11  25374085.860   133341731.602          50.000    25374086.780    99573361.301          50.000  
E25  26687442.080   140243381.875          50.000    26687450.300   104727175.512          50.000  
E30  24677917.660   129683299.000          50.000    24677922.680    96841409.645          50.000  
E36  23557172.080   123793739.742          50.000    23557177.100    92443364.047          50.000  
> 2020  5 29 23 29 10.0000000  0 15       0.000000000000
G 2  24492540.880   128709171.422          50.000                                                  
G 5  21479446.340   112875167.277          50.000                                                  
G12  22801473.360   119822527.777          50.000                                                  
G21  23282597.280   122350866.258          50.000                                                  
G25  21246973.540   111653531.961          50.000    21246976.400    83377634.371          50.000  
G26  24234625.840   127353721.160          50.000    24234628.200    95101793.395          50.000  
G29  20608519.720   108298495.973          50.000                                                  
G31  24839770.700   130533785.422          50.000                                                  
E 2  24304784.640   127722491.719          50.000    24304788.600    95377174.563          50.000  
E 4  27394732.380   143960273.273          50.000    27394736.560   107502788.895          50.000  
E 9  24494788.920   128720941.016          50.000    24494794.680    96122763.395          50.000  
E11  25374439.540   133343590.188          50.000    25374440.460    99574749.207          50.000  
E25  26688029.600   140246469.297          50.000    26688037.820   104729481.055          50.000  
E30  24677671.680   129682006.434          50.000    24677676.720    96840444.418          50.000  
E36  23557256.900   123794185.512          50.000    23557261.920    92443696.926          50.000  
> 2020  5 29 23 29 11.0000000  0 15       0.000000000000
G 2  24493008.340   128711627.887          50.000                                                  
G 5  21479768.260   112876859.020          50.000                                                  
G12  22802146.280   119826064.016          50.000                                                  
G21  23282221.740   122348892.727          50.000                                                  
G25  21247432.480   111655943.676          50.000    21247435.340    83379435.328          50.000  
G26  24234058.840   127350741.617          50.000    24234061.220    95099568.410          50.000  
G29  20608352.160   108297615.391          50.000                                                  
G31  24840040.600   130535203.754          50.000                                                  
E 2  24305048.800   127723879.957          50.000    24305052.760    95378211.234          50.000  
E 4  27394747.800   143960354.273          50.000    27394751.980   107502849.379          50.000  
E 9  24494404.540   128718921.141          50.000    24494410.320    96121255.047          50.000  
E11  25374793.220   133345448.766          50.000    25374794.140    99576137.102          50.000  
E25  26688617.140   140249556.801          50.000    26688625.360   104731786.656          50.000  
E30  24677425.800   129680714.293          50.000    24677430.840    96839479.508          50.000  
E36  23557341.760   123794631.383          50.000    23557346.780    92444029.883          50.000  
> 2020  5 29 23 29 12.0000000  0 15       0.000000000000
G 2  24493475.780   128714084.320          50.000                                                  
G 5  21480090.300   112878551.344          50.000                                                  
G12  22802819.260   119829600.500          50.000                                                  
G21  23281846.220   122346919.418          50.000                                                  
G25  21247891.500   111658355.867          50.000    21247894.360    83381236.641          50.000  
G26  24233491.920   127347762.383          50.000    24233494.280    95097343.664          50.000  
G29  20608184.640   108296735.105          50.000                                                  
G31  24840310.580   130536622.469          50.000                                                  
E 2  24305313.060   127725268.621          50.000    24305317.020    95379248.223          50.000  
E 4  27394763.300   143960435.707          50.000    27394767.480   107502910.191          50.000  
E 9  24494020.220   128716901.516          50.000    24494026.000    96119746.891          50.000  
E11  25375146.900   133347307.344          50.000    25375147.820    99577525.000          50.000  
E25  26689204.680   140252644.387          50.000    26689212.920   104734092.316          50.000  
E30  24677180.000   129679422.586          50.000    24677185.040    96838514.922          50.000  
E36  23557426.620   123795077.352          50.000    23557431.640    92444362.914          50.000  
> 2020  5 29 23 29 13.0000000  0 15       0.000000000000
G 2  24493943.220   128716540.727          50.000                                                  
G 5  21480412.460   112880244.277          50.000                                                  
G12  22803492.280   119833137.230          50.000                                                  
G21  23281470.760   122344946.340          50.000                                                  
G25  21248350.620   111660768.574          50.000    21248353.480    83383038.332          50.000  
G26  24232925.040   127344783.453          50.000    24232927.420    95095119.141          50.000  
G29  20608017.180   108295855.117          50.000                                                  
G31  24840580.640   130538041.578          50.000                                                  
E 2  24305577.400   127726657.719          50.000    24305581.360    95380285.535          50.000  
E 4  27394778.880   143960517.602          50.000    27394783.060   107502971.348          50.000  
E 9  24493635.960   128714882.160          50.000    24493641.720    96118238.930          50.000  
E11  25375500.580   133349165.930          50.000    25375501.500    99578912.906          50.000  
E25  26689792.260   140255732.070          50.000    26689800.480   104736398.051          50.000  
E30  24676934.280   129678131.309          50.000    24676939.320    96837550.656          50.000  
E36  23557511.500   123795523.441          50.000    23557516.520    92444696.031          50.000  
> 2020  5 29 23 29 14.0000000  0 15       0.000000000000
G 2  24494410.660   128718997.094          50.000                                                  
G 5  21480734.720   112881937.797          50.000                                                  
G12  22804165.340   119836674.223          50.000                                                  
G21  23281095.340   122342973.480          50.000                                                  
G25  21248809.840   111663181.766          50.000    21248812.700    83384840.395          50.000  
G26  24232358.240   127341804.848          50.000    24232360.600    95092894.859          50.000  
G29  20607849.780   108294975.398          50.000                                                  
G31  24840850.760   130539461.074          50.000                                                  
E 2  24305841.820   127728047.242          50.000    24305845.780    95381323.164          50.000  
E 4  27394794.540   143960599.926          50.000    27394798.720   107503032.824          50.000  
E 9  24493251.720   128712863.039          50.000    24493257.500    96116731.148          50.000  
E11  25375854.260   133351024.500          50.000    25375855.180    99580300.797          50.000  
E25  26690379.840   140258819.820          50.000    26690388.060   104738703.836          50.000  
E30  24676688.640   129676840.469          50.000    24676693.680    96836586.719          50.000  
E36  23557596.420   123795969.621          50.000    23557601.440    92445029.219          50.000  
> 2020  5 29 23 29 15.0000000  0 15       0.000000000000
G 2  24494878.080   128721453.430          50.000                                                  
G 5  21481057.100   112883631.914          50.000                                                  
G12  22804838.460   119840211.457          50.000                                                  
G21  23280719.960   122341000.848          50.000                                                  
G25  21249269.160   111665595.453          50.000    21249272.020    83386642.820          50.000  
G26  24231791.500   127338826.555          50.000    24231793.860    95090670.809          50.000  
G29  20607682.440   108294095.992          50.000                                                  
G31  24841120.960   130540880.957          50.000                                                  
E 2  24306106.320   127729437.215          50.000    24306110.280    95382361.133          50.000  
E 4  27394810.300   143960682.699          50.000    27394814.480   107503094.637          50.000  
E 9  24492867.560   128710844.176          50.000    24492873.320    96115223.559          50.000  
E11  25376207.940   133352883.063          50.000    25376208.860    99581688.684          50.000  
E25  26690967.440   140261907.664          50.000    26690975.660   104741009.691          50.000  
E30  24676443.100   129675550.063          50.000    24676448.120    96835623.105          50.000  
E36  23557681.340   123796415.914          50.000    23557686.360    92445362.488          50.000  
> 2020  5 29 23 29 16.0000000  0 15       0.000000000000
G 2  24495345.520   128723909.734          50.000                                                  
G 5  21481379.600   112885326.617          50.000                                                  
G12  22805511.620   119843748.938          50.000                                                  
G21  23280344.620   122339028.457          50.000                                                  
G25  21249728.560   111668009.629          50.000    21249731.420    83388445.613          50.000  
G26  24231224.800   127335848.578          50.000    24231227.160    95088447.000          50.000  
G29  20607515.160   108293216.863          50.000                                                  
G31  24841391.220   130542301.227          50.000                                                  
E 2  24306370.920   127730827.605          50.000    24306374.880    95383399.406          50.000  
E 4  27394826.140   143960765.910          50.000    27394830.320   107503156.773          50.000  
E 9  24492483.420   128708825.566          50.000    24492489.200    96113716.156          50.000  
E11  25376561.600   133354741.609          50.000    25376562.520    99583076.559          50.000  
E25  26691555.040   140264995.566          50.000    26691563.280   104743315.590          50.000  
E30  24676197.620   129674260.086          50.000    24676202.640    96834659.813          50.000  
E36  23557766.300   123796862.309          50.000    23557771.320    92445695.836          50.000  
> 2020  5 29 23 29 17.0000000  0 15       0.000000000000
G 2  24495812.920   128726366.008          50.000                                                  
G 5  21481702.220   112887021.930          50.000                                                  
G12  22806184.840   119847286.664          50.000                                                  
G21  23279969.340   122337056.289          50.000                                                  
G25  21250188.060   111670424.301          50.000    21250190.920    83390248.777          50.000  
G26  24230658.180   127332870.918          50.000    24230660.540    95086223.422          50.000  
G29  20607347.920   108292338.035          50.000                                                  
G31  24841661.580   130543721.887          50.000                                                  
E 2  24306635.580   127732218.441          50.000    24306639.540    95384438.020          50.000  
E 4  27394842.060   143960849.578          50.000    27394846.240   107503219.254          50.000  
E 9  24492099.340   128706807.215          50.000    24492105.120    96112208.949          50.000  
E11  25376915.280   133356600.172          50.000    25376916.200    99584464.449          50.000  
E25  26692142.680   140268083.574          50.000    26692150.920   104745621.570          50.000  
E30  24675952.240   129672970.551          50.000    24675957.260    96833696.848          50.000  
E36  23557851.260   123797308.809          50.000    23557856.280    92446029.262          50.000  
> 2020  5 29 23 29 18.0000000  0 15       0.000000000000
G 2  24496280.340   128728822.246          50.000                                                  
G 5  21482024.940   112888717.824          50.000                                                  
G12  22806858.100   119850824.625          50.000                                                  
G21  23279594.100   122335084.344          50.000                                                  
G25  21250647.660   111672839.453          50.000    21250650.520    83392052.297          50.000  
G26  24230091.600   127329893.570          50.000    24230093.960    95084000.078          50.000  
G29  20607180.740   108291459.484          50.000                                                  
G31  24841932.000   130545142.941          50.000                                                  
E 2  24306900.340   127733609.688          50.000    24306904.280    95385476.938          50.000  
E 4  27394858.060   143960933.676          50.000    27394862.240   107503282.055          50.000  
E 9  24491715.320   128704789.105          50.000    24491721.080    96110701.918          50.000  
E11  25377268.960   133358458.715          50.000    25377269.880    99585852.320          50.000  
E25  26692730.320   140271171.648          50.000    26692738.560   104747927.594          50.000  
E30  24675706.920   129671681.434          50.000    24675711.940    96832734.195          50.000  
E36  23557936.240   123797755.406          50.000    23557941.260    92446362.762          50.000  
> 2020  5 29 23 29 19.0000000  0 15       0.000000000000
G 2  24496747.740   128731278.457          50.000                                                  
G 5  21482347.760   112890414.328          50.000                                                  
G12  22807531.400   119854362.848          50.000                                                  
G21  23279218.880   122333112.637          50.000                                                  
G25  21251107.340   111675255.121          50.000    21251110.200    83393856.203          50.000  
G26  24229525.100   127326916.539          50.000    24229527.460    95081776.973          50.000  
G29  20607013.620   108290581.242          50.000                                                  
G31  24842202.480   130546564.367          50.000                                                  
E 2  24307165.160   127735001.387          50.000    24307169.120    95386516.195          50.000  
E 4  27394874.160   143961018.238          50.000    27394878.340   107503345.199          50.000  
E 9  24491331.320   128702771.262          50.000    24491337.100    96109195.090          50.000  
E11  25377622.620   133360317.266          50.000    25377623.540    99587240.199          50.000  
E25  26693317.980   140274259.828          50.000    26693326.220   104750233.699          50.000  
E30  24675461.700   129670392.754          50.000    24675466.720    96831771.867          50.000  
E36  23558021.260   123798202.125          50.000    23558026.280    92446696.352          50.000  
> 2020  5 29 23 29 20.0000000  0 15       0.000000000000
G 2  24497215.140   128733734.625          50.000                                                  
G 5  21482670.720   112892111.422          50.000                                                  
G12  22808204.760   119857901.309          50.000                                                  
G21  23278843.720   122331141.152          50.000                                                  
G25  21251567.120   111677671.258          50.000    21251569.980    83395660.461          50.000  
G26  24228958.640   127323939.816          50.000    24228961.000    95079554.098          50.000  
G29  20606846.540   108289703.277          50.000                                                  
G31  24842473.040   130547986.188          50.000                                                  
E 2  24307430.080   127736393.516          50.000    24307434.040    95387555.770          50.000  
E 4  27394890.340   143961103.234          50.000    27394894.520   107503408.672          50.000  
E 9  24490947.400   128700753.660          50.000    24490953.160    96107688.441          50.000  
E11  25377976.300   133362175.816          50.000    25377977.220    99588628.078          50.000  
E25  26693905.660   140277348.055          50.000    26693913.900   104752539.844          50.000  
E30  24675216.560   129669104.504          50.000    24675221.580    96830809.867          50.000  
E36  23558106.280   123798648.938          50.000    23558111.300    92447030.008          50.000  
> 2020  5 29 23 29 21.0000000  0 15       0.000000000000
G 2  24497682.520   128736190.770          50.000                                                  
G 5  21482993.780   112893809.105          50.000                                                  
G12  22808878.140   119861440.020          50.000                                                  
G21  23278468.620   122329169.895          50.000                                                  
G25  21252027.000   111680087.895          50.000    21252029.860    83397465.094          50.000  
G26  24228392.260   127320963.414          50.000    24228394.620    95077331.461          50.000  
G29  20606679.540   108288825.617          50.000                                                  
G31  24842743.680   130549408.406          50.000                                                  
E 2  24307695.080   127737786.070          50.000    24307699.040    95388595.664          50.000  
E 4  27394906.600   143961188.680          50.000    27394910.780   107503472.480          50.000  
E 9  24490563.500   128698736.316          50.000    24490569.280    96106181.984          50.000  
E11  25378329.960   133364034.352          50.000    25378330.880    99590015.945          50.000  
E25  26694493.360   140280436.367          50.000    26694501.580   104754846.047          50.000  
E30  24674971.500   129667816.695          50.000    24674976.520    96829848.191          50.000  
E36  23558191.340   123799095.859          50.000    23558196.360    92447363.746          50.000  
> 2020  5 29 23 29 22.0000000  0 15       0.000000000000
G 2  24498149.920   128738646.879          50.000                                                  
G 5  21483316.960   112895507.391          50.000                                                  
G12  22809551.600   119864978.965          50.000                                                  
G21  23278093.540   122327198.863          50.000                                                  
G25  21252486.960   111682505.020          50.000    21252489.820    83399270.090          50.000  
G26  24227825.920   127317987.328          50.000    24227828.280    95075109.063          50.000  
G29  20606512.580   108287948.238          50.000                                                  
G31  24843014.400   130550831.004          50.000                                                  
E 2  24307960.160   127739179.055          50.000    24307964.120    95389635.879          50.000  
E 4  27394922.940   143961274.574          50.000    27394927.120   107503536.621          50.000  
E 9  24490179.660   128696719.223          50.000    24490185.440    96104675.715          50.000  
E11  25378683.640   133365892.867          50.000    25378684.560    99591403.797          50.000  
E25  26695081.060   140283524.766          50.000    26695089.300   104757152.316          50.000  
E30  24674726.520   129666529.309          50.000    24674731.540    96828886.832          50.000  
E36  23558276.400   123799542.879          50.000    23558281.420    92447697.563          50.000  
> 2020  5 29 23 29 23.0000000  0 15       0.000000000000
G 2  24498617.300   128741102.953          50.000                                                  
G 5  21483640.240   112897206.277          50.000                                                  
G12  22810225.080   119868518.164          50.000                                                  
G21  23277718.500   122325228.074          50.000                                                  
G25  21252947.020   111684922.641          50.000    21252949.880    83401075.453          50.000  
G26  24227259.660   127315011.559          50.000    24227262.020    95072886.898          50.000  
G29  20606345.680   108287071.156          50.000                                                  
G31  24843285.200   130552253.992          50.000                                                  
E 2  24308225.320   127740572.477          50.000    24308229.280    95390676.418          50.000  
E 4  27394939.380   143961360.898          50.000    27394943.560   107503601.086          50.000  
E 9  24489795.880   128694702.387          50.000    24489801.640    96103169.637          50.000  
E11  25379037.300   133367751.387          50.000    25379038.220    99592791.652          50.000  
E25  26695668.780   140286613.262          50.000    26695677.020   104759458.656          50.000  
E30  24674481.620   129665242.352          50.000    24674486.640    96827925.793          50.000  
E36  23558361.480   123799990.004          50.000    23558366.500    92448031.453          50.000  
> 2020  5 29 23 29 24.0000000  0 15       0.000000000000
G 2  24499084.660   128743559.008          50.000                                                  
G 5  21483963.640   112898905.750          50.000                                                  
G12  22810898.620   119872057.598          50.000                                                  
G21  23277343.520   122323257.500          50.000                                                  
G25  21253407.180   111687340.762          50.000    21253410.040    83402881.191          50.000  
G26  24226693.440   127312036.102          50.000    24226695.800    95070664.969          50.000  
G29  20606178.820   108286194.367          50.000                                                  
G31  24843556.060   130553677.367          50.000                                                  
E 2  24308490.560   127741966.328          50.000    24308494.520    95391717.281          50.000  
E 4  27394955.880   143961447.688          50.000    27394960.060   107503665.895          50.000  
E 9  24489412.140   128692685.805          50.000    24489417.900    96101663.750          50.000  
E11  25379390.980   133369609.918          50.000    25379391.900    99594179.516          50.000  
E25  26696256.520   140289701.824          50.000    26696264.760   104761765.047          50.000  
E30  24674236.800   129663955.840          50.000    24674241.820    96826965.086          50.000  
E36  23558446.600   123800437.242          50.000    23558451.620    92448365.430          50.000  
> 2020  5 29 23 29 25.0000000  0 15       0.000000000000
G 2  24499552.040   128746015.027          50.000                                                  
G 5  21484287.160   112900605.824          50.000                                                  
G12  22811572.200   119875597.293          50.000                                                  
G21  23276968.580   122321287.148          50.000                                                  
G25  21253867.420   111689759.363          50.000    21253870.280    83404687.289          50.000  
G26  24226127.300   127309060.953          50.000    24226129.660    95068443.270          50.000  
G29  20606012.040   108285317.875          50.000                                                  
G31  24843826.980   130555101.117          50.000                                                  
E 2  24308755.880   127743360.621          50.000    24308759.840    95392758.477          50.000  
E 4  27394972.480   143961534.910          50.000    27394976.660   107503731.031          50.000  
E 9  24489028.440   128690669.473          50.000    24489034.200    96100158.051          50.000  
E11  25379744.640   133371468.434          50.000    25379745.560    99595567.367          50.000  
E25  26696844.280   140292790.473          50.000    26696852.520   104764071.504          50.000  
E30  24673992.060   129662669.754          50.000    24673997.100    96826004.695          50.000  
E36  23558531.720   123800884.574          50.000    23558536.740    92448699.477          50.000  
> 2020  5 29 23 29 26.0000000  0 15       0.000000000000
G 2  24500019.400   128748471.012          50.000                                                  
G 5  21484610.780   112902306.496          50.000                                                  
G12  22812245.840   119879137.242          50.000                                                  
G21  23276593.680   122319317.039          50.000                                                  
G25  21254327.760   111692178.465          50.000    21254330.620    83406493.762          50.000  
G26  24225561.200   127306086.125          50.000    24225563.560    95066221.809          50.000  
G29  20605845.300   108284441.660          50.000                                                  
G31  24844098.000   130556525.273          50.000                                                  
E 2  24309021.300   127744755.332          50.000    24309025.260    95393799.980          50.000  
E 4  27394989.180   143961622.574          50.000    27394993.360   107503796.492          50.000  
E 9  24488644.800   128688653.391          50.000    24488650.560    96098652.535          50.000  
E11  25380098.300   133373326.938          50.000    25380099.220    99596955.211          50.000  
E25  26697432.040   140295879.199          50.000    26697440.280   104766378.020          50.000  
E30  24673747.420   129661384.094          50.000    24673752.440    96825044.629          50.000  
E36  23558616.860   123801332.016          50.000    23558621.880    92449033.605          50.000  
> 2020  5 29 23 29 27.0000000  0 15       0.000000000000
G 2  24500486.760   128750926.973          50.000                                                  
G 5  21484934.520   112904007.762          50.000                                                  
G12  22812919.520   119882677.426          50.000                                                  
G21  23276218.820   122317347.160          50.000                                                  
G25  21254788.200   111694598.055          50.000    21254791.060    83408300.598          50.000  
G26  24224995.180   127303111.613          50.000    24224997.540    95064000.586          50.000  
G29  20605678.620   108283565.758          50.000                                                  
G31  24844369.080   130557949.801          50.000                                                  
E 2  24309286.780   127746150.477          50.000    24309290.740    95394841.809          50.000  
E 4  27395005.940   143961710.684          50.000    27395010.120   107503862.289          50.000  
E 9  24488261.200   128686637.570          50.000    24488266.960    96097147.219          50.000  
E11  25380451.960   133375185.438          50.000    25380452.880    99598343.051          50.000  
E25  26698019.820   140298967.992          50.000    26698028.060   104768684.582          50.000  
E30  24673502.840   129660098.867          50.000    24673507.880    96824084.883          50.000  
E36  23558702.040   123801779.551          50.000    23558707.060    92449367.805          50.000  
> 2020  5 29 23 29 28.0000000  0 15       0.000000000000
G 2  24500954.100   128753382.898          50.000                                                  
G 5  21485258.380   112905709.629          50.000                                                  
G12  22813593.240   119886217.879          50.000                                                  
G21  23275844.020   122315377.504          50.000                                                  
G25  21255248.740   111697018.145          50.000    21255251.600    83410107.805          50.000  
G26  24224429.200   127300137.434          50.000    24224431.560    95061779.605          50.000  
G29  20605512.000   108282690.160          50.000                                                  
G31  24844640.240   130559374.715          50.000                                                  
E 2  24309552.360   127747546.051          50.000    24309556.320    95395883.957          50.000  
E 4  27395022.800   143961799.246          50.000    27395026.980   107503928.422          50.000  
E 9  24487877.640   128684622.004          50.000    24487883.420    96095642.086          50.000  
E11  25380805.620   133377043.934          50.000    25380806.540    99599730.887          50.000  
E25  26698607.620   140302056.875          50.000    26698615.860   104770991.215          50.000  
E30  24673258.360   129658814.078          50.000    24673263.380    96823125.461          50.000  
E36  23558787.220   123802227.199          50.000    23558792.240    92449702.086          50.000  
> 2020  5 29 23 29 29.0000000  0 15       0.000000000000
G 2  24501421.440   128755838.781          50.000                                                  
G 5  21485582.360   112907412.070          50.000                                                  
G12  22814267.020   119889758.563          50.000                                                  
G21  23275469.240   122313408.082          50.000                                                  
G25  21255709.360   111699438.715          50.000    21255712.220    83411915.375          50.000  
G26  24223863.300   127297163.547          50.000    24223865.660    95059558.848          50.000  
G29  20605345.440   108281814.844          50.000                                                  
G31  24844911.460   130560800.023          50.000                                                  
E 2  24309818.020   127748942.070          50.000    24309821.980    95396926.438          50.000  
E 4  27395039.740   143961888.242          50.000    27395043.920   107503994.883          50.000  
E 9  24487494.140   128682606.684          50.000    24487499.920    96094137.145          50.000  
E11  25381159.300   133378902.434          50.000    25381160.220    99601118.727          50.000  
E25  26699195.440   140305145.852          50.000    26699203.680   104773297.914          50.000  
E30  24673013.960   129657529.723          50.000    24673018.980    96822166.363          50.000  
E36  23558872.420   123802674.957          50.000    23558877.440    92450036.449          50.000  
> 2020  5 29 23 29 30.0000000  0 15       0.000000000000
G 2  24501888.780   128758294.656          50.000                                                  
G 5  21485906.440   112909115.137          50.000                                                  
G12  22814940.840   119893299.492          50.000                                                  
G21  23275094.520   122311438.875          50.000                                                  
G25  21256170.060   111701859.781          50.000    21256172.920    83413723.313          50.000  
G26  24223297.440   127294189.984          50.000    24223299.800    95057338.332          50.000  
G29  20605178.940   108280939.816          50.000                                                  
G31  24845182.760   130562225.711          50.000                                                  
E 2  24310083.740   127750338.516          50.000    24310087.700    95397969.238          50.000  
E 4  27395056.760   143961977.691          50.000    27395060.940   107504061.680          50.000  
E 9  24487110.700   128680591.621          50.000    24487116.460    96092632.391          50.000  
E11  25381512.940   133380760.910          50.000    25381513.880    99602506.551          50.000  
E25  26699783.260   140308234.895          50.000    26699791.520   104775604.664          50.000  
E30  24672769.640   129656245.797          50.000    24672774.660    96821207.590          50.000  
E36  23558957.660   123803122.809          50.000    23558962.680    92450370.887          50.000  
> 2020  5 29 23 29 31.0000000  0 15       0.000000000000
G 2  24502356.120   128760750.484          50.000                                                  
G 5  21486230.640   112910818.781          50.000                                                  
G12  22815614.700   119896840.660          50.000                                                  
G21  23274719.840   122309469.910          50.000                                                  
G25  21256630.880   111704281.344          50.000    21256633.740    83415531.617          50.000  
G26  24222731.660   127291216.742          50.000    24222734.020    95055118.059          50.000  
G29  20605012.480   108280065.086          50.000                                                  
G31  24845454.140   130563651.777          50.000                                                  
E 2  24310349.560   127751735.383          50.000    24310353.520    95399012.355          50.000  
E 4  27395073.860   143962067.586          50.000    27395078.040   107504128.809          50.000  
E 9  24486727.280   128678576.816          50.000    24486733.060    96091127.832          50.000  
E11  25381866.600   133382619.395          50.000    25381867.540    99603894.379          50.000  
E25  26700371.120   140311324.020          50.000    26700379.360   104777911.477          50.000  
E30  24672525.400   129654962.305          50.000    24672530.420    96820249.137          50.000  
E36  23559042.900   123803570.770          50.000    23559047.920    92450705.402          50.000  
> 2020  5 29 23 29 32.0000000  0 15       0.000000000000
G 2  24502823.440   128763206.281          50.000                                                  
G 5  21486554.940   112912523.008          50.000                                                  
G12  22816288.620   119900382.074          50.000                                                  
G21  23274345.200   122307501.176          50.000                                                  
G25  21257091.780   111706703.387          50.000    21257094.640    83417340.289          50.000  
G26  24222165.920   127288243.797          50.000    24222168.280    95052898.004          50.000  
G29  20604846.080   108279190.652          50.000                                                  
G31  24845725.580   130565078.234          50.000                                                  
E 2  24310615.460   127753132.691          50.000    24310619.420    95400055.797          50.000  
E 4  27395091.060   143962157.922          50.000    27395095.240   107504196.266          50.000  
E 9  24486343.940   128676562.258          50.000    24486349.700    96089623.453          50.000  
E11  25382220.260   133384477.871          50.000    25382221.180    99605282.203          50.000  
E25  26700958.980   140314413.227          50.000    26700967.220   104780218.348          50.000  
E30  24672281.240   129653679.246          50.000    24672286.260    96819291.012          50.000  
E36  23559128.160   123804018.836          50.000    23559133.180    92451040.000          50.000  
> 2020  5 29 23 29 33.0000000  0 15       0.000000000000
G 2  24503290.760   128765662.055          50.000                                                  
G 5  21486879.360   112914227.852          50.000                                                  
G12  22816962.580   119903923.727          50.000                                                  
G21  23273970.600   122305532.645          50.000                                                  
G25  21257552.780   111709125.906          50.000    21257555.640    83419149.313          50.000  
G26  24221600.260   127285271.184          50.000    24221602.620    95050678.199          50.000  
G29  20604679.740   108278316.504          50.000                                                  
G31  24845997.100   130566505.078          50.000                                                  
E 2  24310881.440   127754530.418          50.000    24310885.400    95401099.555          50.000  
E 4  27395108.340   143962248.707          50.000    27395112.520   107504264.059          50.000  
E 9  24485960.620   128674547.961          50.000    24485966.380    96088119.273          50.000  
E11  25382573.920   133386336.340          50.000    25382574.840    99606670.016          50.000  
E25  26701546.840   140317502.504          50.000    26701555.100   104782525.277          50.000  
E30  24672037.160   129652396.609          50.000    24672042.200    96818333.199          50.000  
E36  23559213.440   123804467.000          50.000    23559218.460    92451374.664          50.000  
> 2020  5 29 23 29 34.0000000  0 15       0.000000000000
G 2  24503758.080   128768117.793          50.000                                                  
G 5  21487203.900   112915933.281          50.000                                                  
G12  22817636.580   119907465.617          50.000                                                  
G21  23273596.060   122303564.371          50.000                                                  
G25  21258013.860   111711548.930          50.000    21258016.720    83420958.711          50.000  
G26  24221034.640   127282298.887          50.000    24221037.000    95048458.625          50.000  
G29  20604513.460   108277442.660          50.000                                                  
G31  24846268.700   130567932.305          50.000                                                  
E 2  24311147.520   127755928.594          50.000    24311151.480    95402143.645          50.000  
E 4  27395125.700   143962339.934          50.000    27395129.880   107504332.184          50.000  
E 9  24485577.360   128672533.910          50.000    24485583.120    96086615.277          50.000  
E11  25382927.580   133388194.801          50.000    25382928.500    99608057.832          50.000  
E25  26702134.740   140320591.867          50.000    26702142.980   104784832.266          50.000  
E30  24671793.180   129651114.414          50.000    24671798.200    96817375.715          50.000  
E36  23559298.760   123804915.277          50.000    23559303.780    92451709.418          50.000  
> 2020  5 29 23 29 35.0000000  0 15       0.000000000000
G 2  24504225.380   128770573.500          50.000                                                  
G 5  21487528.540   112917639.309          50.000                                                  
G12  22818310.620   119911007.766          50.000                                                  
G21  23273221.540   122301596.309          50.000                                                  
G25  21258475.040   111713972.449          50.000    21258477.900    83422768.480          50.000  
G26  24220469.100   127279326.906          50.000    24220471.460    95046239.293          50.000  
G29  20604347.220   108276569.105          50.000                                                  
G31  24846540.380   130569359.918          50.000                                                  
E 2  24311413.660   127757327.184          50.000    24311417.620    95403188.047          50.000  
E 4  27395143.140   143962431.602          50.000    27395147.320   107504400.637          50.000  
E 9  24485194.160   128670520.117          50.000    24485199.920    96085111.473          50.000  
E11  25383281.240   133390053.258          50.000    25383282.160    99609445.637          50.000  
E25  26702722.640   140323681.332          50.000    26702730.880   104787139.328          50.000  
E30  24671549.260   129649832.656          50.000    24671554.300    96816418.559          50.000  
E36  23559384.080   123805363.648          50.000    23559389.100    92452044.242          50.000  
> 2020  5 29 23 29 36.0000000  0 15       0.000000000000
G 2  24504692.680   128773029.172          50.000                                                  
G 5  21487853.300   112919345.918          50.000                                                  
G12  22818984.720   119914550.137          50.000                                                  
G21  23272847.080   122299628.469          50.000                                                  
G25  21258936.320   111716396.453          50.000    21258939.180    83424578.613          50.000  
G26  24219903.600   127276355.230          50.000    24219905.960    95044020.184          50.000  
G29  20604181.040   108275695.828          50.000                                                  
G31  24846812.120   130570787.922          50.000                                                  
E 2  24311679.880   127758726.219          50.000    24311683.860    95404232.781          50.000  
E 4  27395160.680   143962523.719          50.000    27395164.860   107504469.426          50.000  
E 9  24484810.980   128668506.574          50.000    24484816.760    96083607.852          50.000  
E11  25383634.900   133391911.715          50.000    25383635.820    99610833.445          50.000  
E25  26703310.560   140326770.855          50.000    26703318.820   104789446.438          50.000  
E30  24671305.440   129648551.328          50.000    24671310.460    96815461.723          50.000  
E36  23559469.420   123805812.129          50.000    23559474.440    92452379.145          50.000  
> 2020  5 29 23 29 37.0000000  0 15       0.000000000000
G 2  24505159.980   128775484.824          50.000                                                  
G 5  21488178.180   112921053.125          50.000                                                  
G12  22819658.860   119918092.762          50.000                                                  
G21  23272472.660   122297660.875          50.000                                                  
G25  21259397.700   111718820.953          50.000    21259400.560    83426389.117          50.000  
G26  24219338.180   127273383.883          50.000    24219340.540    95041801.324          50.000  
G29  20604014.920   108274822.852          50.000                                                  
G31  24847083.940   130572216.309          50.000                                                  
E 2  24311946.200   127760125.676          50.000    24311950.160    95405277.828          50.000  
E 4  27395178.280   143962616.285          50.000    27395182.460   107504538.551          50.000  
E 9  24484427.880   128666493.293          50.000    24484433.640    96082104.430          50.000  
E11  25383988.540   133393770.164          50.000    25383989.460    99612221.250          50.000  
E25  26703898.500   140329860.465          50.000    26703906.740   104791753.613          50.000  
E30  24671061.700   129647270.430          50.000    24671066.720    96814505.211          50.000  
E36  23559554.780   123806260.711          50.000    23559559.800    92452714.125          50.000  
> 2020  5 29 23 29 38.0000000  0 15       0.000000000000
G 2  24505627.280   128777940.441          50.000                                                  
G 5  21488503.160   112922760.922          50.000                                                  
G12  22820333.060   119921635.633          50.000                                                  
G21  23272098.280   122295693.504          50.000                                                  
G25  21259859.160   111721245.949          50.000    21259862.020    83428199.988          50.000  
G26  24218772.820   127270412.844          50.000    24218775.160    95039582.695          50.000  
G29  20603848.860   108273950.176          50.000                                                  
G31  24847355.820   130573645.082          50.000                                                  
E 2  24312212.600   127761525.570          50.000    24312216.560    95406323.203          50.000  
E 4  27395196.000   143962709.293          50.000    27395200.180   107504608.008          50.000  
E 9  24484044.800   128664480.262          50.000    24484050.560    96080601.195          50.000  
E11  25384342.200   133395628.621          50.000    25384343.120    99613609.059          50.000  
E25  26704486.460   140332950.152          50.000    26704494.700   104794060.844          50.000  
E30  24670818.040   129645989.965          50.000    24670823.060    96813549.020          50.000  
E36  23559640.180   123806709.410          50.000    23559645.200    92453049.195          50.000  
> 2020  5 29 23 29 39.0000000  0 15       0.000000000000
G 2  24506094.560   128780396.012          50.000                                                  
G 5  21488828.260   112924469.324          50.000                                                  
G12  22821007.300   119925178.746          50.000                                                  
G21  23271723.940   122293726.359          50.000                                                  
G25  21260320.720   111723671.426          50.000    21260323.580    83430011.219          50.000  
G26  24218207.500   127267442.137          50.000    24218209.860    95037364.313          50.000  
G29  20603682.860   108273077.781          50.000                                                  
G31  24847627.780   130575074.246          50.000                                                  
E 2  24312479.060   127762925.887          50.000    24312483.020    95407368.895          50.000  
E 4  27395213.780   143962802.750          50.000    27395217.960   107504677.797          50.000  
E 9  24483661.800   128662467.488          50.000    24483667.560    96079098.152          50.000  
E11  25384695.860   133397487.063          50.000    25384696.780    99614996.852          50.000  
E25  26705074.420   140336039.914          50.000    26705082.660   104796368.133          50.000  
E30  24670574.460   129644709.938          50.000    24670579.480    96812593.156          50.000  
E36  23559725.580   123807158.199          50.000    23559730.600    92453384.328          50.000  
> 2020  5 29 23 29 40.0000000  0 15       0.000000000000
G 2  24506561.840   128782851.555          50.000                                                  
G 5  21489153.480   112926178.313          50.000                                                  
G12  22821681.580   119928722.105          50.000                                                  
G21  23271349.660   122291759.449          50.000                                                  
G25  21260782.360   111726097.391          50.000    21260785.220    83431822.816          50.000  
G26  24217642.260   127264471.734          50.000    24217644.620    95035146.152          50.000  
G29  20603516.900   108272205.691          50.000                                                  
G31  24847899.820   130576503.793          50.000                                                  
E 2  24312745.620   127764326.648          50.000    24312749.580    95408414.918          50.000  
E 4  27395231.640   143962896.656          50.000    27395235.820   107504747.918          50.000  
E 9  24483278.820   128660454.969          50.000    24483284.580    96077595.301          50.000  
E11  25385049.500   133399345.500          50.000    25385050.420    99616384.648          50.000  
E25  26705662.400   140339129.773          50.000    26705670.660   104798675.492          50.000  
E30  24670330.960   129643430.344          50.000    24670335.980    96811637.613          50.000  
E36  23559811.000   123807607.094          50.000    23559816.020    92453719.543          50.000  
> 2020  5 29 23 29 41.0000000  0 15       0.000000000000
G 2  24507029.120   128785307.070          50.000                                                  
G 5  21489478.800   112927887.902          50.000                                                  
G12  22822355.900   119932265.707          50.000                                                  
G21  23270975.400   122289792.770          50.000                                                  
G25  21261244.100   111728523.852          50.000    21261246.960    83433634.781          50.000  
G26  24217077.060   127261501.652          50.000    24217079.420    95032928.238          50.000  
G29  20603351.000   108271333.898          50.000                                                  
G31  24848171.920   130577933.723          50.000                                                  
E 2  24313012.260   127765727.828          50.000    24313016.220    95409461.250          50.000  
E 4  27395249.600   143962990.996          50.000    27395253.780   107504818.367          50.000  
E 9  24482895.900   128658442.703          50.000    24482901.660    96076092.637          50.000  
E11  25385403.160   133401203.922          50.000    25385404.080    99617772.430          50.000  
E25  26706250.400   140342219.699          50.000    26706258.640   104800982.902          50.000  
E30  24670087.540   129642151.180          50.000    24670092.560    96810682.395          50.000  
E36  23559896.440   123808056.094          50.000    23559901.460    92454054.836          50.000  
> 2020  5 29 23 29 42.0000000  0 15       0.000000000000
G 2  24507496.380   128787762.555          50.000                                                  
G 5  21489804.240   112929598.063          50.000                                                  
G12  22823030.280   119935809.547          50.000                                                  
G21  23270601.200   122287826.309          50.000                                                  
G25  21261705.940   111730950.805          50.000    21261708.800    83435447.117          50.000  
G26  24216511.940   127258531.887          50.000    24216514.300    95030710.559          50.000  
G29  20603185.160   108270462.387          50.000                                                  
G31  24848444.120   130579364.051          50.000                                                  
E 2  24313278.980   127767129.441          50.000    24313282.940    95410507.910          50.000  
E 4  27395267.640   143963085.789          50.000    27395271.820   107504889.156          50.000  
E 9  24482513.040   128656430.691          50.000    24482518.780    96074590.160          50.000  
E11  25385756.800   133403062.340          50.000    25385757.720    99619160.207          50.000  
E25  26706838.420   140345309.707          50.000    26706846.660   104803290.375          50.000  
E30  24669844.200   129640872.441          50.000    24669849.220    96809727.492          50.000  
E36  23559981.900   123808505.199          50.000    23559986.940    92454390.207          50.000  
> 2020  5 29 23 29 43.0000000  0 15       0.000000000000
G 2  24507963.640   128790218.008          50.000                                                  
G 5  21490129.780   112931308.840          50.000                                                  
G12  22823704.700   119939353.633          50.000                                                  
G21  23270227.040   122285860.086          50.000                                                  
G25  21262167.860   111733378.246          50.000    21262170.740    83437259.816          50.000  
G26  24215946.880   127255562.438          50.000    24215949.240    95028493.113          50.000  
G29  20603019.380   108269591.184          50.000                                                  
G31  24848716.360   130580794.750          50.000                                                  
E 2  24313545.780   127768531.492          50.000    24313549.740    95411554.895          50.000  
E 4  27395285.760   143963181.020          50.000    27395289.940   107504960.270          50.000  
E 9  24482130.200   128654418.922          50.000    24482135.960    96073087.863          50.000  
E11  25386110.440   133404920.758          50.000    25386111.380    99620547.988          50.000  
E25  26707426.440   140348399.797          50.000    26707434.700   104805597.906          50.000  
E30  24669600.960   129639594.148          50.000    24669605.980    96808772.926          50.000  
E36  23560067.400   123808954.406          50.000    23560072.420    92454725.652          50.000  
> 2020  5 29 23 29 44.0000000  0 15       0.000000000000
G 2  24508430.900   128792673.422          50.000                                                  
G 5  21490455.460   112933020.211          50.000                                                  
G12  22824379.160   119942897.965          50.000                                                  
G21  23269852.920   122283894.102          50.000                                                  
G25  21262629.880   111735806.180          50.000    21262632.760    83439072.879          50.000  
G26  24215381.860   127252593.301          50.000    24215384.220    95026275.902          50.000  
G29  20602853.660   108268720.266          50.000                                                  
G31  24848988.700   130582225.840          50.000                                                  
E 2  24313812.680   127769933.973          50.000    24313816.640    95412602.203          50.000  
E 4  27395303.980   143963276.699          50.000    27395308.160   107505031.719          50.000  
E 9  24481747.440   128652407.426          50.000    24481753.180    96071585.777          50.000  
E11  25386464.100   133406779.176          50.000    25386465.020    99621935.766          50.000  
E25  26708014.480   140351489.977          50.000    26708022.740   104807905.504          50.000  
E30  24669357.780   129638316.281          50.000    24669362.820    96807818.672          50.000  
E36  23560152.900   123809403.723          50.000    23560157.920    92455061.180          50.000  
> 2020  5 29 23 29 45.0000000  0 15       0.000000000000
G 2  24508898.140   128795128.824          50.000                                                  
G 5  21490781.220   112934732.176          50.000                                                  
G12  22825053.680   119946442.551          50.000                                                  
G21  23269478.860   122281928.336          50.000                                                  
G25  21263092.000   111738234.609          50.000    21263094.880    83440886.320          50.000  
G26  24214816.920   127249624.488          50.000    24214819.280    95024058.934          50.000  
G29  20602687.980   108267849.656          50.000                                                  
G31  24849261.100   130583657.316          50.000                                                  
E 2  24314079.640   127771336.887          50.000    24314083.600    95413649.832          50.000  
E 4  27395322.260   143963372.828          50.000    27395326.440   107505103.504          50.000  
E 9  24481364.700   128650396.184          50.000    24481370.460    96070083.875          50.000  
E11  25386817.740   133408637.602          50.000    25386818.660    99623323.551          50.000  
E25  26708602.540   140354580.227          50.000    26708610.800   104810213.156          50.000  
E30  24669114.700   129637038.859          50.000    24669119.720    96806864.754          50.000  
E36  23560238.420   123809853.148          50.000    23560243.440    92455396.793          50.000  
> 2020  5 29 23 29 46.0000000  0 15       0.000000000000
G 2  24509365.380   128797584.168          50.000                                                  
G 5  21491107.120   112936444.723          50.000                                                  
G12  22825728.240   119949987.359          50.000                                                  
G21  23269104.820   122279962.793          50.000                                                  
G25  21263554.220   111740663.523          50.000    21263557.080    83442700.117          50.000  
G26  24214252.040   127246655.992          50.000    24214254.400    95021842.203          50.000  
G29  20602522.360   108266979.320          50.000                                                  
G31  24849533.580   130585089.172          50.000                                                  
E 2  24314346.680   127772740.223          50.000    24314350.660    95414697.777          50.000  
E 4  27395340.640   143963469.398          50.000    27395344.820   107505175.617          50.000  
E 9  24480982.020   128648385.184          50.000    24480987.780    96068582.156          50.000  
E11  25387171.380   133410495.984          50.000    25387172.300    99624711.305          50.000  
E25  26709190.620   140357670.559          50.000    26709198.880   104812520.871          50.000  
E30  24668871.700   129635761.855          50.000    24668876.720    96805911.148          50.000  
E36  23560323.960   123810302.664          50.000    23560328.980    92455732.469          50.000  
> 2020  5 29 23 29 47.0000000  0 15       0.000000000000
G 2  24509832.620   128800039.496          50.000                                                  
G 5  21491433.120   112938157.875          50.000                                                  
G12  22826402.840   119953532.418          50.000                                                  
G21  23268730.840   122277997.488          50.000                                                  
G25  21264016.520   111743092.930          50.000    21264019.380    83444514.281          50.000  
G26  24213687.220   127243687.816          50.000    24213689.560    95019625.707          50.000  
G29  20602356.800   108266109.297          50.000                                                  
G31  24849806.120   130586521.414          50.000                                                  
E 2  24314613.820   127774143.996          50.000    24314617.780    95415746.051          50.000  
E 4  27395359.100   143963566.406          50.000    27395363.280   107505248.059          50.000  
E 9  24480599.400   128646374.449          50.000    24480605.160    96067080.637          50.000  
E11  25387525.020   133412354.383          50.000    25387525.960    99626099.070          50.000  
E25  26709778.700   140360760.949          50.000    26709786.960   104814828.629          50.000  
E30  24668628.780   129634485.289          50.000    24668633.800    96804957.867          50.000  
E36  23560409.520   123810752.293          50.000    23560414.540    92456068.230          50.000  
> 2020  5 29 23 29 48.0000000  0 15       0.000000000000
G 2  24510299.840   128802494.820          50.000                                                  
G 5  21491759.240   112939871.605          50.000                                                  
G12  22827077.520   119957077.664          50.000                                                  
G21  23268356.900   122276032.375          50.000                                                  
G25  21264478.920   111745522.809          50.000    21264481.780    83446328.793          50.000  
G26  24213122.460   127240719.895          50.000    24213124.820    95017409.371          50.000  
G29  20602191.300   108265239.547          50.000                                                  
G31  24850078.760   130587954.012          50.000                                                  
E 2  24314881.040   127775548.184          50.000    24314885.000    95416794.617          50.000  
E 4  27395377.660   143963663.859          50.000    27395381.840   107505320.824          50.000  
E 9  24480216.820   128644363.941          50.000    24480222.580    96065579.273          50.000  
E11  25387878.680   133414212.758          50.000    25387879.600    99627486.805          50.000  
E25  26710366.840   140363851.219          50.000    26710375.120   104817136.172          50.000  
E30  24668385.940   129633209.129          50.000    24668390.980    96804004.871          50.000  
E36  23560495.120   123811202.008          50.000    23560500.140    92456404.047          50.000  
> 2020  5 29 23 29 49.0000000  0 15       0.000000000000
G 2  24510767.060   128804950.082          50.000                                                  
G 5  21492085.480   112941585.945          50.000                                                  
G12  22827752.200   119960623.207          50.000                                                  
G21  23267983.020   122274067.535          50.000                                                  
G25  21264941.400   111747953.188          50.000    21264944.280    83448143.684          50.000  
G26  24212557.760   127237752.355          50.000    24212560.120    95015193.352          50.000  
G29  20602025.860   108264370.098          50.000                                                  
G31  24850351.460   130589387.016          50.000                                                  
E 2  24315148.340   127776952.809          50.000    24315152.300    95417843.523          50.000  
E 4  27395396.300   143963761.766          50.000    27395400.480   107505393.938          50.000  
E 9  24479834.280   128642353.719          50.000    24479840.040    96064078.133          50.000  
E11  25388232.320   133416071.148          50.000    25388233.240    99628874.563          50.000  
E25  26710954.960   140366941.793          50.000    26710963.240   104819444.066          50.000  
E30  24668143.200   129631933.434          50.000    24668148.220    96803052.242          50.000  
E36  23560580.720   123811651.848          50.000    23560585.740    92456739.969          50.000  
> 2020  5 29 23 29 50.0000000  0 15       0.000000000000
G 2  24511234.280   128807405.313          50.000                                                  
G 5  21492411.820   112943300.883          50.000                                                  
G12  22828426.960   119964168.992          50.000                                                  
G21  23267609.160   122272102.926          50.000                                                  
G25  21265403.980   111750384.055          50.000    21265406.860    83449958.941          50.000  
G26  24211993.120   127234785.121          50.000    24211995.480    95012977.566          50.000  
G29  20601860.460   108263500.949          50.000                                                  
G31  24850624.220   130590820.410          50.000                                                  
E 2  24315415.700   127778357.871          50.000    24315419.680    95418892.758          50.000  
E 4  27395415.020   143963860.121          50.000    27395419.200   107505467.387          50.000  
E 9  24479451.800   128640343.742          50.000    24479457.560    96062577.180          50.000  
E11  25388585.960   133417929.543          50.000    25388586.880    99630262.324          50.000  
E25  26711543.100   140370032.430          50.000    26711551.380   104821752.008          50.000  
E30  24667900.520   129630658.168          50.000    24667905.540    96802099.938          50.000  
E36  23560666.340   123812101.781          50.000    23560671.360    92457075.957          50.000  
> 2020  5 29 23 29 51.0000000  0 15       0.000000000000
G 2  24511701.500   128809860.504          50.000                                                  
G 5  21492738.280   112945016.398          50.000                                                  
G12  22829101.740   119967715.027          50.000                                                  
G21  23267235.360   122270138.543          50.000                                                  
G25  21265866.660   111752815.414          50.000    21265869.540    83451774.566          50.000  
G26  24211428.540   127231818.219          50.000    24211430.880    95010762.023          50.000  
G29  20601695.120   108262632.082          50.000                                                  
G31  24850897.060   130592254.191          50.000                                                  
E 2  24315683.160   127779763.363          50.000    24315687.140    95419942.316          50.000  
E 4  27395433.820   143963958.914          50.000    27395438.000   107505541.160          50.000  
E 9  24479069.360   128638334.023          50.000    24479075.120    96061076.418          50.000  
E11  25388939.600   133419787.914          50.000    25388940.520    99631650.070          50.000  
E25  26712131.240   140373123.156          50.000    26712139.540   104824060.016          50.000  
E30  24667657.920   129629383.344          50.000    24667662.960    96801147.957          50.000  
E36  23560751.980   123812551.820          50.000    23560757.000    92457412.023          50.000  
> 2020  5 29 23 29 52.0000000  0 15       0.000000000000
G 2  24512168.700   128812315.668          50.000                                                  
G 5  21493064.840   112946732.512          50.000                                                  
G12  22829776.580   119971261.301          50.000                                                  
G21  23266861.580   122268174.387          50.000                                                  
G25  21266329.440   111755247.270          50.000    21266332.300    83453590.559          50.000  
G26  24210864.000   127228851.629          50.000    24210866.360    95008546.715          50.000  
G29  20601529.840   108261763.520          50.000                                                  
G31  24851169.980   130593688.355          50.000                                                  
E 2  24315950.700   127781169.285          50.000    24315954.680    95420992.191          50.000  
E 4  27395452.700   143964058.160          50.000    27395456.880   107505615.270          50.000  
E 9  24478686.980   128636324.559          50.000    24478692.740    96059575.848          50.000  
E11  25389293.240   133421646.285          50.000    25389294.160    99633037.813          50.000  
E25  26712719.400   140376213.957          50.000    26712727.700   104826368.078          50.000  
E30  24667415.420   129628108.949          50.000    24667420.460    96800196.297          50.000  
E36  23560837.640   123813001.961          50.000    23560842.660    92457748.172          50.000  
> 2020  5 29 23 29 53.0000000  0 15       0.000000000000
G 2  24512635.900   128814770.801          50.000                                                  
G 5  21493391.520   112948449.227          50.000                                                  
G12  22830451.460   119974807.813          50.000                                                  
G21  23266487.860   122266210.473          50.000                                                  
G25  21266792.300   111757679.602          50.000    21266795.160    83455406.914          50.000  
G26  24210299.540   127225885.355          50.000    24210301.900    95006331.641          50.000  
G29  20601364.620   108260895.242          50.000                                                  
G31  24851442.960   130595122.902          50.000                                                  
E 2  24316218.340   127782575.641          50.000    24316222.300    95422042.391          50.000  
E 4  27395471.680   143964157.840          50.000    27395475.860   107505689.707          50.000  
E 9  24478304.640   128634315.344          50.000    24478310.400    96058075.461          50.000  
E11  25389646.880   133423504.648          50.000    25389647.800    99634425.551          50.000  
E25  26713307.580   140379304.836          50.000    26713315.880   104828676.199          50.000  
E30  24667173.000   129626834.984          50.000    24667178.020    96799244.961          50.000  
E36  23560923.320   123813452.207          50.000    23560928.340    92458084.395          50.000  
> 2020  5 29 23 29 54.0000000  0 15       0.000000000000
G 2  24513103.100   128817225.906          50.000                                                  
G 5  21493718.320   112950166.543          50.000                                                  
G12  22831126.400   119978354.574          50.000                                                  
G21  23266114.180   122264246.762          50.000                                                  
G25  21267255.240   111760112.430          50.000    21267258.120    83457223.633          50.000  
G26  24209735.140   127222919.398          50.000    24209737.500    95004116.809          50.000  
G29  20601199.460   108260027.273          50.000                                                  
G31  24851716.020   130596557.836          50.000                                                  
E 2  24316486.040   127783982.438          50.000    24316490.000    95423092.918          50.000  
E 4  27395490.720   143964257.977          50.000    27395494.900   107505764.484          50.000  
E 9  24477922.340   128632306.402          50.000    24477928.100    96056575.273          50.000  
E11  25390000.500   133425363.012          50.000    25390001.440    99635813.285          50.000  
E25  26713895.780   140382395.793          50.000    26713904.060   104830984.375          50.000  
E30  24666930.660   129625561.457          50.000    24666935.680    96798293.949          50.000  
E36  23561009.020   123813902.566          50.000    23561014.040    92458420.695          50.000  
> 2020  5 29 23 29 55.0000000  0 15       0.000000000000
G 2  24513570.280   128819680.977          50.000                                                  
G 5  21494045.220   112951884.449          50.000                                                  
G12  22831801.380   119981901.574          50.000                                                  
G21  23265740.560   122262283.297          50.000                                                  
G25  21267718.300   111762545.746          50.000    21267721.160    83459040.719          50.000  
G26  24209170.800   127219953.762          50.000    24209173.160    95001902.211          50.000  
G29  20601034.340   108259159.590          50.000                                                  
G31  24851989.160   130597993.156          50.000                                                  
E 2  24316753.820   127785389.652          50.000    24316757.780    95424143.754          50.000  
E 4  27395509.860   143964358.555          50.000    27395514.040   107505839.586          50.000  
E 9  24477540.100   128630297.715          50.000    24477545.860    96055075.277          50.000  
E11  25390354.140   133427221.371          50.000    25390355.080    99637201.016          50.000  
E25  26714483.980   140385486.836          50.000    26714492.280   104833292.613          50.000  
E30  24666688.380   129624288.363          50.000    24666693.420    96797343.258          50.000  
E36  23561094.740   123814353.031          50.000    23561099.760    92458757.078          50.000  
> 2020  5 29 23 29 56.0000000  0 15       0.000000000000
G 2  24514037.460   128822136.016          50.000                                                  
G 5  21494372.240   112953602.938          50.000                                                  
G12  22832476.400   119985448.824          50.000                                                  
G21  23265366.960   122260320.055          50.000                                                  
G25  21268181.440   111764979.563          50.000    21268184.300    83460858.180          50.000  
G26  24208606.520   127216988.445          50.000    24208608.880    94999687.852          50.000  
G29  20600869.280   108258292.207          50.000                                                  
G31  24852262.360   130599428.855          50.000                                                  
E 2  24317021.680   127786797.301          50.000    24317025.660    95425194.914          50.000  
E 4  27395529.100   143964459.590          50.000    27395533.280   107505915.031          50.000  
E 9  24477157.920   128628289.309          50.000    24477163.680    96053575.496          50.000  
E11  25390707.780   133429079.734          50.000    25390708.700    99638588.750          50.000  
E25  26715072.200   140388577.965          50.000    26715080.500   104835600.918          50.000  
E30  24666446.200   129623015.703          50.000    24666451.240    96796392.891          50.000  
E36  23561180.480   123814803.598          50.000    23561185.500    92459093.535          50.000  
> 2020  5 29 23 29 57.0000000  0 15       0.000000000000
G 2  24514504.640   128824591.020          50.000                                                  
G 5  21494699.380   112955322.008          50.000                                                  
G12  22833151.460   119988996.305          50.000                                                  
G21  23264993.400   122258357.035          50.000                                                  
G25  21268644.680   111767413.848          50.000    21268647.540    83462675.988          50.000  
G26  24208042.300   127214023.449          50.000    24208044.660    94997473.734          50.000  
G29  20600704.280   108257425.113          50.000                                                  
G31  24852535.640   130600864.941          50.000                                                  
E 2  24317289.640   127788205.395          50.000    24317293.600    95426246.414          50.000  
E 4  27395548.400   143964561.066          50.000    27395552.580   107505990.809          50.000  
E 9  24476775.760   128626281.133          50.000    24476781.520    96052075.883          50.000  
E11  25391061.420   133430938.090          50.000    25391062.340    99639976.480          50.000  
E25  26715660.440   140391669.172          50.000    26715668.740   104837909.281          50.000  
E30  24666204.120   129621743.484          50.000    24666209.140    96795442.855          50.000  
E36  23561266.240   123815254.273          50.000    23561271.260    92459430.074          50.000  
> 2020  5 29 23 29 58.0000000  0 15       0.000000000000
G 2  24514971.800   128827045.984          50.000                                                  
G 5  21495026.620   112957041.668          50.000                                                  
G12  22833826.580   119992544.039          50.000                                                  
G21  23264619.900   122256394.250          50.000                                                  
G25  21269108.000   111769848.633          50.000    21269110.860    83464494.168          50.000  
G26  24207478.140   127211058.754          50.000    24207480.500    94995259.836          50.000  
G29  20600539.340   108256558.313          50.000                                                  
G31  24852809.000   130602301.414          50.000                                                  
E 2  24317557.660   127789613.910          50.000    24317561.640    95427298.223          50.000  
E 4  27395567.800   143964662.992          50.000    27395571.980   107506066.914          50.000  
E 9  24476393.660   128624273.211          50.000    24476399.420    96050576.457          50.000  
E11  25391415.040   133432796.445          50.000    25391415.980    99641364.207          50.000  
E25  26716248.700   140394760.441          50.000    26716256.980   104840217.691          50.000  
E30  24665962.100   129620471.691          50.000    24665967.140    96794493.137          50.000  
E36  23561352.020   123815705.051          50.000    23561357.040    92459766.695          50.000  
> 2020  5 29 23 29 59.0000000  0 15       0.000000000000
G 2  24515438.960   128829500.918          50.000                                                  
G 5  21495353.980   112958761.922          50.000                                                  
G12  22834501.740   119996091.992          50.000                                                  
G21  23264246.440   122254431.691          50.000                                                  
G25  21269571.420   111772283.902          50.000    21269574.280    83466312.715          50.000  
G26  24206914.040   127208094.391          50.000    24206916.400    94993046.191          50.000  
G29  20600374.460   108255691.809          50.000                                                  
G31  24853082.440   130603738.262          50.000                                                  
E 2  24317825.780   127791022.855          50.000    24317829.760    95428350.352          50.000  
E 4  27395587.280   143964765.355          50.000    27395591.460   107506143.355          50.000  
E 9  24476011.620   128622265.547          50.000    24476017.380    96049077.227          50.000  
E11  25391768.680   133434654.777          50.000    25391769.600    99642751.918          50.000  
E25  26716836.960   140397851.809          50.000    26716845.260   104842526.176          50.000  
E30  24665720.160   129619200.340          50.000    24665725.200    96793543.746          50.000  
E36  23561437.820   123816155.934          50.000    23561442.840    92460103.387          50.000  
> 2020  5 29 23 30  0.0000000  0 15       0.000000000000
G 2  24515906.120   128831955.816          50.000                                                  
G 5  21495681.440   112960482.770          50.000                                                  
G12  22835176.940   119999640.188          50.000                                                  
G21  23263873.020   122252469.359          50.000                                                  
G25  21270034.920   111774719.660          50.000    21270037.800    83468131.621          50.000  
G26  24206350.000   127205130.348          50.000    24206352.360    94990832.785          50.000  
G29  20600209.620   108254825.602          50.000                                                  
G31  24853355.940   130605175.504          50.000                                                  
E 2  24318093.980   127792432.234          50.000    24318097.960    95429402.809          50.000  
E 4  27395606.840   143964868.168          50.000    27395611.020   107506220.129          50.000  
E 9  24475629.620   128620258.141          50.000    24475635.380    96047578.191          50.000  
E11  25392122.300   133436513.121          50.000    25392123.240    99644139.645          50.000  
E25  26717425.240   140400943.242          50.000    26717433.540   104844834.711          50.000  
E30  24665478.320   129617929.418          50.000    24665483.360    96792594.684          50.000  
E36  23561523.640   123816606.918          50.000    23561528.660    92460440.164          50.000  
> 2020  5 29 23 30  1.0000000  0 15       0.000000000000
G 2  24516373.280   128834410.688          50.000                                                  
G 5  21496009.020   112962204.207          50.000                                                  
G12  22835852.200   120003188.645          50.000                                                  
G21  23263499.660   122250507.254          50.000                                                  
G25  21270498.540   111777155.922          50.000    21270501.400    83469950.906          50.000  
G26  24205786.020   127202166.613          50.000    24205788.380    94988619.605          50.000  
G29  20600044.840   108253959.688          50.000                                                  
G31  24853629.500   130606613.117          50.000                                                  
E 2  24318362.260   127793842.039          50.000    24318366.220    95430455.582          50.000  
E 4  27395626.480   143964971.418          50.000    27395630.680   107506297.230          50.000  
E 9  24475247.680   128618250.973          50.000    24475253.440    96046079.332          50.000  
E11  25392475.940   133438371.445          50.000    25392476.860    99645527.348          50.000  
E25  26718013.540   140404034.762          50.000    26718021.840   104847143.305          50.000  
E30  24665236.560   129616658.930          50.000    24665241.580    96791645.938          50.000  
E36  23561609.480   123817058.004          50.000    23561614.500    92460777.008          50.000  
> 2020  5 29 23 30  2.0000000  0 15       0.000000000000
G 2  24516840.420   128836865.520          50.000                                                  
G 5  21496336.720   112963926.234          50.000                                                  
G12  22836527.480   120006737.328          50.000                                                  
G21  23263126.320   122248545.398          50.000                                                  
G25  21270962.240   111779592.652          50.000    21270965.100    83471770.539          50.000  
G26  24205222.120   127199203.211          50.000    24205224.460    94986406.676          50.000  
G29  20599880.120   108253094.059          50.000                                                  
G31  24853903.160   130608051.133          50.000                                                  
E 2  24318630.620   127795252.273          50.000    24318634.580    95431508.676          50.000  
E 4  27395646.220   143965075.113          50.000    27395650.400   107506374.660          50.000  
E 9  24474865.780   128616244.086          50.000    24474871.540    96044580.680          50.000  
E11  25392829.560   133440229.781          50.000    25392830.500    99646915.063          50.000  
E25  26718601.860   140407126.355          50.000    26718610.160   104849451.961          50.000  
E30  24664994.860   129615388.879          50.000    24664999.900    96790697.520          50.000  
E36  23561695.340   123817509.191          50.000    23561700.360    92461113.930          50.000  
> 2020  5 29 23 30  3.0000000  0 15       0.000000000000
G 2  24517307.560   128839320.332          50.000                                                  
G 5  21496664.520   112965648.871          50.000                                                  
G12  22837202.840   120010286.262          50.000                                                  
G21  23262753.040   122246583.758          50.000                                                  
G25  21271426.040   111782029.898          50.000    21271428.900    83473590.563          50.000  
G26  24204658.260   127196240.125          50.000    24204660.600    94984193.984          50.000  
G29  20599715.460   108252228.742          50.000                                                  
G31  24854176.880   130609489.520          50.000                                                  
E 2  24318899.060   127796662.930          50.000    24318903.020    95432562.082          50.000  
E 4  27395666.040   143965179.258          50.000    27395670.220   107506452.426          50.000  
E 9  24474483.920   128614237.441          50.000    24474489.680    96043082.211          50.000  
E11  25393183.180   133442088.105          50.000    25393184.120    99648302.766          50.000  
E25  26719190.180   140410218.027          50.000    26719198.480   104851760.668          50.000  
E30  24664753.260   129614119.258          50.000    24664758.300    96789749.422          50.000  
E36  23561781.220   123817960.480          50.000    23561786.240    92461450.926          50.000  
> 2020  5 29 23 30  4.0000000  0 15       0.000000000000
G 2  24517774.680   128841775.117          50.000                                                  
G 5  21496992.460   112967372.109          50.000                                                  
G12  22837878.220   120013835.434          50.000                                                  
G21  23262379.800   122244622.344          50.000                                                  
G25  21271889.920   111784467.609          50.000    21271892.780    83475410.930          50.000  
G26  24204094.460   127193277.363          50.000    24204096.820    94981981.535          50.000  
G29  20599550.860   108251363.727          50.000                                                  
G31  24854450.660   130610928.285          50.000                                                  
E 2  24319167.580   127798074.023          50.000    24319171.560    95433615.816          50.000  
E 4  27395685.940   143965283.848          50.000    27395690.120   107506530.527          50.000  
E 9  24474102.120   128612231.055          50.000    24474107.880    96041583.930          50.000  
E11  25393536.820   133443946.426          50.000    25393537.760    99649690.469          50.000  
E25  26719778.520   140413309.773          50.000    26719786.820   104854069.434          50.000  
E30  24664511.740   129612850.066          50.000    24664516.780    96788801.648          50.000  
E36  23561867.120   123818411.887          50.000    23561872.140    92461788.012          50.000  
> 2020  5 29 23 30  5.0000000  0 15       0.000000000000
G 2  24518241.820   128844229.871          50.000                                                  
G 5  21497320.480   112969095.941          50.000                                                  
G12  22838553.660   120017384.848          50.000                                                  
G21  23262006.600   122242661.156          50.000                                                  
G25  21272353.900   111786905.816          50.000    21272356.760    83477231.668          50.000  
G26  24203530.720   127190314.918          50.000    24203533.080    94979769.320          50.000  
G29  20599386.300   108250499.012          50.000                                                  
G31  24854724.520   130612367.441          50.000                                                  
E 2  24319436.180   127799485.551          50.000    24319440.160    95434669.875          50.000  
E 4  27395705.920   143965388.887          50.000    27395710.120   107506608.961          50.000  
E 9  24473720.360   128610224.926          50.000    24473726.120    96040085.848          50.000  
E11  25393890.440   133445804.730          50.000    25393891.380    99651078.160          50.000  
E25  26720366.880   140416401.605          50.000    26720375.180   104856378.262          50.000  
E30  24664270.320   129611581.316          50.000    24664275.360    96787854.199          50.000  
E36  23561953.020   123818863.383          50.000    23561958.060    92462125.168          50.000  
> 2020  5 29 23 30  6.0000000  0 15       0.000000000000
G 2  24518708.940   128846684.590          50.000                                                  
G 5  21497648.640   112970820.363          50.000                                                  
G12  22839229.140   120020934.504          50.000                                                  
G21  23261633.440   122240700.195          50.000                                                  
G25  21272817.960   111789344.520          50.000    21272820.840    83479052.773          50.000  
G26  24202967.060   127187352.789          50.000    24202969.400    94977557.344          50.000  
G29  20599221.820   108249634.578          50.000                                                  
G31  24854998.460   130613806.980          50.000                                                  
E 2  24319704.860   127800897.504          50.000    24319708.840    95435724.250          50.000  
E 4  27395726.000   143965494.375          50.000    27395730.200   107506687.730          50.000  
E 9  24473338.660   128608219.051          50.000    24473344.420    96038587.953          50.000  
E11  25394244.060   133447663.039          50.000    25394245.000    99652465.852          50.000  
E25  26720955.260   140419493.512          50.000    26720963.560   104858687.148          50.000  
E30  24664028.960   129610312.996          50.000    24664034.000    96786907.074          50.000  
E36  23562038.960   123819314.988          50.000    23562044.000    92462462.398          50.000  
> 2020  5 29 23 30  7.0000000  0 15       0.000000000000
G 2  24519176.040   128849139.281          50.000                                                  
G 5  21497976.900   112972545.383          50.000                                                  
G12  22839904.660   120024484.402          50.000                                                  
G21  23261260.320   122238739.465          50.000                                                  
G25  21273282.120   111791783.699          50.000    21273285.000    83480874.238          50.000  
G26  24202403.440   127184390.980          50.000    24202405.800    94975345.605          50.000  
G29  20599057.380   108248770.445          50.000                                                  
G31  24855272.480   130615246.898          50.000                                                  
E 2  24319973.640   127802309.895          50.000    24319977.620    95436778.953          50.000  
E 4  27395746.160   143965600.297          50.000    27395750.340   107506766.820          50.000  
E 9  24472957.000   128606213.430          50.000    24472962.760    96037090.246          50.000  
E11  25394597.680   133449521.340          50.000    25394598.640    99653853.539          50.000  
E25  26721543.640   140422585.508          50.000    26721551.960   104860996.098          50.000  
E30  24663787.680   129609045.113          50.000    24663792.740    96785960.277          50.000  
E36  23562124.920   123819766.695          50.000    23562129.960    92462799.711          50.000  
> 2020  5 29 23 30  8.0000000  0 15       0.000000000000
G 2  24519643.160   128851593.934          50.000                                                  
G 5  21498305.280   112974270.984          50.000                                                  
G12  22840580.240   120028034.531          50.000                                                  
G21  23260887.260   122236778.965          50.000                                                  
G25  21273746.380   111794223.359          50.000    21273749.260    83482696.063          50.000  
G26  24201839.880   127181429.488          50.000    24201842.240    94973134.102          50.000  
G29  20598893.000   108247906.605          50.000                                                  
G31  24855546.560   130616687.203          50.000                                                  
E 2  24320242.480   127803722.703          50.000    24320246.460    95437833.969          50.000  
E 4  27395766.400   143965706.660          50.000    27395770.600   107506846.250          50.000  
E 9  24472575.380   128604208.066          50.000    24472581.160    96035592.730          50.000  
E11  25394951.300   133451379.625          50.000    25394952.260    99655241.215          50.000  
E25  26722132.040   140425677.555          50.000    26722140.360   104863305.090          50.000  
E30  24663546.500   129607777.652          50.000    24663551.540    96785013.793          50.000  
E36  23562210.900   123820218.496          50.000    23562215.940    92463137.090          50.000  
> 2020  5 29 23 30  9.0000000  0 15       0.000000000000
G 2  24520110.260   128854048.559          50.000                                                  
G 5  21498633.760   112975997.172          50.000                                                  
G12  22841255.840   120031584.902          50.000                                                  
G21  23260514.220   122234818.695          50.000                                                  
G25  21274210.740   111796663.527          50.000    21274213.600    83484518.266          50.000  
G26  24201276.400   127178468.316          50.000    24201278.740    94970922.840          50.000  
G29  20598728.660   108247043.055          50.000                                                  
G31  24855820.720   130618127.891          50.000                                                  
E 2  24320511.420   127805135.938          50.000    24320515.400    95438889.301          50.000  
E 4  27395786.720   143965813.477          50.000    27395790.920   107506926.008          50.000  
E 9  24472193.820   128602202.957          50.000    24472199.600    96034095.410          50.000  
E11  25395304.940   133453237.922          50.000    25395305.880    99656628.902          50.000  
E25  26722720.460   140428769.688          50.000    26722728.760   104865614.141          50.000  
E30  24663305.400   129606510.633          50.000    24663310.440    96784067.637          50.000  
E36  23562296.900   123820670.414          50.000    23562301.940    92463474.559          50.000  
> 2020  5 29 23 30 10.0000000  0 15       0.000000000000
G 2  24520577.360   128856503.152          50.000                                                  
G 5  21498962.360   112977723.949          50.000                                                  
G12  22841931.520   120035135.512          50.000                                                  
G21  23260141.240   122232858.641          50.000                                                  
G25  21274675.180   111799104.168          50.000    21274678.040    83486340.820          50.000  
G26  24200712.960   127175507.473          50.000    24200715.320    94968711.820          50.000  
G29  20598564.400   108246179.801          50.000                                                  
G31  24856094.940   130619568.957          50.000                                                  
E 2  24320780.420   127806549.598          50.000    24320784.420    95439944.953          50.000  
E 4  27395807.140   143965920.738          50.000    27395811.320   107507006.102          50.000  
E 9  24471812.320   128600198.105          50.000    24471818.080    96032598.277          50.000  
E11  25395658.560   133455096.203          50.000    25395659.500    99658016.574          50.000  
E25  26723308.880   140431861.902          50.000    26723317.200   104867923.258          50.000  
E30  24663064.360   129605244.051          50.000    24663069.420    96783121.809          50.000  
E36  23562382.900   123821122.426          50.000    23562387.940    92463812.094          50.000  
> 2020  5 29 23 30 11.0000000  0 15       0.000000000000
G 2  24521044.440   128858957.711          50.000                                                  
G 5  21499291.060   112979451.328          50.000                                                  
G12  22842607.220   120038686.375          50.000                                                  
G21  23259768.300   122230898.824          50.000                                                  
G25  21275139.700   111801545.305          50.000    21275142.580    83488163.746          50.000  
G26  24200149.600   127172546.941          50.000    24200151.940    94966501.035          50.000  
G29  20598400.180   108245316.852          50.000                                                  
G31  24856369.240   130621010.410          50.000                                                  
E 2  24321049.520   127807963.703          50.000    24321053.500    95441000.934          50.000  
E 4  27395827.620   143966028.441          50.000    27395831.820   107507086.527          50.000  
E 9  24471430.860   128598193.516          50.000    24471436.620    96031101.340          50.000  
E11  25396012.160   133456954.473          50.000    25396013.120    99659404.238          50.000  
E25  26723897.340   140434954.195          50.000    26723905.640   104870232.430          50.000  
E30  24662823.440   129603977.902          50.000    24662828.480    96782176.305          50.000  
E36  23562468.940   123821574.559          50.000    23562473.980    92464149.723          50.000  
> 2020  5 29 23 30 12.0000000  0 15       0.000000000000
G 2  24521511.540   128861412.234          50.000                                                  
G 5  21499619.880   112981179.293          50.000                                                  
G12  22843282.980   120042237.477          50.000                                                  
G21  23259395.400   122228939.238          50.000                                                  
G25  21275604.340   111803986.934          50.000    21275607.220    83489987.039          50.000  
G26  24199586.280   127169586.723          50.000    24199588.640    94964290.488          50.000  
G29  20598236.040   108244454.191          50.000                                                  
G31  24856643.620   130622452.246          50.000                                                  
E 2  24321318.700   127809378.242          50.000    24321322.680    95442057.242          50.000  
E 4  27395848.200   143966136.594          50.000    27395852.400   107507167.285          50.000  
E 9  24471049.440   128596189.180          50.000    24471055.200    96029604.594          50.000  
E11  25396365.780   133458812.746          50.000    25396366.740    99660791.906          50.000  
E25  26724485.800   140438046.574          50.000    26724494.100   104872541.668          50.000  
E30  24662582.580   129602712.191          50.000    24662587.620    96781231.129          50.000  
E36  23562555.000   123822026.777          50.000    23562560.040    92464487.414          50.000  
> 2020  5 29 23 30 13.0000000  0 15       0.000000000000
G 2  24521978.600   128863866.738          50.000                                                  
G 5  21499948.820   112982907.852          50.000                                                  
G12  22843958.780   120045788.816          50.000                                                  
G21  23259022.560   122226979.879          50.000                                                  
G25  21276069.060   111806429.043          50.000    21276071.940    83491810.691          50.000  
G26  24199023.040   127166626.844          50.000    24199025.400    94962080.188          50.000  
G29  20598071.940   108243591.832          50.000                                                  
G31  24856918.060   130623894.449          50.000                                                  
E 2  24321587.960   127810793.191          50.000    24321591.940    95443113.855          50.000  
E 4  27395868.880   143966245.207          50.000    27395873.080   107507248.391          50.000  
E 9  24470668.080   128594185.109          50.000    24470673.840    96028108.047          50.000  
E11  25396719.400   133460671.012          50.000    25396720.360    99662179.566          50.000  
E25  26725074.260   140441139.023          50.000    26725082.580   104874850.961          50.000  
E30  24662341.800   129601446.906          50.000    24662346.840    96780286.270          50.000  
E36  23562641.080   123822479.109          50.000    23562646.120    92464825.191          50.000  
> 2020  5 29 23 30 14.0000000  0 15       0.000000000000
G 2  24522445.680   128866321.195          50.000                                                  
G 5  21500277.880   112984637.004          50.000                                                  
G12  22844634.620   120049340.406          50.000                                                  
G21  23258649.740   122225020.742          50.000                                                  
G25  21276533.880   111808871.641          50.000    21276536.740    83493634.707          50.000  
G26  24198459.860   127163667.262          50.000    24198462.200    94959870.113          50.000  
G29  20597907.880   108242729.770          50.000                                                  
G31  24857192.580   130625337.051          50.000                                                  
E 2  24321857.300   127812208.582          50.000    24321861.280    95444170.801          50.000  
E 4  27395889.620   143966354.242          50.000    27395893.820   107507329.809          50.000  
E 9  24470286.760   128592181.285          50.000    24470292.520    96026611.680          50.000  
E11  25397073.020   133462529.281          50.000    25397073.980    99663567.230          50.000  
E25  26725662.760   140444231.547          50.000    26725671.080   104877160.305          50.000  
E30  24662101.100   129600182.063          50.000    24662106.160    96779341.738          50.000  
E36  23562727.180   123822931.539          50.000    23562732.220    92465163.039          50.000  
> 2020  5 29 23 30 15.0000000  0 15       0.000000000000
G 2  24522912.740   128868775.633          50.000                                                  
G 5  21500607.040   112986366.746          50.000                                                  
G12  22845310.520   120052892.223          50.000                                                  
G21  23258276.980   122223061.844          50.000                                                  
G25  21276998.780   111811314.723          50.000    21277001.660    83495459.086          50.000  
G26  24197896.720   127160708.012          50.000    24197899.080    94957660.289          50.000  
G29  20597743.900   108241868.004          50.000                                                  
G31  24857467.180   130626780.027          50.000                                                  
E 2  24322126.720   127813624.406          50.000    24322130.700    95445228.066          50.000  
E 4  27395910.460   143966463.727          50.000    27395914.660   107507411.566          50.000  
E 9  24469905.500   128590177.719          50.000    24469911.260    96025115.512          50.000  
E11  25397426.640   133464387.547          50.000    25397427.580    99664954.891          50.000  
E25  26726251.260   140447324.145          50.000    26726259.580   104879469.703          50.000  
E30  24661860.500   129598917.648          50.000    24661865.540    96778397.527          50.000  
E36  23562813.280   123823384.074          50.000    23562818.340    92465500.969          50.000  
> 2020  5 29 23 30 16.0000000  0 15       0.000000000000
G 2  24523379.800   128871230.023          50.000                                                  
G 5  21500936.300   112988097.078          50.000                                                  
G12  22845986.460   120056444.297          50.000                                                  
G21  23257904.260   122221103.164          50.000                                                  
G25  21277463.780   111813758.301          50.000    21277466.660    83497283.836          50.000  
G26  24197333.660   127157749.090          50.000    24197336.020    94955450.703          50.000  
G29  20597579.960   108241006.527          50.000                                                  
G31  24857741.840   130628223.391          50.000                                                  
E 2  24322396.220   127815040.668          50.000    24322400.220    95446285.660          50.000  
E 4  27395931.380   143966573.660          50.000    27395935.580   107507493.652          50.000  
E 9  24469524.280   128588174.410          50.000    24469530.040    96023619.531          50.000  
E11  25397780.240   133466245.789          50.000    25397781.200    99666342.539          50.000  
E25  26726839.780   140450416.820          50.000    26726848.100   104881779.164          50.000  
E30  24661619.960   129597653.668          50.000    24661625.020    96777453.645          50.000  
E36  23562899.420   123823836.715          50.000    23562904.460    92465838.977          50.000  
> 2020  5 29 23 30 17.0000000  0 15       0.000000000000
G 2  24523846.860   128873684.387          50.000                                                  
G 5  21501265.700   112989828.012          50.000                                                  
G12  22846662.440   120059996.590          50.000                                                  
G21  23257531.580   122219144.723          50.000                                                  
G25  21277928.880   111816202.355          50.000    21277931.740    83499108.941          50.000  
G26  24196770.660   127154790.477          50.000    24196773.000    94953241.352          50.000  
G29  20597416.100   108240145.359          50.000                                                  
G31  24858016.580   130629667.137          50.000                                                  
E 2  24322665.800   127816457.344          50.000    24322669.800    95447343.563          50.000  
E 4  27395952.380   143966684.039          50.000    27395956.580   107507576.074          50.000  
E 9  24469143.100   128586171.355          50.000    24469148.880    96022123.738          50.000  
E11  25398133.860   133468104.031          50.000    25398134.820    99667730.180          50.000  
E25  26727428.300   140453509.570          50.000    26727436.640   104884088.680          50.000  
E30  24661379.520   129596390.121          50.000    24661384.580    96776510.082          50.000  
E36  23562985.580   123824289.453          50.000    23562990.620    92466177.055          50.000  
