     3.03           OBSERVATION DATA    M: Mixed            RINEX VERSION / TYPE
sbp2rinex v2.2 (RTKL                    20210504 171527 UTC PGM / RUN BY / DATE 
log: 2020-07-17-US-MTV-1.sbp                                COMMENT             
format: Swift Navigation SBP, option: CONVBASE,EPHALL,OBSALLCOMMENT             
                                                            MARKER NAME         
                                                            MARKER NUMBER       
                                                            MARKER TYPE         
                                                            OBSERVER / AGENCY   
                                                            REC # / TYPE / VERS 
                                                            ANT # / TYPE        
 -2724627.9910 -4348080.7364  3775613.8604                  APPROX POSITION XYZ 
        0.0000        0.0000        0.0000                  ANTENNA: DELTA H/E/N
G    6 C1C L1C S1C C5I L5I S5I                              SYS / # / OBS TYPES 
E    6 C1B L1B S1B C5I L5I S5I                              SYS / # / OBS TYPES 
  2020     7    17    22    17   46.0000000     GPS         TIME OF FIRST OBS   
  2020     7    17    23     0    3.0000000     GPS         TIME OF LAST OBS    
G                                                           SYS / PHASE SHIFT   
E                                                           SYS / PHASE SHIFT   
  0                                                         GLONASS SLOT / FRQ #
 C1C    0.000 C1P    0.000 C2C    0.000 C2P    0.000        GLONASS COD/PHS/BIS 
                                                            END OF HEADER       
> 2020  7 17 22 17 46.0000000  0 14       0.000000000000
G10  22833652.040   119991590.434          50.000    22833652.940    89604105.832          50.000  
G13  23437279.820   123163779.082          50.000                                                  
G15  21678844.720   113922910.297          50.000                                                  
G16  23356681.140   122740187.668          50.000                                                  
G20  20535995.260   107917382.250          50.000                                                  
G21  23038152.320   121066321.352          50.000                                                  
G26  22679773.020   119182920.105          50.000    22679774.720    89000223.082          50.000  
G29  21654168.060   113793406.453          50.000                                                  
E 3  27033233.300   142060564.785          50.000    27033238.500   106084173.824          50.000  
E 7  25570395.020   134373291.219          50.000    25570401.000   100343676.246          50.000  
E 8  22440543.640   117925854.945          50.000    22440546.360    88061508.027          50.000  
E13  23564112.880   123830232.738          50.000    23564116.380    92470618.043          50.000  
E15  26061939.560   136956367.906          50.000    26061945.700   102272595.363          50.000  
E26  24429558.440   128378155.648          50.000    24429563.780    95866789.977          50.000  
> 2020  7 17 22 17 47.0000000  0 14       0.000000000000
G10  22833120.780   119988798.652          50.000    22833121.680    89602021.063          50.000  
G13  23437421.780   123164525.121          50.000                                                  
G15  21678786.820   113922606.059          50.000                                                  
G16  23356491.280   122739190.016          50.000                                                  
G20  20535744.600   107916065.000          50.000                                                  
G21  23037821.040   121064580.402          50.000                                                  
G26  22680002.360   119184125.281          50.000    22680004.060    89001123.047          50.000  
G29  21654635.740   113795864.141          50.000                                                  
E 3  27033608.920   142062538.684          50.000    27033614.120   106085647.836          50.000  
E 7  25569877.800   134370573.230          50.000    25569883.780   100341646.582          50.000  
E 8  22440453.300   117925380.215          50.000    22440456.020    88061153.520          50.000  
E13  23564125.040   123830296.625          50.000    23564128.540    92470665.750          50.000  
E15  26062258.300   136958042.875          50.000    26062264.440   102273846.152          50.000  
E26  24429238.480   128376474.262          50.000    24429243.840    95865534.395          50.000  
> 2020  7 17 22 17 48.0000000  0 14       0.000000000000
G10  22832589.580   119986007.184          50.000    22832590.480    89599936.527          50.000  
G13  23437563.860   123165271.789          50.000                                                  
G15  21678729.060   113922302.516          50.000                                                  
G16  23356301.560   122738192.992          50.000                                                  
G20  20535494.020   107914748.195          50.000                                                  
G21  23037489.760   121062839.523          50.000                                                  
G26  22680231.800   119185330.973          50.000    22680233.480    89002023.402          50.000  
G29  21655103.520   113798322.262          50.000                                                  
E 3  27033984.620   142064512.918          50.000    27033989.800   106087122.105          50.000  
E 7  25569360.620   134367855.441          50.000    25569366.600   100339617.066          50.000  
E 8  22440363.060   117924905.969          50.000    22440365.780    88060799.375          50.000  
E13  23564137.240   123830360.652          50.000    23564140.720    92470713.566          50.000  
E15  26062577.060   136959717.945          50.000    26062583.200   102275097.016          50.000  
E26  24428918.520   128374792.902          50.000    24428923.880    95864278.836          50.000  
> 2020  7 17 22 17 49.0000000  0 14       0.000000000000
G10  22832058.440   119983216.020          50.000    22832059.320    89597852.219          50.000  
G13  23437706.080   123166019.098          50.000                                                  
G15  21678671.420   113921999.645          50.000                                                  
G16  23356111.960   122737196.590          50.000                                                  
G20  20535243.520   107913431.836          50.000                                                  
G21  23037158.500   121061098.707          50.000                                                  
G26  22680461.340   119186537.195          50.000    22680463.020    89002924.152          50.000  
G29  21655571.360   113800780.797          50.000                                                  
E 3  27034360.360   142066487.473          50.000    27034365.540   106088596.609          50.000  
E 7  25568843.480   134365137.852          50.000    25568849.460   100337587.699          50.000  
E 8  22440272.900   117924432.180          50.000    22440275.620    88060445.574          50.000  
E13  23564149.440   123830424.820          50.000    23564152.920    92470761.480          50.000  
E15  26062895.840   136961393.125          50.000    26062901.980   102276347.965          50.000  
E26  24428598.580   128373111.566          50.000    24428603.940    95863023.293          50.000  
> 2020  7 17 22 17 50.0000000  0 14       0.000000000000
G10  22831527.360   119980425.160          50.000    22831528.240    89595768.133          50.000  
G13  23437848.400   123166767.031          50.000                                                  
G15  21678613.920   113921697.477          50.000                                                  
G16  23355922.460   122736200.824          50.000                                                  
G20  20534993.120   107912115.934          50.000                                                  
G21  23036827.240   121059357.965          50.000                                                  
G26  22680690.980   119187743.926          50.000    22680692.660    89003825.281          50.000  
G29  21656039.280   113803239.766          50.000                                                  
E 3  27034736.160   142068462.355          50.000    27034741.360   106090071.355          50.000  
E 7  25568326.380   134362420.465          50.000    25568332.360   100335558.480          50.000  
E 8  22440182.820   117923958.855          50.000    22440185.540    88060092.113          50.000  
E13  23564161.680   123830489.125          50.000    23564165.160    92470809.500          50.000  
E15  26063214.640   136963068.422          50.000    26063220.780   102277598.996          50.000  
E26  24428278.640   128371430.258          50.000    24428283.980    95861767.770          50.000  
> 2020  7 17 22 17 51.0000000  0 14       0.000000000000
G10  22830996.320   119977634.613          50.000    22830997.220    89593684.289          50.000  
G13  23437990.860   123167515.605          50.000                                                  
G15  21678556.560   113921395.996          50.000                                                  
G16  23355733.100   122735205.680          50.000                                                  
G20  20534742.800   107910800.484          50.000                                                  
G21  23036496.000   121057617.285          50.000                                                  
G26  22680920.700   119188951.176          50.000    22680922.400    89004726.801          50.000  
G29  21656507.300   113805699.168          50.000                                                  
E 3  27035112.040   142070437.582          50.000    27035117.220   106091546.363          50.000  
E 7  25567809.320   134359703.285          50.000    25567815.300   100333529.418          50.000  
E 8  22440092.860   117923486.023          50.000    22440095.580    88059739.027          50.000  
E13  23564173.940   123830553.582          50.000    23564177.420    92470857.633          50.000  
E15  26063533.460   136964743.828          50.000    26063539.600   102278850.109          50.000  
E26  24427958.700   128369748.980          50.000    24427964.060    95860512.273          50.000  
> 2020  7 17 22 17 52.0000000  0 14       0.000000000000
G10  22830465.360   119974844.379          50.000    22830466.260    89591600.672          50.000  
G13  23438133.420   123168264.813          50.000                                                  
G15  21678499.320   113921095.199          50.000                                                  
G16  23355543.840   122734211.160          50.000                                                  
G20  20534492.560   107909485.473          50.000                                                  
G21  23036164.760   121055876.672          50.000                                                  
G26  22681150.540   119190158.945          50.000    22681152.220    89005628.703          50.000  
G29  21656975.380   113808158.992          50.000                                                  
E 3  27035487.980   142072413.125          50.000    27035493.160   106093021.605          50.000  
E 7  25567292.300   134356986.301          50.000    25567298.280   100331500.504          50.000  
E 8  22440002.960   117923013.648          50.000    22440005.680    88059386.281          50.000  
E13  23564186.240   123830618.156          50.000    23564189.720    92470905.855          50.000  
E15  26063852.300   136966419.336          50.000    26063858.440   102280101.297          50.000  
E26  24427638.760   128368067.715          50.000    24427644.120    95859256.781          50.000  
> 2020  7 17 22 17 53.0000000  0 14       0.000000000000
G10  22829934.460   119972054.441          50.000    22829935.340    89589517.277          50.000  
G13  23438276.120   123169014.664          50.000                                                  
G15  21678442.200   113920795.094          50.000                                                  
G16  23355354.720   122733217.281          50.000                                                  
G20  20534242.400   107908170.914          50.000                                                  
G21  23035833.560   121054136.125          50.000                                                  
G26  22681380.460   119191367.227          50.000    22681382.160    89006530.988          50.000  
G29  21657443.560   113810619.254          50.000                                                  
E 3  27035863.980   142074389.000          50.000    27035869.160   106094497.094          50.000  
E 7  25566775.320   134354269.527          50.000    25566781.280   100329471.746          50.000  
E 8  22439913.160   117922541.758          50.000    22439915.880    88059033.895          50.000  
E13  23564198.540   123830682.871          50.000    23564202.040    92470954.184          50.000  
E15  26064171.160   136968094.949          50.000    26064177.300   102281352.570          50.000  
E26  24427318.840   128366386.488          50.000    24427324.180    95858001.320          50.000  
> 2020  7 17 22 17 54.0000000  0 14       0.000000000000
G10  22829403.600   119969264.816          50.000    22829404.500    89587434.117          50.000  
G13  23438418.920   123169765.133          50.000                                                  
G15  21678385.220   113920495.664          50.000                                                  
G16  23355165.700   122732224.020          50.000                                                  
G20  20533992.340   107906856.805          50.000                                                  
G21  23035502.340   121052395.629          50.000                                                  
G26  22681610.500   119192576.035          50.000    22681612.180    89007433.672          50.000  
G29  21657911.800   113813079.930          50.000                                                  
E 3  27036240.020   142076365.199          50.000    27036245.220   106095972.828          50.000  
E 7  25566258.360   134351552.941          50.000    25566264.340   100327443.129          50.000  
E 8  22439823.460   117922070.320          50.000    22439826.180    88058681.848          50.000  
E13  23564210.880   123830747.727          50.000    23564214.380    92471002.613          50.000  
E15  26064490.040   136969770.684          50.000    26064496.180   102282603.926          50.000  
E26  24426998.920   128364705.277          50.000    24427004.260    95856745.871          50.000  
> 2020  7 17 22 17 55.0000000  0 14       0.000000000000
G10  22828872.820   119966475.488          50.000    22828873.700    89585351.180          50.000  
G13  23438561.860   123170516.242          50.000                                                  
G15  21678328.380   113920196.934          50.000                                                  
G16  23354976.800   122731231.383          50.000                                                  
G20  20533742.340   107905543.137          50.000                                                  
G21  23035171.160   121050655.207          50.000                                                  
G26  22681840.620   119193785.355          50.000    22681842.300    89008336.734          50.000  
G29  21658380.140   113815541.035          50.000                                                  
E 3  27036616.160   142078341.727          50.000    27036621.340   106097448.805          50.000  
E 7  25565741.440   134348836.551          50.000    25565747.420   100325414.656          50.000  
E 8  22439733.840   117921599.359          50.000    22439736.560    88058330.156          50.000  
E13  23564223.260   123830812.719          50.000    23564226.740    92471051.148          50.000  
E15  26064808.940   136971446.539          50.000    26064815.080   102283855.379          50.000  
E26  24426679.000   128363024.082          50.000    24426684.340    95855490.434          50.000  
> 2020  7 17 22 17 56.0000000  0 14       0.000000000000
G10  22828342.080   119963686.488          50.000    22828342.980    89583268.484          50.000  
G13  23438704.900   123171267.984          50.000                                                  
G15  21678271.660   113919898.883          50.000                                                  
G16  23354788.040   122730239.379          50.000                                                  
G20  20533492.460   107904229.918          50.000                                                  
G21  23034839.980   121048914.855          50.000                                                  
G26  22682070.840   119194995.195          50.000    22682072.540    89009240.188          50.000  
G29  21658848.560   113818002.574          50.000                                                  
E 3  27036992.340   142080318.590          50.000    27036997.520   106098925.031          50.000  
E 7  25565224.580   134346120.359          50.000    25565230.540   100323386.332          50.000  
E 8  22439644.300   117921128.844          50.000    22439647.020    88057978.797          50.000  
E13  23564235.640   123830877.844          50.000    23564239.140    92471099.777          50.000  
E15  26065127.860   136973122.480          50.000    26065134.000   102285106.891          50.000  
E26  24426359.080   128361342.934          50.000    24426364.440    95854235.031          50.000  
> 2020  7 17 22 17 57.0000000  0 14       0.000000000000
G10  22827811.420   119960897.781          50.000    22827812.300    89581186.012          50.000  
G13  23438848.080   123172020.359          50.000                                                  
G15  21678215.080   113919601.523          50.000                                                  
G16  23354599.380   122729247.996          50.000                                                  
G20  20533242.640   107902917.156          50.000                                                  
G21  23034508.800   121047174.559          50.000                                                  
G26  22682301.160   119196205.543          50.000    22682302.860    89010144.020          50.000  
G29  21659317.060   113820464.535          50.000                                                  
E 3  27037368.580   142082295.781          50.000    27037373.780   106100401.504          50.000  
E 7  25564707.740   134343404.375          50.000    25564713.720   100321358.164          50.000  
E 8  22439554.860   117920658.824          50.000    22439557.580    88057627.809          50.000  
E13  23564248.060   123830943.117          50.000    23564251.560    92471148.523          50.000  
E15  26065446.800   136974798.539          50.000    26065452.940   102286358.492          50.000  
E26  24426039.160   128359661.789          50.000    24426044.520    95852979.633          50.000  
> 2020  7 17 22 17 58.0000000  0 14       0.000000000000
G10  22827280.800   119958109.391          50.000    22827281.680    89579103.773          50.000  
G13  23438991.380   123172773.375          50.000                                                  
G15  21678158.620   113919304.855          50.000                                                  
G16  23354410.840   122728257.254          50.000                                                  
G20  20532992.920   107901604.848          50.000                                                  
G21  23034177.660   121045434.336          50.000                                                  
G26  22682531.600   119197416.434          50.000    22682533.280    89011048.254          50.000  
G29  21659785.640   113822926.934          50.000                                                  
E 3  27037744.900   142084273.301          50.000    27037750.080   106101878.223          50.000  
E 7  25564190.940   134340688.605          50.000    25564196.920   100319330.156          50.000  
E 8  22439465.500   117920189.273          50.000    22439468.220    88057277.168          50.000  
E13  23564260.520   123831008.523          50.000    23564264.000    92471197.363          50.000  
E15  26065765.780   136976474.719          50.000    26065771.920   102287610.184          50.000  
E26  24425719.260   128357980.684          50.000    24425724.620    95851724.262          50.000  
> 2020  7 17 22 17 59.0000000  0 14       0.000000000000
G10  22826750.240   119955321.301          50.000    22826751.120    89577021.762          50.000  
G13  23439134.780   123173527.027          50.000                                                  
G15  21678102.300   113919008.871          50.000                                                  
G16  23354222.440   122727267.133          50.000                                                  
G20  20532743.280   107900292.980          50.000                                                  
G21  23033846.520   121043694.176          50.000                                                  
G26  22682762.120   119198627.820          50.000    22682763.800    89011952.859          50.000  
G29  21660254.300   113825389.750          50.000                                                  
E 3  27038121.260   142086251.145          50.000    27038126.460   106103355.184          50.000  
E 7  25563674.180   134337973.020          50.000    25563680.160   100317302.281          50.000  
E 8  22439376.240   117919720.199          50.000    22439378.960    88056926.891          50.000  
E13  23564272.980   123831074.066          50.000    23564276.480    92471246.309          50.000  
E15  26066084.760   136978151.012          50.000    26066090.900   102288861.961          50.000  
E26  24425399.360   128356299.602          50.000    24425404.720    95850468.906          50.000  
> 2020  7 17 22 18  0.0000000  0 14       0.000000000000
G10  22826219.740   119952533.523          50.000    22826220.620    89574939.980          50.000  
G13  23439278.320   123174281.297          50.000                                                  
G15  21678046.100   113918713.570          50.000                                                  
G16  23354034.140   122726277.637          50.000                                                  
G20  20532493.720   107898981.563          50.000                                                  
G21  23033515.380   121041954.086          50.000                                                  
G26  22682992.740   119199839.730          50.000    22682994.420    89012857.859          50.000  
G29  21660723.040   113827852.996          50.000                                                  
E 3  27038497.700   142088229.324          50.000    27038502.900   106104832.395          50.000  
E 7  25563157.460   134335257.633          50.000    25563163.440   100315274.559          50.000  
E 8  22439287.060   117919251.578          50.000    22439289.780    88056576.945          50.000  
E13  23564285.480   123831139.750          50.000    23564288.980    92471295.355          50.000  
E15  26066403.780   136979827.402          50.000    26066409.920   102290113.809          50.000  
E26  24425079.460   128354618.539          50.000    24425084.820    95849213.570          50.000  
> 2020  7 17 22 18  1.0000000  0 14       0.000000000000
G10  22825689.300   119949746.051          50.000    22825690.180    89572858.430          50.000  
G13  23439421.980   123175036.211          50.000                                                  
G15  21677990.040   113918418.957          50.000                                                  
G16  23353845.960   122725288.785          50.000                                                  
G20  20532244.260   107897670.590          50.000                                                  
G21  23033184.260   121040214.051          50.000                                                  
G26  22683223.440   119201052.156          50.000    22683225.140    89013763.238          50.000  
G29  21661191.860   113830316.668          50.000                                                  
E 3  27038874.200   142090207.824          50.000    27038879.380   106106309.848          50.000  
E 7  25562640.780   134332542.461          50.000    25562646.760   100313246.996          50.000  
E 8  22439197.980   117918783.430          50.000    22439200.700    88056227.352          50.000  
E13  23564298.020   123831205.566          50.000    23564301.500    92471344.504          50.000  
E15  26066722.800   136981503.910          50.000    26066728.940   102291365.746          50.000  
E26  24424759.580   128352937.512          50.000    24424764.920    95847958.258          50.000  
> 2020  7 17 22 18  2.0000000  0 14       0.000000000000
G10  22825158.920   119946958.891          50.000    22825159.800    89570777.105          50.000  
G13  23439565.760   123175791.762          50.000                                                  
G15  21677934.120   113918125.035          50.000                                                  
G16  23353657.920   122724300.555          50.000                                                  
G20  20531994.860   107896360.070          50.000                                                  
G21  23032853.160   121038474.086          50.000                                                  
G26  22683454.260   119202265.090          50.000    22683455.960    89014669.004          50.000  
G29  21661660.760   113832780.762          50.000                                                  
E 3  27039250.760   142092186.656          50.000    27039255.940   106107787.543          50.000  
E 7  25562124.140   134329827.473          50.000    25562130.100   100311219.574          50.000  
E 8  22439108.980   117918315.758          50.000    22439111.700    88055878.117          50.000  
E13  23564310.560   123831271.516          50.000    23564314.040    92471393.754          50.000  
E15  26067041.840   136983180.523          50.000    26067047.980   102292617.762          50.000  
E26  24424439.700   128351256.496          50.000    24424445.040    95846702.953          50.000  
> 2020  7 17 22 18  3.0000000  0 14       0.000000000000
G10  22824628.600   119944172.031          50.000    22824629.480    89568696.012          50.000  
G13  23439709.640   123176547.945          50.000                                                  
G15  21677878.300   113917831.793          50.000                                                  
G16  23353469.980   122723312.941          50.000                                                  
G20  20531745.580   107895050.012          50.000                                                  
G21  23032522.060   121036734.184          50.000                                                  
G26  22683685.180   119203478.555          50.000    22683686.860    89015575.160          50.000  
G29  21662129.740   113835245.297          50.000                                                  
E 3  27039627.380   142094165.824          50.000    27039632.580   106109265.492          50.000  
E 7  25561607.540   134327112.703          50.000    25561613.500   100309192.309          50.000  
E 8  22439020.080   117917848.563          50.000    22439022.800    88055529.238          50.000  
E13  23564323.140   123831337.617          50.000    23564326.620    92471443.117          50.000  
E15  26067360.920   136984857.258          50.000    26067367.060   102293869.867          50.000  
E26  24424119.800   128349575.512          50.000    24424125.160    95845447.672          50.000  
> 2020  7 17 22 18  4.0000000  0 14       0.000000000000
G10  22824098.340   119941385.473          50.000    22824099.220    89566615.141          50.000  
G13  23439853.660   123177304.754          50.000                                                  
G15  21677822.640   113917539.242          50.000                                                  
G16  23353282.160   122722325.961          50.000                                                  
G20  20531496.360   107893740.391          50.000                                                  
G21  23032191.000   121034994.359          50.000                                                  
G26  22683916.200   119204692.531          50.000    22683917.880    89016481.699          50.000  
G29  21662598.800   113837710.254          50.000                                                  
E 3  27040004.060   142096145.313          50.000    27040009.260   106110743.684          50.000  
E 7  25561090.960   134324398.121          50.000    25561096.940   100307165.188          50.000  
E 8  22438931.260   117917381.828          50.000    22438933.980    88055180.703          50.000  
E13  23564335.740   123831403.852          50.000    23564339.220    92471492.574          50.000  
E15  26067680.020   136986534.086          50.000    26067686.160   102295122.043          50.000  
E26  24423799.940   128347894.551          50.000    24423805.280    95844192.414          50.000  
> 2020  7 17 22 18  5.0000000  0 14       0.000000000000
G10  22823568.120   119938599.227          50.000    22823569.020    89564534.508          50.000  
G13  23439997.800   123178062.195          50.000                                                  
G15  21677767.100   113917247.379          50.000                                                  
G16  23353094.460   122721339.617          50.000                                                  
G20  20531247.240   107892431.215          50.000                                                  
G21  23031859.920   121033254.582          50.000                                                  
G26  22684147.300   119205907.023          50.000    22684149.000    89017388.625          50.000  
G29  21663067.960   113840175.637          50.000                                                  
E 3  27040380.820   142098125.125          50.000    27040386.000   106112222.113          50.000  
E 7  25560574.440   134321683.738          50.000    25560580.400   100305138.215          50.000  
E 8  22438842.540   117916915.555          50.000    22438845.240    88054832.512          50.000  
E13  23564348.380   123831470.219          50.000    23564351.860    92471542.137          50.000  
E15  26067999.120   136988211.043          50.000    26068005.260   102296374.316          50.000  
E26  24423480.060   128346213.617          50.000    24423485.420    95842937.168          50.000  
> 2020  7 17 22 18  6.0000000  0 14       0.000000000000
G10  22823037.980   119935813.301          50.000    22823038.860    89562454.109          50.000  
G13  23440142.060   123178820.262          50.000                                                  
G15  21677711.680   113916956.203          50.000                                                  
G16  23352906.880   122720353.887          50.000                                                  
G20  20530998.180   107891122.496          50.000                                                  
G21  23031528.860   121031514.871          50.000                                                  
G26  22684378.520   119207122.047          50.000    22684380.200    89018295.945          50.000  
G29  21663537.180   113842641.445          50.000                                                  
E 3  27040757.620   142100105.273          50.000    27040762.820   106113700.793          50.000  
E 7  25560057.940   134318969.570          50.000    25560063.920   100303111.402          50.000  
E 8  22438753.900   117916449.766          50.000    22438756.620    88054484.684          50.000  
E13  23564361.020   123831536.727          50.000    23564364.520    92471591.801          50.000  
E15  26068318.260   136989888.105          50.000    26068324.400   102297626.668          50.000  
E26  24423160.200   128344532.715          50.000    24423165.540    95841681.949          50.000  
> 2020  7 17 22 18  7.0000000  0 14       0.000000000000
G10  22822507.900   119933027.676          50.000    22822508.780    89560373.934          50.000  
G13  23440286.440   123179578.973          50.000                                                  
G15  21677656.400   113916665.707          50.000                                                  
G16  23352719.420   122719368.789          50.000                                                  
G20  20530749.240   107889814.227          50.000                                                  
G21  23031197.820   121029775.238          50.000                                                  
G26  22684609.820   119208337.566          50.000    22684611.500    89019203.641          50.000  
G29  21664006.500   113845107.688          50.000                                                  
E 3  27041134.500   142102085.742          50.000    27041139.680   106115179.715          50.000  
E 7  25559541.500   134316255.605          50.000    25559547.460   100301084.742          50.000  
E 8  22438665.340   117915984.449          50.000    22438668.060    88054137.207          50.000  
E13  23564373.720   123831603.379          50.000    23564377.200    92471641.570          50.000  
E15  26068637.420   136991565.270          50.000    26068643.560   102298879.094          50.000  
E26  24422840.340   128342851.828          50.000    24422845.680    95840426.742          50.000  
> 2020  7 17 22 18  8.0000000  0 14       0.000000000000
G10  22821977.860   119930242.355          50.000    22821978.760    89558293.992          50.000  
G13  23440430.940   123180338.316          50.000                                                  
G15  21677601.260   113916375.910          50.000                                                  
G16  23352532.080   122718384.324          50.000                                                  
G20  20530500.360   107888506.402          50.000                                                  
G21  23030866.800   121028035.664          50.000                                                  
G26  22684841.220   119209553.605          50.000    22684842.920    89020111.723          50.000  
G29  21664475.880   113847574.344          50.000                                                  
E 3  27041511.420   142104066.543          50.000    27041516.620   106116658.887          50.000  
E 7  25559025.080   134313541.824          50.000    25559031.040   100299058.219          50.000  
E 8  22438576.880   117915519.594          50.000    22438579.600    88053790.074          50.000  
E13  23564386.420   123831670.160          50.000    23564389.900    92471691.441          50.000  
E15  26068956.600   136993242.547          50.000    26068962.740   102300131.605          50.000  
E26  24422520.480   128341170.961          50.000    24422525.820    95839171.551          50.000  
> 2020  7 17 22 18  9.0000000  0 14       0.000000000000
G10  22821447.900   119927457.348          50.000    22821448.780    89556214.277          50.000  
G13  23440575.560   123181098.297          50.000                                                  
G15  21677546.240   113916086.801          50.000                                                  
G16  23352344.880   122717400.492          50.000                                                  
G20  20530251.580   107887199.039          50.000                                                  
G21  23030535.780   121026296.164          50.000                                                  
G26  22685072.720   119210770.160          50.000    22685074.420    89021020.184          50.000  
G29  21664945.360   113850041.438          50.000                                                  
E 3  27041888.420   142106047.676          50.000    27041893.620   106118138.301          50.000  
E 7  25558508.700   134310828.262          50.000    25558514.680   100297031.859          50.000  
E 8  22438488.520   117915055.203          50.000    22438491.240    88053443.289          50.000  
E13  23564399.160   123831737.086          50.000    23564402.640    92471741.418          50.000  
E15  26069275.780   136994919.941          50.000    26069281.940   102301384.203          50.000  
E26  24422200.620   128339490.133          50.000    24422205.980    95837916.387          50.000  
> 2020  7 17 22 18 10.0000000  0 15       0.000000000000
G10  22820917.980   119924672.645          50.000    22820918.860    89554134.793          50.000  
G13  23440720.300   123181858.910          50.000                                                  
G15  21677491.360   113915798.383          50.000                                                  
G16  23352157.780   122716417.297          50.000                                                  
G20  20530002.880   107885892.113          50.000                                                  
G21  23030204.780   121024556.730          50.000                                                  
G26  22685304.340   119211987.242          50.000    22685306.020    89021929.043          50.000  
G29  21665414.920   113852508.949          50.000                                                  
E 3  27042265.480   142108029.137          50.000    27042270.680   106119617.961          50.000  
E 7  25557992.360   134308114.887          50.000    25557998.340   100295005.637          50.000  
E 8  22438400.240   117914591.293          50.000    22438402.960    88053096.863          50.000  
E13  23564411.920   123831804.141          50.000    23564415.400    92471791.492          50.000  
E15  26069595.000   136996597.430          50.000    26069601.140   102302636.875          50.000  
E21  26978614.960   141773519.109          50.000    26978621.120   105869814.359          50.000  
E26  24421880.780   128337809.320          50.000    24421886.120    95836661.238          50.000  
> 2020  7 17 22 18 11.0000000  0 15       0.000000000000
G10  22820388.140   119921888.266          50.000    22820389.020    89552055.551          50.000  
G13  23440865.160   123182620.172          50.000                                                  
G15  21677436.600   113915510.648          50.000                                                  
G16  23351970.800   122715434.742          50.000                                                  
G20  20529754.260   107884585.637          50.000                                                  
G21  23029873.780   121022817.352          50.000                                                  
G26  22685536.020   119213204.828          50.000    22685537.720    89022838.281          50.000  
G29  21665884.540   113854976.895          50.000                                                  
E 3  27042642.600   142110010.918          50.000    27042647.800   106121097.863          50.000  
E 7  25557476.060   134305401.734          50.000    25557482.040   100292979.582          50.000  
E 8  22438312.040   117914127.855          50.000    22438314.760    88052750.789          50.000  
E13  23564424.700   123831871.340          50.000    23564428.180    92471841.672          50.000  
E15  26069914.240   136998275.063          50.000    26069920.400   102303889.648          50.000  
E21  26979088.340   141776006.707          50.000    26979094.500   105871671.980          50.000  
E26  24421560.940   128336128.539          50.000    24421566.280    95835406.109          50.000  
> 2020  7 17 22 18 12.0000000  0 15       0.000000000000
G10  22819858.340   119919104.172          50.000    22819859.220    89549976.523          50.000  
G13  23441010.140   123183382.047          50.000                                                  
G15  21677381.980   113915223.598          50.000                                                  
G16  23351783.940   122714452.828          50.000                                                  
G20  20529505.740   107883279.617          50.000                                                  
G21  23029542.800   121021078.047          50.000                                                  
G26  22685767.820   119214422.930          50.000    22685769.520    89023747.898          50.000  
G29  21666354.260   113857445.254          50.000                                                  
E 3  27043019.780   142111993.027          50.000    27043024.980   106122578.012          50.000  
E 7  25556959.800   134302688.770          50.000    25556965.780   100290953.672          50.000  
E 8  22438223.940   117913664.887          50.000    22438226.660    88052405.070          50.000  
E13  23564437.520   123831938.676          50.000    23564441.000    92471891.957          50.000  
E15  26070233.500   136999952.785          50.000    26070239.660   102305142.496          50.000  
E21  26979561.740   141778494.438          50.000    26979567.900   105873529.699          50.000  
E26  24421241.100   128334447.781          50.000    24421246.440    95834150.996          50.000  
> 2020  7 17 22 18 13.0000000  0 15       0.000000000000
G10  22819328.600   119916320.398          50.000    22819329.480    89547897.730          50.000  
G13  23441155.240   123184144.570          50.000                                                  
G15  21677327.480   113914937.230          50.000                                                  
G16  23351597.220   122713471.543          50.000                                                  
G20  20529257.300   107881974.055          50.000                                                  
G21  23029211.840   121019338.801          50.000                                                  
G26  22685999.720   119215641.559          50.000    22686001.420    89024657.914          50.000  
G29  21666824.060   113859914.043          50.000                                                  
E 3  27043397.040   142113975.473          50.000    27043402.220   106124058.406          50.000  
E 7  25556443.580   134299976.012          50.000    25556449.560   100288927.910          50.000  
E 8  22438135.940   117913202.391          50.000    22438138.660    88052059.699          50.000  
E13  23564450.360   123832006.152          50.000    23564453.840    92471942.344          50.000  
E15  26070552.800   137001630.625          50.000    26070558.940   102306395.426          50.000  
E21  26980035.160   141780982.297          50.000    26980041.320   105875387.516          50.000  
E26  24420921.260   128332767.051          50.000    24420926.620    95832895.906          50.000  
> 2020  7 17 22 18 14.0000000  0 15       0.000000000000
G10  22818798.920   119913536.934          50.000    22818799.800    89545819.172          50.000  
G13  23441300.460   123184907.723          50.000                                                  
G15  21677273.120   113914651.555          50.000                                                  
G16  23351410.600   122712490.863          50.000                                                  
G20  20529008.940   107880668.934          50.000                                                  
G21  23028880.880   121017599.625          50.000                                                  
G26  22686231.720   119216860.699          50.000    22686233.420    89025568.313          50.000  
G29  21667293.940   113862383.254          50.000                                                  
E 3  27043774.340   142115958.242          50.000    27043779.540   106125539.047          50.000  
E 7  25555927.400   134297263.445          50.000    25555933.360   100286902.293          50.000  
E 8  22438048.020   117912740.359          50.000    22438050.740    88051714.676          50.000  
E13  23564463.220   123832073.758          50.000    23564466.700    92471992.828          50.000  
E15  26070872.080   137003308.551          50.000    26070878.240   102307648.422          50.000  
E21  26980508.600   141783470.293          50.000    26980514.780   105877245.434          50.000  
E26  24420601.440   128331086.336          50.000    24420606.780    95831640.828          50.000  
> 2020  7 17 22 18 15.0000000  0 15       0.000000000000
G10  22818269.300   119910753.770          50.000    22818270.180    89543740.836          50.000  
G13  23441445.800   123185671.512          50.000                                                  
G15  21677218.900   113914366.563          50.000                                                  
G16  23351224.100   122711510.816          50.000                                                  
G20  20528760.680   107879364.266          50.000                                                  
G21  23028549.940   121015860.504          50.000                                                  
G26  22686463.820   119218080.355          50.000    22686465.500    89026479.094          50.000  
G29  21667763.900   113864852.906          50.000                                                  
E 3  27044151.720   142117941.336          50.000    27044156.900   106127019.926          50.000  
E 7  25555411.260   134294551.086          50.000    25555417.220   100284876.832          50.000  
E 8  22437960.180   117912278.805          50.000    22437962.900    88051370.008          50.000  
E13  23564476.120   123832141.504          50.000    23564479.600    92472043.422          50.000  
E15  26071191.420   137004986.613          50.000    26071197.560   102308901.520          50.000  
E21  26980982.080   141785958.418          50.000    26980988.260   105879103.449          50.000  
E26  24420281.620   128329405.656          50.000    24420286.960    95830385.777          50.000  
> 2020  7 17 22 18 16.0000000  0 15       0.000000000000
G10  22817739.740   119907970.930          50.000    22817740.620    89541662.742          50.000  
G13  23441591.280   123186435.945          50.000                                                  
G15  21677164.800   113914082.273          50.000                                                  
G16  23351037.720   122710531.410          50.000                                                  
G20  20528512.480   107878060.051          50.000                                                  
G21  23028219.000   121014121.453          50.000                                                  
G26  22686696.000   119219300.531          50.000    22686697.700    89027390.262          50.000  
G29  21668233.940   113867322.988          50.000                                                  
E 3  27044529.140   142119924.758          50.000    27044534.340   106128501.055          50.000  
E 7  25554895.160   134291838.945          50.000    25554901.120   100282851.531          50.000  
E 8  22437872.440   117911817.719          50.000    22437875.160    88051025.691          50.000  
E13  23564489.040   123832209.398          50.000    23564492.520    92472094.121          50.000  
E15  26071510.760   137006664.770          50.000    26071516.900   102310154.688          50.000  
E21  26981455.580   141788446.676          50.000    26981461.760   105880961.563          50.000  
E26  24419961.780   128327724.988          50.000    24419967.140    95829130.730          50.000  
> 2020  7 17 22 18 17.0000000  0 15       0.000000000000
G10  22817210.240   119905188.379          50.000    22817211.120    89539584.867          50.000  
G13  23441736.860   123187200.996          50.000                                                  
G15  21677110.820   113913798.664          50.000                                                  
G16  23350851.460   122709552.629          50.000                                                  
G20  20528264.380   107876756.277          50.000                                                  
G21  23027888.080   121012382.465          50.000                                                  
G26  22686928.300   119220521.227          50.000    22686929.980    89028301.820          50.000  
G29  21668704.060   113869793.480          50.000                                                  
E 3  27044906.640   142121908.516          50.000    27044911.840   106129982.430          50.000  
E 7  25554379.080   134289126.980          50.000    25554385.040   100280826.363          50.000  
E 8  22437784.780   117911357.090          50.000    22437787.500    88050681.715          50.000  
E13  23564501.980   123832277.418          50.000    23564505.460    92472144.914          50.000  
E15  26071830.120   137008343.039          50.000    26071836.260   102311407.941          50.000  
E21  26981929.120   141790935.063          50.000    26981935.280   105882819.773          50.000  
E26  24419641.980   128326044.363          50.000    24419647.320    95827875.723          50.000  
> 2020  7 17 22 18 18.0000000  0 15       0.000000000000
G10  22816680.800   119902406.145          50.000    22816681.680    89537507.223          50.000  
G13  23441882.560   123187966.680          50.000                                                  
G15  21677056.980   113913515.746          50.000                                                  
G16  23350665.320   122708574.457          50.000                                                  
G20  20528016.380   107875452.957          50.000                                                  
G21  23027557.180   121010643.539          50.000                                                  
G26  22687160.680   119221742.422          50.000    22687162.380    89029213.750          50.000  
G29  21669174.260   113872264.414          50.000                                                  
E 3  27045284.200   142123892.590          50.000    27045289.400   106131464.043          50.000  
E 7  25553863.040   134286415.223          50.000    25553869.020   100278801.355          50.000  
E 8  22437697.220   117910896.941          50.000    22437699.940    88050338.098          50.000  
E13  23564514.960   123832345.586          50.000    23564518.440    92472195.820          50.000  
E15  26072149.520   137010021.430          50.000    26072155.660   102312661.285          50.000  
E21  26982402.660   141793423.586          50.000    26982408.840   105884678.082          50.000  
E26  24419322.160   128324363.754          50.000    24419327.520    95826620.719          50.000  
> 2020  7 17 22 18 19.0000000  0 15       0.000000000000
G10  22816151.420   119899624.219          50.000    22816152.300    89535429.813          50.000  
G13  23442028.380   123188733.008          50.000                                                  
G15  21677003.280   113913233.512          50.000                                                  
G16  23350479.320   122707596.930          50.000                                                  
G20  20527768.440   107874150.090          50.000                                                  
G21  23027226.280   121008904.695          50.000                                                  
G26  22687393.180   119222964.156          50.000    22687394.860    89030126.086          50.000  
G29  21669644.540   113874735.766          50.000                                                  
E 3  27045661.820   142125876.992          50.000    27045667.020   106132945.902          50.000  
E 7  25553347.060   134283703.676          50.000    25553353.020   100276776.496          50.000  
E 8  22437609.760   117910437.270          50.000    22437612.460    88049994.836          50.000  
E13  23564527.940   123832413.887          50.000    23564531.440    92472246.820          50.000  
E15  26072468.920   137011699.926          50.000    26072475.060   102313914.707          50.000  
E21  26982876.240   141795912.246          50.000    26982882.400   105886536.496          50.000  
E26  24419002.360   128322683.172          50.000    24419007.720    95825365.742          50.000  
> 2020  7 17 22 18 20.0000000  0 15       0.000000000000
G10  22815622.100   119896842.602          50.000    22815622.980    89533352.633          50.000  
G13  23442174.340   123189499.965          50.000                                                  
G15  21676949.700   113912951.973          50.000                                                  
G16  23350293.400   122706620.012          50.000                                                  
G20  20527520.600   107872847.656          50.000                                                  
G21  23026895.400   121007165.902          50.000                                                  
G26  22687625.760   119224186.383          50.000    22687627.440    89031038.785          50.000  
G29  21670114.900   113877207.547          50.000                                                  
E 3  27046039.500   142127861.730          50.000    27046044.700   106134428.008          50.000  
E 7  25552831.100   134280992.328          50.000    25552837.080   100274751.789          50.000  
E 8  22437522.360   117909978.047          50.000    22437525.080    88049651.910          50.000  
E13  23564540.960   123832482.320          50.000    23564544.460    92472297.926          50.000  
E15  26072788.340   137013378.531          50.000    26072794.500   102315168.211          50.000  
E21  26983349.840   141798401.020          50.000    26983356.000   105888394.996          50.000  
E26  24418682.560   128321002.613          50.000    24418687.920    95824110.777          50.000  
> 2020  7 17 22 18 21.0000000  0 15       0.000000000000
G10  22815092.820   119894061.285          50.000    22815093.700    89531275.676          50.000  
G13  23442320.400   123190267.551          50.000                                                  
G15  21676896.260   113912671.125          50.000                                                  
G16  23350107.620   122705643.730          50.000                                                  
G20  20527272.840   107871545.684          50.000                                                  
G21  23026564.540   121005427.188          50.000                                                  
G26  22687858.440   119225409.137          50.000    22687860.120    89031951.883          50.000  
G29  21670585.340   113879679.754          50.000                                                  
E 3  27046417.260   142129846.785          50.000    27046422.440   106135910.355          50.000  
E 7  25552315.180   134278281.172          50.000    25552321.160   100272727.227          50.000  
E 8  22437435.060   117909519.297          50.000    22437437.780    88049309.340          50.000  
E13  23564554.020   123832550.898          50.000    23564557.500    92472349.137          50.000  
E15  26073107.800   137015057.254          50.000    26073113.940   102316421.801          50.000  
E21  26983823.460   141800889.934          50.000    26983829.640   105890253.598          50.000  
E26  24418362.760   128319322.078          50.000    24418368.120    95822855.832          50.000  
> 2020  7 17 22 18 22.0000000  0 15       0.000000000000
G10  22814563.620   119891280.289          50.000    22814564.500    89529198.961          50.000  
G13  23442466.600   123191035.777          50.000                                                  
G15  21676842.940   113912390.957          50.000                                                  
G16  23349921.960   122704668.082          50.000                                                  
G20  20527025.160   107870244.156          50.000                                                  
G21  23026233.680   121003688.539          50.000                                                  
G26  22688091.220   119226632.406          50.000    22688092.920    89032865.359          50.000  
G29  21671055.880   113882152.391          50.000                                                  
E 3  27046795.060   142131832.180          50.000    27046800.260   106137392.953          50.000  
E 7  25551799.320   134275570.230          50.000    25551805.280   100270702.824          50.000  
E 8  22437347.860   117909061.047          50.000    22437350.580    88048967.137          50.000  
E13  23564567.100   123832619.617          50.000    23564570.580    92472400.453          50.000  
E15  26073427.260   137016736.082          50.000    26073433.420   102317675.469          50.000  
E21  26984297.120   141803378.984          50.000    26984303.280   105892112.305          50.000  
E26  24418042.980   128317641.570          50.000    24418048.320    95821600.910          50.000  
> 2020  7 17 22 18 23.0000000  0 15       0.000000000000
G10  22814034.460   119888499.602          50.000    22814035.340    89527122.473          50.000  
G13  23442612.900   123191804.633          50.000                                                  
G15  21676789.760   113912111.484          50.000                                                  
G16  23349736.420   122703693.063          50.000                                                  
G20  20526777.580   107868943.078          50.000                                                  
G21  23025902.840   121001949.953          50.000                                                  
G26  22688324.100   119227856.184          50.000    22688325.780    89033779.219          50.000  
G29  21671526.480   113884625.457          50.000                                                  
E 3  27047172.920   142133817.895          50.000    27047178.120   106138875.789          50.000  
E 7  25551283.480   134272859.477          50.000    25551289.440   100268678.559          50.000  
E 8  22437260.740   117908603.250          50.000    22437263.460    88048625.277          50.000  
E13  23564580.200   123832688.480          50.000    23564583.680    92472451.875          50.000  
E15  26073746.760   137018415.027          50.000    26073752.900   102318929.227          50.000  
E21  26984770.780   141805868.148          50.000    26984776.960   105893971.098          50.000  
E26  24417723.200   128315961.086          50.000    24417728.540    95820346.004          50.000  
> 2020  7 17 22 18 24.0000000  0 15       0.000000000000
G10  22813505.380   119885719.230          50.000    22813506.260    89525046.227          50.000  
G13  23442759.320   123192574.125          50.000                                                  
G15  21676736.720   113911832.695          50.000                                                  
G16  23349551.000   122702718.664          50.000                                                  
G20  20526530.080   107867642.449          50.000                                                  
G21  23025572.000   121000211.434          50.000                                                  
G26  22688557.080   119229080.492          50.000    22688558.760    89034693.477          50.000  
G29  21671997.180   113887098.945          50.000                                                  
E 3  27047550.860   142135803.930          50.000    27047556.060   106140358.871          50.000  
E 7  25550767.680   134270148.953          50.000    25550773.640   100266654.469          50.000  
E 8  22437173.720   117908145.926          50.000    22437176.440    88048283.770          50.000  
E13  23564593.320   123832757.469          50.000    23564596.820    92472503.395          50.000  
E15  26074066.280   137020094.063          50.000    26074072.420   102320183.051          50.000  
E21  26985244.480   141808357.461          50.000    26985250.660   105895829.996          50.000  
E26  24417403.420   128314280.633          50.000    24417408.760    95819091.117          50.000  
> 2020  7 17 22 18 25.0000000  0 15       0.000000000000
G10  22812976.340   119882939.156          50.000    22812977.220    89522970.195          50.000  
G13  23442905.880   123193344.250          50.000                                                  
G15  21676683.800   113911554.602          50.000                                                  
G16  23349365.700   122701744.898          50.000                                                  
G20  20526282.660   107866342.273          50.000                                                  
G21  23025241.200   120998472.980          50.000                                                  
G26  22688790.140   119230305.301          50.000    22688791.840    89035608.105          50.000  
G29  21672467.940   113889572.863          50.000                                                  
E 3  27047928.860   142137790.297          50.000    27047934.040   106141842.191          50.000  
E 7  25550251.920   134267438.598          50.000    25550257.880   100264630.504          50.000  
E 8  22437086.780   117907689.059          50.000    22437089.500    88047942.602          50.000  
E13  23564606.480   123832826.602          50.000    23564609.960    92472555.020          50.000  
E15  26074385.800   137021773.219          50.000    26074391.960   102321436.965          50.000  
E21  26985718.220   141810846.902          50.000    26985724.380   105897688.992          50.000  
E26  24417083.640   128312600.203          50.000    24417088.980    95817836.254          50.000  
> 2020  7 17 22 18 26.0000000  0 15       0.000000000000
G10  22812447.380   119880159.387          50.000    22812448.260    89520894.398          50.000  
G13  23443052.540   123194115.008          50.000                                                  
G15  21676631.000   113911277.195          50.000                                                  
G16  23349180.520   122700771.758          50.000                                                  
G20  20526035.340   107865042.547          50.000                                                  
G21  23024910.380   120996734.586          50.000                                                  
G26  22689023.320   119231530.629          50.000    22689025.020    89036523.121          50.000  
G29  21672938.800   113892047.207          50.000                                                  
E 3  27048306.920   142139777.000          50.000    27048312.100   106143325.770          50.000  
E 7  25549736.180   134264728.465          50.000    25549742.160   100262606.707          50.000  
E 8  22436999.940   117907232.668          50.000    22437002.660    88047601.793          50.000  
E13  23564619.660   123832895.871          50.000    23564623.160    92472606.746          50.000  
E15  26074705.360   137023452.492          50.000    26074711.500   102322690.965          50.000  
E21  26986191.960   141813336.473          50.000    26986198.140   105899548.090          50.000  
E26  24416763.860   128310919.793          50.000    24416769.220    95816581.402          50.000  
> 2020  7 17 22 18 27.0000000  0 15       0.000000000000
G10  22811918.460   119877379.930          50.000    22811919.340    89518818.832          50.000  
G13  23443199.340   123194886.406          50.000                                                  
G15  21676578.340   113911000.473          50.000                                                  
G16  23348995.460   122699799.242          50.000                                                  
G20  20525788.080   107863743.266          50.000                                                  
G21  23024579.600   120994996.258          50.000                                                  
G26  22689256.600   119232756.484          50.000    22689258.280    89037438.531          50.000  
G29  21673409.740   113894521.977          50.000                                                  
E 3  27048685.020   142141764.023          50.000    27048690.220   106144809.586          50.000  
E 7  25549220.500   134262018.535          50.000    25549226.480   100260583.059          50.000  
E 8  22436913.180   117906776.746          50.000    22436915.900    88047261.332          50.000  
E13  23564632.880   123832965.281          50.000    23564636.360    92472658.578          50.000  
E15  26075024.940   137025131.895          50.000    26075031.080   102323945.066          50.000  
E21  26986665.740   141815826.168          50.000    26986671.920   105901407.273          50.000  
E26  24416444.100   128309239.410          50.000    24416449.440    95815326.570          50.000  
> 2020  7 17 22 18 28.0000000  0 15       0.000000000000
G10  22811389.600   119874600.789          50.000    22811390.480    89516743.500          50.000  
G13  23443346.260   123195658.430          50.000                                                  
G15  21676525.820   113910724.438          50.000                                                  
G16  23348810.520   122698827.348          50.000                                                  
G20  20525540.920   107862444.430          50.000                                                  
G21  23024248.820   120993257.988          50.000                                                  
G26  22689489.960   119233982.848          50.000    22689491.660    89038354.324          50.000  
G29  21673880.740   113896997.172          50.000                                                  
E 3  27049063.200   142143751.367          50.000    27049068.400   106146293.641          50.000  
E 7  25548704.860   134259308.801          50.000    25548710.820   100258559.555          50.000  
E 8  22436826.500   117906321.301          50.000    22436829.220    88046921.227          50.000  
E13  23564646.100   123833034.813          50.000    23564649.600    92472710.504          50.000  
E15  26075344.540   137026811.379          50.000    26075350.680   102325199.227          50.000  
E21  26987139.540   141818315.992          50.000    26987145.700   105903266.559          50.000  
E26  24416124.340   128307559.055          50.000    24416129.680    95814071.762          50.000  
> 2020  7 17 22 18 29.0000000  0 15       0.000000000000
G10  22810860.820   119871821.953          50.000    22810861.680    89514668.395          50.000  
G13  23443493.280   123196431.094          50.000                                                  
G15  21676473.420   113910449.090          50.000                                                  
G16  23348625.680   122697856.086          50.000                                                  
G20  20525293.860   107861146.055          50.000                                                  
G21  23023918.040   120991519.805          50.000                                                  
G26  22689723.420   119235209.719          50.000    22689725.120    89039270.492          50.000  
G29  21674351.840   113899472.793          50.000                                                  
E 3  27049441.460   142145739.047          50.000    27049446.640   106147777.945          50.000  
E 7  25548189.260   134256599.273          50.000    25548195.220   100256536.207          50.000  
E 8  22436739.920   117905866.328          50.000    22436742.640    88046581.473          50.000  
E13  23564659.360   123833104.508          50.000    23564662.860    92472762.547          50.000  
E15  26075664.160   137028490.973          50.000    26075670.300   102326453.469          50.000  
E21  26987613.360   141820805.965          50.000    26987619.540   105905125.949          50.000  
E26  24415804.580   128305878.727          50.000    24415809.920    95812816.973          50.000  
> 2020  7 17 22 18 30.0000000  0 15       0.000000000000
G10  22810332.080   119869043.426          50.000    22810332.960    89512593.523          50.000  
G13  23443640.440   123197204.387          50.000                                                  
G15  21676421.160   113910174.438          50.000                                                  
G16  23348440.980   122696885.453          50.000                                                  
G20  20525046.860   107859848.125          50.000                                                  
G21  23023587.280   120989781.668          50.000                                                  
G26  22689957.000   119236437.117          50.000    22689958.680    89040187.055          50.000  
G29  21674823.020   113901948.844          50.000                                                  
E 3  27049819.760   142147727.051          50.000    27049824.960   106149262.492          50.000  
E 7  25547673.680   134253889.941          50.000    25547679.640   100254513.008          50.000  
E 8  22436653.440   117905411.824          50.000    22436656.160    88046242.074          50.000  
E13  23564672.660   123833174.328          50.000    23564676.140    92472814.684          50.000  
E15  26075983.800   137030170.688          50.000    26075989.940   102327707.801          50.000  
E21  26988087.220   141823296.051          50.000    26988093.380   105906985.430          50.000  
E26  24415484.820   128304198.418          50.000    24415490.180    95811562.199          50.000  
> 2020  7 17 22 18 31.0000000  0 15       0.000000000000
G10  22809803.400   119866265.203          50.000    22809804.280    89510518.879          50.000  
G13  23443787.700   123197978.305          50.000                                                  
G15  21676369.020   113909900.465          50.000                                                  
G16  23348256.400   122695915.445          50.000                                                  
G20  20524799.960   107858550.648          50.000                                                  
G21  23023256.540   120988043.598          50.000                                                  
G26  22690190.660   119237665.020          50.000    22690192.360    89041103.992          50.000  
G29  21675294.280   113904425.328          50.000                                                  
E 3  27050198.120   142149715.383          50.000    27050203.320   106150747.285          50.000  
E 7  25547158.160   134251180.824          50.000    25547164.120   100252489.965          50.000  
E 8  22436567.040   117904957.793          50.000    22436569.760    88045903.023          50.000  
E13  23564685.960   123833244.293          50.000    23564689.460    92472866.930          50.000  
E15  26076303.460   137031850.523          50.000    26076309.600   102328962.223          50.000  
E21  26988561.080   141825786.273          50.000    26988567.260   105908845.012          50.000  
E26  24415165.080   128302518.145          50.000    24415170.420    95810307.449          50.000  
> 2020  7 17 22 18 32.0000000  0 15       0.000000000000
G10  22809274.780   119863487.293          50.000    22809275.660    89508444.469          50.000  
G13  23443935.100   123198752.863          50.000                                                  
G15  21676317.020   113909627.184          50.000                                                  
G16  23348071.920   122694946.055          50.000                                                  
G20  20524553.160   107857253.625          50.000                                                  
G21  23022925.820   120986305.594          50.000                                                  
G26  22690424.420   119238893.434          50.000    22690426.120    89042021.316          50.000  
G29  21675765.620   113906902.223          50.000                                                  
E 3  27050576.560   142151704.035          50.000    27050581.740   106152232.316          50.000  
E 7  25546642.660   134248471.930          50.000    25546648.640   100250467.094          50.000  
E 8  22436480.720   117904504.227          50.000    22436483.440    88045564.320          50.000  
E13  23564699.300   123833314.395          50.000    23564702.800    92472919.281          50.000  
E15  26076623.140   137033530.457          50.000    26076629.280   102330216.715          50.000  
E21  26989034.980   141828276.621          50.000    26989041.160   105910704.684          50.000  
E26  24414845.340   128300837.891          50.000    24414850.680    95809052.711          50.000  
> 2020  7 17 22 18 33.0000000  0 15       0.000000000000
G10  22808746.220   119860709.695          50.000    22808747.100    89506370.289          50.000  
G13  23444082.620   123199528.051          50.000                                                  
G15  21676265.140   113909354.594          50.000                                                  
G16  23347887.580   122693977.301          50.000                                                  
G20  20524306.420   107855957.039          50.000                                                  
G21  23022595.100   120984567.660          50.000                                                  
G26  22690658.280   119240122.371          50.000    22690659.980    89042939.027          50.000  
G29  21676237.040   113909379.551          50.000                                                  
E 3  27050955.040   142153693.016          50.000    27050960.240   106153717.594          50.000  
E 7  25546127.220   134245763.180          50.000    25546133.180   100248444.324          50.000  
E 8  22436394.500   117904051.133          50.000    22436397.220    88045225.973          50.000  
E13  23564712.680   123833384.629          50.000    23564716.160    92472971.727          50.000  
E15  26076942.840   137035210.488          50.000    26076948.980   102331471.281          50.000  
E21  26989508.900   141830767.105          50.000    26989515.080   105912564.461          50.000  
E26  24414525.600   128299157.652          50.000    24414530.940    95807797.988          50.000  
> 2020  7 17 22 18 34.0000000  0 15       0.000000000000
G10  22808217.720   119857932.402          50.000    22808218.580    89504296.336          50.000  
G13  23444230.260   123200303.879          50.000                                                  
G15  21676213.400   113909082.684          50.000                                                  
G16  23347703.340   122693009.176          50.000                                                  
G20  20524059.780   107854660.910          50.000                                                  
G21  23022264.380   120982829.781          50.000                                                  
G26  22690892.240   119241351.816          50.000    22690893.920    89043857.121          50.000  
G29  21676708.540   113911857.305          50.000                                                  
E 3  27051333.600   142155682.336          50.000    27051338.800   106155203.125          50.000  
E 7  25545611.800   134243054.676          50.000    25545617.760   100246421.742          50.000  
E 8  22436308.380   117903598.520          50.000    22436311.100    88044887.984          50.000  
E13  23564726.060   123833455.000          50.000    23564729.540    92473024.277          50.000  
E15  26077262.560   137036890.656          50.000    26077268.700   102332725.953          50.000  
E21  26989982.860   141833257.715          50.000    26989989.040   105914424.328          50.000  
E26  24414205.860   128297477.449          50.000    24414211.220    95806543.293          50.000  
> 2020  7 17 22 18 35.0000000  0 15       0.000000000000
G10  22807689.280   119855155.430          50.000    22807690.140    89502222.625          50.000  
G13  23444378.000   123201080.328          50.000                                                  
G15  21676161.800   113908811.469          50.000                                                  
G16  23347519.240   122692041.672          50.000                                                  
G20  20523813.220   107853365.223          50.000                                                  
G21  23021933.700   120981091.977          50.000                                                  
G26  22691126.280   119242581.781          50.000    22691127.980    89044775.598          50.000  
G29  21677180.120   113914335.492          50.000                                                  
E 3  27051712.220   142157671.969          50.000    27051717.420   106156688.887          50.000  
E 7  25545096.420   134240346.367          50.000    25545102.380   100244399.305          50.000  
E 8  22436222.340   117903146.355          50.000    22436225.040    88044550.328          50.000  
E13  23564739.480   123833525.516          50.000    23564742.960    92473076.938          50.000  
E15  26077582.300   137038570.934          50.000    26077588.460   102333980.707          50.000  
E21  26990456.820   141835748.453          50.000    26990463.000   105916284.297          50.000  
E26  24413886.140   128295797.273          50.000    24413891.480    95805288.617          50.000  
> 2020  7 17 22 18 36.0000000  0 15       0.000000000000
G10  22807160.880   119852378.750          50.000    22807161.760    89500149.133          50.000  
G13  23444525.880   123201857.418          50.000                                                  
G15  21676110.320   113908540.953          50.000                                                  
G16  23347335.260   122691074.809          50.000                                                  
G20  20523566.740   107852069.992          50.000                                                  
G21  23021603.000   120979354.230          50.000                                                  
G26  22691360.440   119243812.262          50.000    22691362.140    89045694.465          50.000  
G29  21677651.780   113916814.102          50.000                                                  
E 3  27052090.900   142159661.938          50.000    27052096.100   106158174.902          50.000  
E 7  25544581.080   134237638.258          50.000    25544587.040   100242377.016          50.000  
E 8  22436136.380   117902694.688          50.000    22436139.100    88044213.043          50.000  
E13  23564752.920   123833596.168          50.000    23564756.420    92473129.695          50.000  
E15  26077902.080   137040251.313          50.000    26077908.220   102335235.535          50.000  
E21  26990930.820   141838239.316          50.000    26990937.000   105918144.355          50.000  
E26  24413566.420   128294117.121          50.000    24413571.760    95804033.961          50.000  
> 2020  7 17 22 18 37.0000000  0 15       0.000000000000
G10  22806632.560   119849602.383          50.000    22806633.440    89498075.871          50.000  
G13  23444673.880   123202635.141          50.000                                                  
G15  21676058.960   113908271.109          50.000                                                  
G16  23347151.380   122690108.563          50.000                                                  
G20  20523320.340   107850775.203          50.000                                                  
G21  23021272.340   120977616.555          50.000                                                  
G26  22691594.700   119245043.258          50.000    22691596.380    89046613.715          50.000  
G29  21678123.540   113919293.133          50.000                                                  
E 3  27052469.640   142161652.230          50.000    27052474.840   106159661.160          50.000  
E 7  25544065.800   134234930.359          50.000    25544071.760   100240354.887          50.000  
E 8  22436050.520   117902243.473          50.000    22436053.240    88043876.098          50.000  
E13  23564766.400   123833666.969          50.000    23564769.880    92473182.566          50.000  
E15  26078221.860   137041931.809          50.000    26078228.020   102336490.449          50.000  
E21  26991404.840   141840730.320          50.000    26991411.020   105920004.520          50.000  
E26  24413246.700   128292437.000          50.000    24413252.040    95802779.324          50.000  
> 2020  7 17 22 18 38.0000000  0 15       0.000000000000
G10  22806104.300   119846826.324          50.000    22806105.160    89496002.844          50.000  
G13  23444822.000   123203413.496          50.000                                                  
G15  21676007.740   113908001.973          50.000                                                  
G16  23346967.620   122689142.953          50.000                                                  
G20  20523074.040   107849480.875          50.000                                                  
G21  23020941.680   120975878.953          50.000                                                  
G26  22691829.040   119246274.766          50.000    22691830.740    89047533.348          50.000  
G29  21678595.360   113921772.594          50.000                                                  
E 3  27052848.440   142163642.844          50.000    27052853.640   106161147.656          50.000  
E 7  25543550.540   134232222.656          50.000    25543556.500   100238332.902          50.000  
E 8  22435964.740   117901792.738          50.000    22435967.460    88043539.512          50.000  
E13  23564779.900   123833737.898          50.000    23564783.380    92473235.535          50.000  
E15  26078541.680   137043612.402          50.000    26078547.820   102337745.438          50.000  
E21  26991878.900   141843221.453          50.000    26991885.080   105921864.781          50.000  
E26  24412926.980   128290756.891          50.000    24412932.340    95801524.699          50.000  
> 2020  7 17 22 18 39.0000000  0 15       0.000000000000
G10  22805576.080   119844050.578          50.000    22805576.960    89493930.047          50.000  
G13  23444970.220   123204192.484          50.000                                                  
G15  21675956.660   113907733.512          50.000                                                  
G16  23346784.000   122688177.973          50.000                                                  
G20  20522827.820   107848186.992          50.000                                                  
G21  23020611.040   120974141.406          50.000                                                  
G26  22692063.480   119247506.793          50.000    22692065.180    89048453.363          50.000  
G29  21679067.260   113924252.484          50.000                                                  
E 3  27053227.300   142165633.785          50.000    27053232.500   106162634.398          50.000  
E 7  25543035.320   134229515.160          50.000    25543041.280   100236311.070          50.000  
E 8  22435879.060   117901342.461          50.000    22435881.780    88043203.266          50.000  
E13  23564793.420   123833808.973          50.000    23564796.900    92473288.609          50.000  
E15  26078861.500   137045293.109          50.000    26078867.640   102339000.508          50.000  
E21  26992352.960   141845712.707          50.000    26992359.140   105923725.129          50.000  
E26  24412607.280   128289076.824          50.000    24412612.620    95800270.102          50.000  
> 2020  7 17 22 18 40.0000000  0 15       0.000000000000
G10  22805047.940   119841275.145          50.000    22805048.820    89491857.484          50.000  
G13  23445118.580   123204972.098          50.000                                                  
G15  21675905.700   113907465.742          50.000                                                  
G16  23346600.480   122687213.621          50.000                                                  
G20  20522581.700   107846893.566          50.000                                                  
G21  23020280.400   120972403.914          50.000                                                  
G26  22692298.040   119248739.336          50.000    22692299.720    89049373.770          50.000  
G29  21679539.260   113926732.793          50.000                                                  
E 3  27053606.220   142167625.055          50.000    27053611.420   106164121.383          50.000  
E 7  25542520.140   134226807.867          50.000    25542526.100   100234289.391          50.000  
E 8  22435793.460   117900892.664          50.000    22435796.180    88042867.379          50.000  
E13  23564806.980   123833880.180          50.000    23564810.460    92473341.781          50.000  
E15  26079181.360   137046973.938          50.000    26079187.500   102340255.672          50.000  
E21  26992827.060   141848204.105          50.000    26992833.240   105925585.586          50.000  
E26  24412287.580   128287396.770          50.000    24412292.920    95799015.520          50.000  
> 2020  7 17 22 18 41.0000000  0 15       0.000000000000
G10  22804519.840   119838500.020          50.000    22804520.720    89489785.152          50.000  
G13  23445267.060   123205752.355          50.000                                                  
G15  21675854.880   113907198.664          50.000                                                  
G16  23346417.100   122686249.898          50.000                                                  
G20  20522335.640   107845600.590          50.000                                                  
G21  23019949.780   120970666.508          50.000                                                  
G26  22692532.680   119249972.387          50.000    22692534.380    89050294.555          50.000  
G29  21680011.320   113929213.527          50.000                                                  
E 3  27053985.220   142169616.645          50.000    27053990.420   106165608.609          50.000  
E 7  25542004.980   134224100.781          50.000    25542010.940   100232267.867          50.000  
E 8  22435707.960   117900443.352          50.000    22435710.680    88042531.852          50.000  
E13  23564820.540   123833951.523          50.000    23564824.040    92473395.059          50.000  
E15  26079501.220   137048654.867          50.000    26079507.360   102341510.910          50.000  
E21  26993301.180   141850695.621          50.000    26993307.360   105927446.133          50.000  
E26  24411967.880   128285716.746          50.000    24411973.220    95797760.953          50.000  
> 2020  7 17 22 18 42.0000000  0 15       0.000000000000
G10  22803991.820   119835725.184          50.000    22803992.700    89487713.027          50.000  
G13  23445415.660   123206533.227          50.000                                                  
G15  21675804.200   113906932.273          50.000                                                  
G16  23346233.840   122685286.770          50.000                                                  
G20  20522089.680   107844308.043          50.000                                                  
G21  23019619.180   120968929.156          50.000                                                  
G26  22692767.420   119251205.969          50.000    22692769.100    89051215.746          50.000  
G29  21680483.480   113931694.691          50.000                                                  
E 3  27054364.260   142171608.582          50.000    27054369.460   106167096.109          50.000  
E 7  25541489.880   134221393.902          50.000    25541495.840   100230246.512          50.000  
E 8  22435622.560   117899994.488          50.000    22435625.260    88042196.660          50.000  
E13  23564834.160   123834023.000          50.000    23564837.640    92473448.430          50.000  
E15  26079821.120   137050335.918          50.000    26079827.260   102342766.246          50.000  
E21  26993775.340   141853187.258          50.000    26993781.520   105929306.766          50.000  
E26  24411648.180   128284036.754          50.000    24411653.520    95796506.422          50.000  
> 2020  7 17 22 18 43.0000000  0 15       0.000000000000
G10  22803463.860   119832950.688          50.000    22803464.720    89485641.164          50.000  
G13  23445564.380   123207314.758          50.000                                                  
G15  21675753.620   113906666.570          50.000                                                  
G16  23346050.680   122684324.309          50.000                                                  
G20  20521843.820   107843015.969          50.000                                                  
G21  23019288.580   120967191.883          50.000                                                  
G26  22693002.260   119252440.051          50.000    22693003.940    89052137.297          50.000  
G29  21680955.700   113934176.273          50.000                                                  
E 3  27054743.380   142173600.844          50.000    27054748.580   106168583.832          50.000  
E 7  25540974.820   134218687.227          50.000    25540980.780   100228225.289          50.000  
E 8  22435537.220   117899546.105          50.000    22435539.940    88041861.828          50.000  
E13  23564847.780   123834094.633          50.000    23564851.280    92473501.926          50.000  
E15  26080141.020   137052017.086          50.000    26080147.180   102344021.660          50.000  
E21  26994249.500   141855679.031          50.000    26994255.680   105931167.504          50.000  
E26  24411328.500   128282356.785          50.000    24411333.840    95795251.898          50.000  
> 2020  7 17 22 18 44.0000000  0 15       0.000000000000
G10  22802935.940   119830176.484          50.000    22802936.800    89483569.520          50.000  
G13  23445713.220   123208096.906          50.000                                                  
G15  21675703.200   113906401.555          50.000                                                  
G16  23345867.640   122683362.477          50.000                                                  
G20  20521598.020   107841724.336          50.000                                                  
G21  23018958.000   120965454.664          50.000                                                  
G26  22693237.180   119253674.645          50.000    22693238.880    89053059.234          50.000  
G29  21681428.020   113936658.289          50.000                                                  
E 3  27055122.540   142175593.410          50.000    27055127.740   106170071.789          50.000  
E 7  25540459.800   134215980.766          50.000    25540465.740   100226204.234          50.000  
E 8  22435452.000   117899098.195          50.000    22435454.720    88041527.352          50.000  
E13  23564861.440   123834166.391          50.000    23564864.920    92473555.512          50.000  
E15  26080460.960   137053698.355          50.000    26080467.120   102345277.152          50.000  
E21  26994723.700   141858170.938          50.000    26994729.880   105933028.340          50.000  
E26  24411008.800   128280676.836          50.000    24411014.160    95793997.395          50.000  
> 2020  7 17 22 18 45.0000000  0 15       0.000000000000
G10  22802408.080   119827402.590          50.000    22802408.960    89481498.105          50.000  
G13  23445862.180   123208879.699          50.000                                                  
G15  21675652.900   113906137.223          50.000                                                  
G16  23345684.740   122682401.270          50.000                                                  
G20  20521352.320   107840433.145          50.000                                                  
G21  23018627.420   120963717.484          50.000                                                  
G26  22693472.220   119254909.754          50.000    22693473.920    89053981.555          50.000  
G29  21681900.400   113939140.730          50.000                                                  
E 3  27055501.780   142177586.316          50.000    27055506.980   106171559.996          50.000  
E 7  25539944.800   134213274.480          50.000    25539950.760   100224183.305          50.000  
E 8  22435366.840   117898650.742          50.000    22435369.560    88041193.215          50.000  
E13  23564875.120   123834238.293          50.000    23564878.600    92473609.203          50.000  
E15  26080780.920   137055379.727          50.000    26080787.060   102346532.723          50.000  
E21  26995197.920   141860662.973          50.000    26995204.100   105934889.273          50.000  
E26  24410689.140   128278996.910          50.000    24410694.480    95792742.906          50.000  
> 2020  7 17 22 18 46.0000000  0 15       0.000000000000
G10  22801880.280   119824629.000          50.000    22801881.160    89479426.918          50.000  
G13  23446011.260   123209663.117          50.000                                                  
G15  21675602.720   113905873.586          50.000                                                  
G16  23345501.940   122681440.691          50.000                                                  
G20  20521106.700   107839142.406          50.000                                                  
G21  23018296.860   120961980.398          50.000                                                  
G26  22693707.360   119256145.379          50.000    22693709.040    89054904.262          50.000  
G29  21682372.880   113941623.594          50.000                                                  
E 3  27055881.080   142179579.543          50.000    27055886.280   106173048.445          50.000  
E 7  25539429.860   134210568.398          50.000    25539435.800   100222162.535          50.000  
E 8  22435281.780   117898203.758          50.000    22435284.500    88040859.426          50.000  
E13  23564888.840   123834310.336          50.000    23564892.320    92473663.000          50.000  
E15  26081100.900   137057061.219          50.000    26081107.040   102347788.383          50.000  
E21  26995672.160   141863155.137          50.000    26995678.340   105936750.305          50.000  
E26  24410369.460   128277317.016          50.000    24410374.800    95791488.438          50.000  
> 2020  7 17 22 18 47.0000000  0 15       0.000000000000
G10  22801352.540   119821855.746          50.000    22801353.420    89477355.984          50.000  
G13  23446160.460   123210447.184          50.000                                                  
G15  21675552.700   113905610.645          50.000                                                  
G16  23345319.280   122680480.742          50.000                                                  
G20  20520861.160   107837852.117          50.000                                                  
G21  23017966.320   120960243.371          50.000                                                  
G26  22693942.580   119257381.512          50.000    22693944.280    89055827.348          50.000  
G29  21682845.440   113944106.891          50.000                                                  
E 3  27056260.440   142181573.086          50.000    27056265.640   106174537.129          50.000  
E 7  25538914.940   134207862.531          50.000    25538920.900   100220141.918          50.000  
E 8  22435196.820   117897757.266          50.000    22435199.540    88040526.012          50.000  
E13  23564902.560   123834382.516          50.000    23564906.060    92473716.902          50.000  
E15  26081420.900   137058742.820          50.000    26081427.040   102349044.121          50.000  
E21  26996146.420   141865647.422          50.000    26996152.600   105938611.426          50.000  
E26  24410049.780   128275637.129          50.000    24410055.120    95790233.977          50.000  
> 2020  7 17 22 18 48.0000000  0 15       0.000000000000
G10  22800824.860   119819082.770          50.000    22800825.740    89475285.258          50.000  
G13  23446309.780   123211231.867          50.000                                                  
G15  21675502.780   113905348.387          50.000                                                  
G16  23345136.720   122679521.422          50.000                                                  
G20  20520615.720   107836562.270          50.000                                                  
G21  23017635.780   120958506.406          50.000                                                  
G26  22694177.900   119258618.164          50.000    22694179.600    89056750.820          50.000  
G29  21683318.080   113946590.598          50.000                                                  
E 3  27056639.860   142183566.973          50.000    27056645.060   106176026.070          50.000  
E 7  25538400.060   134205156.871          50.000    25538406.020   100218121.461          50.000  
E 8  22435111.940   117897311.234          50.000    22435114.660    88040192.934          50.000  
E13  23564916.320   123834454.840          50.000    23564919.820    92473770.906          50.000  
E15  26081740.920   137060424.531          50.000    26081747.060   102350299.945          50.000  
E21  26996620.720   141868139.859          50.000    26996626.900   105940472.660          50.000  
E26  24409730.120   128273957.301          50.000    24409735.460    95788979.559          50.000  
> 2020  7 17 22 18 49.0000000  0 15       0.000000000000
G10  22800297.260   119816310.133          50.000    22800298.120    89473214.781          50.000  
G13  23446459.220   123212017.195          50.000                                                  
G15  21675453.000   113905086.805          50.000                                                  
G16  23344954.280   122678562.734          50.000                                                  
G20  20520370.360   107835272.875          50.000                                                  
G21  23017305.280   120956769.523          50.000                                                  
G26  22694413.340   119259855.324          50.000    22694415.020    89057674.672          50.000  
G29  21683790.780   113949074.746          50.000                                                  
E 3  27057019.360   142185561.176          50.000    27057024.560   106177515.246          50.000  
E 7  25537885.240   134202451.406          50.000    25537891.200   100216101.145          50.000  
E 8  22435027.160   117896865.668          50.000    22435029.880    88039860.207          50.000  
E13  23564930.120   123834527.285          50.000    23564933.600    92473825.008          50.000  
E15  26082060.960   137062106.355          50.000    26082067.100   102351555.852          50.000  
E21  26997095.040   141870632.398          50.000    26997101.220   105942333.973          50.000  
E26  24409410.460   128272277.480          50.000    24409415.800    95787725.148          50.000  
> 2020  7 17 22 18 50.0000000  0 15       0.000000000000
G10  22799769.700   119813537.801          50.000    22799770.560    89471144.535          50.000  
G13  23446608.780   123212803.152          50.000                                                  
G15  21675403.360   113904825.934          50.000                                                  
G16  23344771.980   122677604.672          50.000                                                  
G20  20520125.080   107833983.934          50.000                                                  
G21  23016974.760   120955032.695          50.000                                                  
G26  22694648.860   119261092.988          50.000    22694650.540    89058598.906          50.000  
G29  21684263.580   113951559.316          50.000                                                  
E 3  27057398.900   142187555.699          50.000    27057404.100   106179004.664          50.000  
E 7  25537370.440   134199746.148          50.000    25537376.400   100214080.988          50.000  
E 8  22434942.460   117896420.578          50.000    22434945.180    88039527.836          50.000  
E13  23564943.940   123834599.883          50.000    23564947.420    92473879.223          50.000  
E15  26082381.020   137063788.297          50.000    26082387.160   102352811.844          50.000  
E21  26997569.380   141873125.086          50.000    26997575.560   105944195.395          50.000  
E26  24409090.800   128270597.680          50.000    24409096.160    95786470.754          50.000  
> 2020  7 17 22 18 51.0000000  0 15       0.000000000000
G10  22799242.200   119810765.762          50.000    22799243.060    89469074.508          50.000  
G13  23446758.480   123213589.738          50.000                                                  
G15  21675353.860   113904565.754          50.000                                                  
G16  23344589.780   122676647.234          50.000                                                  
G20  20519879.880   107832695.434          50.000                                                  
G21  23016644.260   120953295.934          50.000                                                  
G26  22694884.480   119262331.188          50.000    22694886.180    89059523.531          50.000  
G29  21684736.460   113954044.301          50.000                                                  
E 3  27057778.500   142189550.551          50.000    27057783.700   106180494.324          50.000  
E 7  25536855.680   134197041.094          50.000    25536861.640   100212060.980          50.000  
E 8  22434857.860   117895975.957          50.000    22434860.560    88039195.813          50.000  
E13  23564957.780   123834672.617          50.000    23564961.260    92473933.535          50.000  
E15  26082701.100   137065470.344          50.000    26082707.260   102354067.918          50.000  
E21  26998043.740   141875617.895          50.000    26998049.920   105946056.902          50.000  
E26  24408771.160   128268917.910          50.000    24408776.500    95785216.379          50.000  
> 2020  7 17 22 18 52.0000000  0 15       0.000000000000
G10  22798714.740   119807994.043          50.000    22798715.620    89467004.719          50.000  
G13  23446908.280   123214376.969          50.000                                                  
G15  21675304.480   113904306.285          50.000                                                  
G16  23344407.700   122675690.430          50.000                                                  
G20  20519634.780   107831407.391          50.000                                                  
G21  23016313.780   120951559.246          50.000                                                  
G26  22695120.200   119263569.898          50.000    22695121.900    89060448.543          50.000  
G29  21685209.420   113956529.730          50.000                                                  
E 3  27058158.180   142191545.734          50.000    27058163.380   106181984.230          50.000  
E 7  25536340.980   134194336.258          50.000    25536346.920   100210041.137          50.000  
E 8  22434773.340   117895531.813          50.000    22434776.040    88038864.148          50.000  
E13  23564971.640   123834745.500          50.000    23564975.120    92473987.961          50.000  
E15  26083021.200   137067152.508          50.000    26083027.360   102355324.078          50.000  
E21  26998518.140   141878110.836          50.000    26998524.320   105947918.516          50.000  
E26  24408451.520   128267238.164          50.000    24408456.860    95783962.027          50.000  
> 2020  7 17 22 18 53.0000000  0 15       0.000000000000
G10  22798187.360   119805222.637          50.000    22798188.240    89464935.164          50.000  
G13  23447058.200   123215164.836          50.000                                                  
G15  21675255.240   113904047.488          50.000                                                  
G16  23344225.760   122674734.262          50.000                                                  
G20  20519389.760   107830119.797          50.000                                                  
G21  23015983.320   120949822.625          50.000                                                  
G26  22695356.020   119264809.113          50.000    22695357.700    89061373.930          50.000  
G29  21685682.460   113959015.574          50.000                                                  
E 3  27058537.920   142193541.238          50.000    27058543.100   106183474.379          50.000  
E 7  25535826.300   134191631.613          50.000    25535832.240   100208021.434          50.000  
E 8  22434688.900   117895088.125          50.000    22434691.620    88038532.820          50.000  
E13  23564985.540   123834818.504          50.000    23564989.020    92474042.477          50.000  
E15  26083341.340   137068834.770          50.000    26083347.480   102356580.313          50.000  
E21  26998992.560   141880603.906          50.000    26998998.740   105949780.223          50.000  
E26  24408131.880   128265558.449          50.000    24408137.220    95782707.691          50.000  
> 2020  7 17 22 18 54.0000000  0 15       0.000000000000
G10  22797660.040   119802451.512          50.000    22797660.900    89462865.820          50.000  
G13  23447208.240   123215953.320          50.000                                                  
G15  21675206.120   113903789.379          50.000                                                  
G16  23344043.920   122673778.711          50.000                                                  
G20  20519144.820   107828832.652          50.000                                                  
G21  23015652.860   120948086.066          50.000                                                  
G26  22695591.920   119266048.836          50.000    22695593.620    89062299.695          50.000  
G29  21686155.580   113961501.824          50.000                                                  
E 3  27058917.700   142195537.074          50.000    27058922.900   106184964.777          50.000  
E 7  25535311.660   134188927.172          50.000    25535317.620   100206001.887          50.000  
E 8  22434604.560   117894644.926          50.000    22434607.280    88038201.863          50.000  
E13  23564999.460   123834891.660          50.000    23565002.940    92474097.105          50.000  
E15  26083661.480   137070517.145          50.000    26083667.620   102357836.633          50.000  
E21  26999467.000   141883097.094          50.000    26999473.180   105951642.016          50.000  
E26  24407812.240   128263878.754          50.000    24407817.580    95781453.375          50.000  
> 2020  7 17 22 18 55.0000000  0 15       0.000000000000
G10  22797132.780   119799680.738          50.000    22797133.640    89460796.738          50.000  
G13  23447358.400   123216742.438          50.000                                                  
G15  21675157.140   113903531.957          50.000                                                  
G16  23343862.200   122672823.789          50.000                                                  
G20  20518899.960   107827545.957          50.000                                                  
G21  23015322.420   120946349.570          50.000                                                  
G26  22695827.940   119267289.074          50.000    22695829.620    89063225.848          50.000  
G29  21686628.780   113963988.523          50.000                                                  
E 3  27059297.560   142197533.223          50.000    27059302.760   106186455.406          50.000  
E 7  25534797.060   134186222.934          50.000    25534803.000   100203982.488          50.000  
E 8  22434520.320   117894202.180          50.000    22434523.020    88037871.238          50.000  
E13  23565013.400   123834964.941          50.000    23565016.880    92474151.828          50.000  
E15  26083981.640   137072199.629          50.000    26083987.800   102359093.031          50.000  
E21  26999941.460   141885590.422          50.000    26999947.640   105953503.918          50.000  
E26  24407492.600   128262199.082          50.000    24407497.940    95780199.078          50.000  
> 2020  7 17 22 18 56.0000000  0 15       0.000000000000
G10  22796605.580   119796910.250          50.000    22796606.440    89458727.867          50.000  
G13  23447508.700   123217532.191          50.000                                                  
G15  21675108.280   113903275.230          50.000                                                  
G16  23343680.600   122671869.500          50.000                                                  
G20  20518655.200   107826259.707          50.000                                                  
G21  23014991.980   120944613.141          50.000                                                  
G26  22696064.040   119268529.836          50.000    22696065.740    89064152.391          50.000  
G29  21687102.080   113966475.637          50.000                                                  
E 3  27059677.480   142199529.691          50.000    27059682.680   106187946.273          50.000  
E 7  25534282.500   134183518.934          50.000    25534288.460   100201963.266          50.000  
E 8  22434436.140   117893759.910          50.000    22434438.860    88037540.977          50.000  
E13  23565027.380   123835038.371          50.000    23565030.860    92474206.664          50.000  
E15  26084301.840   137073882.215          50.000    26084307.980   102360349.508          50.000  
E21  27000415.940   141888083.863          50.000    27000422.120   105955365.902          50.000  
E26  24407172.980   128260519.441          50.000    24407178.320    95778944.801          50.000  
> 2020  7 17 22 18 57.0000000  0 15       0.000000000000
G10  22796078.420   119794140.098          50.000    22796079.300    89456659.250          50.000  
G13  23447659.100   123218322.578          50.000                                                  
G15  21675059.560   113903019.188          50.000                                                  
G16  23343499.120   122670915.836          50.000                                                  
G20  20518410.520   107824973.918          50.000                                                  
G21  23014661.560   120942876.773          50.000                                                  
G26  22696300.240   119269771.105          50.000    22696301.940    89065079.313          50.000  
G29  21687575.440   113968963.184          50.000                                                  
E 3  27060057.460   142201526.504          50.000    27060062.660   106189437.402          50.000  
E 7  25533767.980   134180815.090          50.000    25533773.920   100199944.164          50.000  
E 8  22434352.080   117893318.129          50.000    22434354.800    88037211.070          50.000  
E13  23565041.380   123835111.945          50.000    23565044.860    92474261.602          50.000  
E15  26084622.040   137075564.953          50.000    26084628.200   102361606.094          50.000  
E21  27000890.460   141890577.438          50.000    27000896.640   105957227.984          50.000  
E26  24406853.360   128258839.816          50.000    24406858.700    95777690.535          50.000  
> 2020  7 17 22 18 58.0000000  0 15       0.000000000000
G10  22795551.340   119791370.230          50.000    22795552.200    89454590.844          50.000  
G13  23447809.620   123219113.602          50.000                                                  
G15  21675010.960   113902763.840          50.000                                                  
G16  23343317.780   122669962.813          50.000                                                  
G20  20518165.920   107823688.574          50.000                                                  
G21  23014331.160   120941140.461          50.000                                                  
G26  22696536.560   119271012.887          50.000    22696538.240    89066006.613          50.000  
G29  21688048.880   113971451.152          50.000                                                  
E 3  27060437.500   142203523.641          50.000    27060442.700   106190928.766          50.000  
E 7  25533253.500   134178111.465          50.000    25533259.440   100197925.227          50.000  
E 8  22434268.100   117892876.805          50.000    22434270.820    88036881.512          50.000  
E13  23565055.400   123835185.641          50.000    23565058.880    92474316.637          50.000  
E15  26084942.280   137077247.766          50.000    26084948.420   102362862.742          50.000  
E21  27001365.000   141893071.148          50.000    27001371.180   105959090.168          50.000  
E26  24406533.740   128257160.230          50.000    24406539.080    95776436.301          50.000  
> 2020  7 17 22 18 59.0000000  0 15       0.000000000000
G10  22795024.300   119788600.676          50.000    22795025.180    89452522.672          50.000  
G13  23447960.280   123219905.254          50.000                                                  
G15  21674962.500   113902509.172          50.000                                                  
G16  23343136.540   122669010.422          50.000                                                  
G20  20517921.420   107822403.680          50.000                                                  
G21  23014000.760   120939404.234          50.000                                                  
G26  22696772.960   119272255.180          50.000    22696774.640    89066934.301          50.000  
G29  21688522.400   113973939.547          50.000                                                  
E 3  27060817.600   142205521.090          50.000    27060822.800   106192420.367          50.000  
E 7  25532739.060   134175408.059          50.000    25532745.000   100195906.453          50.000  
E 8  22434184.200   117892435.949          50.000    22434186.920    88036552.305          50.000  
E13  23565069.440   123835259.492          50.000    23565072.940    92474371.785          50.000  
E15  26085262.520   137078930.707          50.000    26085268.680   102364119.480          50.000  
E21  27001839.560   141895564.988          50.000    27001845.740   105960952.453          50.000  
E26  24406214.140   128255480.668          50.000    24406219.480    95775182.078          50.000  
> 2020  7 17 22 19  0.0000000  0 15       0.000000000000
G10  22794497.340   119785831.438          50.000    22794498.200    89450454.734          50.000  
G13  23448111.040   123220697.535          50.000                                                  
G15  21674914.160   113902255.195          50.000                                                  
G16  23342955.420   122668058.652          50.000                                                  
G20  20517677.000   107821119.234          50.000                                                  
G21  23013670.380   120937668.055          50.000                                                  
G26  22697009.460   119273497.992          50.000    22697011.140    89067862.375          50.000  
G29  21688996.020   113976428.367          50.000                                                  
E 3  27061197.780   142207518.875          50.000    27061202.980   106193912.219          50.000  
E 7  25532224.640   134172704.867          50.000    25532230.600   100193887.832          50.000  
E 8  22434100.400   117891995.559          50.000    22434103.120    88036223.441          50.000  
E13  23565083.520   123835333.477          50.000    23565087.020    92474427.035          50.000  
E15  26085582.800   137080613.746          50.000    26085588.960   102365376.297          50.000  
E21  27002314.140   141898058.957          50.000    27002320.340   105962814.832          50.000  
E26  24405894.520   128253801.129          50.000    24405899.860    95773927.879          50.000  
> 2020  7 17 22 19  1.0000000  0 15       0.000000000000
G10  22793970.420   119783062.488          50.000    22793971.300    89448387.016          50.000  
G13  23448261.920   123221490.457          50.000                                                  
G15  21674865.960   113902001.906          50.000                                                  
G16  23342774.420   122667107.504          50.000                                                  
G20  20517432.660   107819835.234          50.000                                                  
G21  23013340.000   120935931.945          50.000                                                  
G26  22697246.040   119274741.305          50.000    22697247.740    89068790.820          50.000  
G29  21689469.700   113978917.602          50.000                                                  
E 3  27061578.000   142209516.984          50.000    27061583.200   106195404.313          50.000  
E 7  25531710.280   134170001.848          50.000    25531716.240   100191869.348          50.000  
E 8  22434016.700   117891555.648          50.000    22434019.400    88035894.938          50.000  
E13  23565097.640   123835407.598          50.000    23565101.120    92474482.383          50.000  
E15  26085903.100   137082296.898          50.000    26085909.240   102366633.195          50.000  
E21  27002788.760   141900553.035          50.000    27002794.940   105964677.289          50.000  
E26  24405574.920   128252121.609          50.000    24405580.260    95772673.695          50.000  
> 2020  7 17 22 19  2.0000000  0 15       0.000000000000
G10  22793443.580   119780293.895          50.000    22793444.440    89446319.559          50.000  
G13  23448412.940   123222284.008          50.000                                                  
G15  21674817.900   113901749.309          50.000                                                  
G16  23342593.540   122666156.992          50.000                                                  
G20  20517188.420   107818551.684          50.000                                                  
G21  23013009.640   120934195.906          50.000                                                  
G26  22697482.740   119275985.141          50.000    22697484.440    89069719.660          50.000  
G29  21689943.480   113981407.277          50.000                                                  
E 3  27061958.280   142211515.410          50.000    27061963.480   106196896.645          50.000  
E 7  25531195.960   134167299.039          50.000    25531201.900   100189851.016          50.000  
E 8  22433933.060   117891116.211          50.000    22433935.780    88035566.785          50.000  
E13  23565111.760   123835481.859          50.000    23565115.260    92474537.836          50.000  
E15  26086223.420   137083980.168          50.000    26086229.560   102367890.180          50.000  
E21  27003263.400   141903047.258          50.000    27003269.580   105966539.859          50.000  
E26  24405255.320   128250442.121          50.000    24405260.660    95771419.531          50.000  
> 2020  7 17 22 19  3.0000000  0 15       0.000000000000
G10  22792916.780   119777525.570          50.000    22792917.640    89444252.305          50.000  
G13  23448564.060   123223078.180          50.000                                                  
G15  21674769.960   113901497.391          50.000                                                  
G16  23342412.800   122665207.117          50.000                                                  
G20  20516944.240   107817268.586          50.000                                                  
G21  23012679.300   120932459.930          50.000                                                  
G26  22697719.540   119277229.492          50.000    22697721.240    89070648.883          50.000  
G29  21690417.320   113983897.383          50.000                                                  
E 3  27062338.640   142213514.172          50.000    27062343.840   106198389.223          50.000  
E 7  25530681.660   134164596.457          50.000    25530687.620   100187832.855          50.000  
E 8  22433849.540   117890677.234          50.000    22433852.240    88035238.977          50.000  
E13  23565125.920   123835556.258          50.000    23565129.400    92474593.395          50.000  
E15  26086543.740   137085663.551          50.000    26086549.900   102369147.250          50.000  
E21  27003738.040   141905541.605          50.000    27003744.240   105968402.520          50.000  
E26  24404935.740   128248762.660          50.000    24404941.080    95770165.391          50.000  
> 2020  7 17 22 19  4.0000000  0 15       0.000000000000
G10  22792390.040   119774757.570          50.000    22792390.920    89442185.293          50.000  
G13  23448715.300   123223873.004          50.000                                                  
G15  21674722.160   113901246.180          50.000                                                  
G16  23342232.160   122664257.867          50.000                                                  
G20  20516700.160   107815985.941          50.000                                                  
G21  23012348.960   120930724.016          50.000                                                  
G26  22697956.420   119278474.344          50.000    22697958.120    89071578.477          50.000  
G29  21690891.260   113986387.914          50.000                                                  
E 3  27062719.060   142215513.250          50.000    27062724.260   106199882.043          50.000  
E 7  25530167.420   134161894.043          50.000    25530173.360   100185814.820          50.000  
E 8  22433766.100   117890238.742          50.000    22433768.800    88034911.531          50.000  
E13  23565140.100   123835630.801          50.000    23565143.600    92474649.059          50.000  
E15  26086864.100   137087347.039          50.000    26086870.260   102370404.398          50.000  
E21  27004212.740   141908036.078          50.000    27004218.920   105970265.273          50.000  
E26  24404616.160   128247083.223          50.000    24404621.500    95768911.262          50.000  
> 2020  7 17 22 19  5.0000000  0 15       0.000000000000
G10  22791863.380   119771989.898          50.000    22791864.240    89440118.527          50.000  
G13  23448866.680   123224668.465          50.000                                                  
G15  21674674.480   113900995.648          50.000                                                  
G16  23342051.640   122663309.246          50.000                                                  
G20  20516456.160   107814703.738          50.000                                                  
G21  23012018.640   120928988.164          50.000                                                  
G26  22698193.400   119279719.715          50.000    22698195.100    89072508.461          50.000  
G29  21691365.260   113988878.863          50.000                                                  
E 3  27063099.520   142217512.652          50.000    27063104.720   106201375.102          50.000  
E 7  25529653.200   134159191.863          50.000    25529659.160   100183796.961          50.000  
E 8  22433682.740   117889800.707          50.000    22433685.460    88034584.430          50.000  
E13  23565154.320   123835705.480          50.000    23565157.800    92474704.828          50.000  
E15  26087184.480   137089030.648          50.000    26087190.640   102371661.641          50.000  
E21  27004687.440   141910530.684          50.000    27004693.620   105972128.125          50.000  
E26  24404296.560   128245403.813          50.000    24404301.920    95767657.160          50.000  
> 2020  7 17 22 19  6.0000000  0 15       0.000000000000
G10  22791336.760   119769222.508          50.000    22791337.620    89438051.973          50.000  
G13  23449018.160   123225464.535          50.000                                                  
G15  21674626.940   113900745.805          50.000                                                  
G16  23341871.240   122662361.250          50.000                                                  
G20  20516212.260   107813421.992          50.000                                                  
G21  23011688.340   120927252.375          50.000                                                  
G26  22698430.500   119280965.594          50.000    22698432.180    89073438.824          50.000  
G29  21691839.360   113991370.230          50.000                                                  
E 3  27063480.060   142219512.391          50.000    27063485.260   106202868.410          50.000  
E 7  25529139.040   134156489.875          50.000    25529144.980   100181779.242          50.000  
E 8  22433599.480   117889363.145          50.000    22433602.180    88034257.680          50.000  
E13  23565168.560   123835780.297          50.000    23565172.040    92474760.699          50.000  
E15  26087504.880   137090714.359          50.000    26087511.040   102372918.957          50.000  
E21  27005162.180   141913025.406          50.000    27005168.360   105973991.070          50.000  
E26  24403977.000   128243724.422          50.000    24403982.340    95766403.070          50.000  
> 2020  7 17 22 19  7.0000000  0 15       0.000000000000
G10  22790810.200   119766455.441          50.000    22790811.060    89435985.656          50.000  
G13  23449169.780   123226261.254          50.000                                                  
G15  21674579.520   113900496.637          50.000                                                  
G16  23341690.960   122661413.895          50.000                                                  
G20  20515968.440   107812140.688          50.000                                                  
G21  23011358.040   120925516.656          50.000                                                  
G26  22698667.680   119282211.992          50.000    22698669.380    89074369.574          50.000  
G29  21692313.540   113993862.023          50.000                                                  
E 3  27063860.660   142221512.445          50.000    27063865.860   106204361.957          50.000  
E 7  25528624.900   134153788.113          50.000    25528630.860   100179761.691          50.000  
E 8  22433516.300   117888926.063          50.000    22433519.020    88033931.285          50.000  
E13  23565182.820   123835855.258          50.000    23565186.300    92474816.676          50.000  
E15  26087825.300   137092398.188          50.000    26087831.460   102374176.359          50.000  
E21  27005636.920   141915520.270          50.000    27005643.120   105975854.113          50.000  
E26  24403657.420   128242045.078          50.000    24403662.760    95765149.016          50.000  
> 2020  7 17 22 19  8.0000000  0 15       0.000000000000
G10  22790283.700   119763688.703          50.000    22790284.580    89433919.590          50.000  
G13  23449321.520   123227058.609          50.000                                                  
G15  21674532.240   113900248.176          50.000                                                  
G16  23341510.800   122660467.172          50.000                                                  
G20  20515724.700   107810859.844          50.000                                                  
G21  23011027.760   120923781.012          50.000                                                  
G26  22698904.960   119283458.895          50.000    22698906.660    89075300.703          50.000  
G29  21692787.800   113996354.258          50.000                                                  
E 3  27064241.320   142223512.824          50.000    27064246.520   106205855.746          50.000  
E 7  25528110.820   134151086.551          50.000    25528116.760   100177744.297          50.000  
E 8  22433433.220   117888489.449          50.000    22433435.920    88033605.246          50.000  
E13  23565197.120   123835930.363          50.000    23565200.600    92474872.762          50.000  
E15  26088145.760   137094082.121          50.000    26088151.900   102375433.844          50.000  
E21  27006111.700   141918015.250          50.000    27006117.900   105977717.246          50.000  
E26  24403337.860   128240365.746          50.000    24403343.200    95763894.969          50.000  
> 2020  7 17 22 19  9.0000000  0 15       0.000000000000
G10  22789757.280   119760922.266          50.000    22789758.140    89431853.742          50.000  
G13  23449473.360   123227856.594          50.000                                                  
G15  21674485.100   113900000.398          50.000                                                  
G16  23341330.780   122659521.063          50.000                                                  
G20  20515481.040   107809579.438          50.000                                                  
G21  23010697.480   120922045.410          50.000                                                  
G26  22699142.320   119284706.324          50.000    22699144.020    89076232.227          50.000  
G29  21693262.120   113998846.898          50.000                                                  
E 3  27064622.040   142225513.535          50.000    27064627.240   106207349.781          50.000  
E 7  25527596.760   134148385.184          50.000    25527602.720   100175727.039          50.000  
E 8  22433350.220   117888053.297          50.000    22433352.920    88033279.547          50.000  
E13  23565211.420   123836005.598          50.000    23565214.920    92474928.941          50.000  
E15  26088466.220   137095766.164          50.000    26088472.360   102376691.406          50.000  
E21  27006586.520   141920510.367          50.000    27006592.700   105979580.484          50.000  
E26  24403018.300   128238686.430          50.000    24403023.640    95762640.934          50.000  
> 2020  7 17 22 19 10.0000000  0 15       0.000000000000
G10  22789230.900   119758156.129          50.000    22789231.760    89429788.125          50.000  
G13  23449625.340   123228655.207          50.000                                                  
G15  21674438.080   113899753.297          50.000                                                  
G16  23341150.860   122658575.594          50.000                                                  
G20  20515237.480   107808299.488          50.000                                                  
G21  23010367.220   120920309.883          50.000                                                  
G26  22699379.800   119285954.242          50.000    22699381.500    89077164.113          50.000  
G29  21693736.540   114001339.969          50.000                                                  
E 3  27065002.820   142227514.566          50.000    27065008.040   106208844.059          50.000  
E 7  25527082.740   134145684.016          50.000    25527088.700   100173709.938          50.000  
E 8  22433267.300   117887617.621          50.000    22433270.020    88032954.203          50.000  
E13  23565225.780   123836080.977          50.000    23565229.260    92474985.230          50.000  
E15  26088786.700   137097450.324          50.000    26088792.860   102377949.059          50.000  
E21  27007061.340   141923005.602          50.000    27007067.540   105981443.809          50.000  
E26  24402698.740   128237007.148          50.000    24402704.080    95761386.926          50.000  
> 2020  7 17 22 19 11.0000000  0 15       0.000000000000
G10  22788704.580   119755390.309          50.000    22788705.440    89427722.738          50.000  
G13  23449777.420   123229454.449          50.000                                                  
G15  21674391.180   113899506.898          50.000                                                  
G16  23340971.060   122657630.762          50.000                                                  
G20  20514994.000   107807019.988          50.000                                                  
G21  23010036.980   120918574.422          50.000                                                  
G26  22699617.380   119287202.688          50.000    22699619.080    89078096.391          50.000  
G29  21694211.040   114003833.469          50.000                                                  
E 3  27065383.680   142229515.918          50.000    27065388.880   106210338.574          50.000  
E 7  25526568.760   134142983.055          50.000    25526574.720   100171692.988          50.000  
E 8  22433184.500   117887182.430          50.000    22433187.200    88032629.223          50.000  
E13  23565240.140   123836156.492          50.000    23565243.620    92475041.625          50.000  
E15  26089107.200   137099134.598          50.000    26089113.360   102379206.793          50.000  
E21  27007536.200   141925500.969          50.000    27007542.380   105983307.227          50.000  
E26  24402379.180   128235327.898          50.000    24402384.520    95760132.941          50.000  
> 2020  7 17 22 19 12.0000000  0 15       0.000000000000
G10  22788178.320   119752624.793          50.000    22788179.180    89425657.582          50.000  
G13  23449929.640   123230254.328          50.000                                                  
G15  21674344.420   113899261.191          50.000                                                  
G16  23340791.380   122656686.555          50.000                                                  
G20  20514750.600   107805740.934          50.000                                                  
G21  23009706.740   120916839.023          50.000                                                  
G26  22699855.040   119288451.648          50.000    22699856.740    89079029.059          50.000  
G29  21694685.620   114006327.383          50.000                                                  
E 3  27065764.580   142231517.605          50.000    27065769.780   106211833.340          50.000  
E 7  25526054.840   134140282.316          50.000    25526060.780   100169676.203          50.000  
E 8  22433101.760   117886747.695          50.000    22433104.480    88032304.586          50.000  
E13  23565254.540   123836232.152          50.000    23565258.020    92475098.121          50.000  
E15  26089427.740   137100818.984          50.000    26089433.880   102380464.613          50.000  
E21  27008011.080   141927996.457          50.000    27008017.260   105985170.742          50.000  
E26  24402059.640   128233648.660          50.000    24402064.980    95758878.965          50.000  
> 2020  7 17 22 19 13.0000000  0 15       0.000000000000
G10  22787652.120   119749859.598          50.000    22787652.980    89423592.668          50.000  
G13  23450081.960   123231054.848          50.000                                                  
G15  21674297.800   113899016.160          50.000                                                  
G16  23340611.820   122655742.973          50.000                                                  
G20  20514507.300   107804462.332          50.000                                                  
G21  23009376.520   120915103.688          50.000                                                  
G26  22700092.800   119289701.121          50.000    22700094.500    89079962.102          50.000  
G29  21695160.280   114008821.723          50.000                                                  
E 3  27066145.560   142233519.609          50.000    27066150.760   106213328.340          50.000  
E 7  25525540.940   134137581.773          50.000    25525546.880   100167659.566          50.000  
E 8  22433019.120   117886313.430          50.000    22433021.840    88031980.293          50.000  
E13  23565268.960   123836307.941          50.000    23565272.440    92475154.719          50.000  
E15  26089748.280   137102503.473          50.000    26089754.440   102381722.512          50.000  
E21  27008485.980   141930492.078          50.000    27008492.160   105987034.352          50.000  
E26  24401740.100   128231969.457          50.000    24401745.440    95757625.016          50.000  
> 2020  7 17 22 19 14.0000000  0 15       0.000000000000
G10  22787125.980   119747094.715          50.000    22787126.840    89421527.984          50.000  
G13  23450234.420   123231855.988          50.000                                                  
G15  21674251.300   113898771.836          50.000                                                  
G16  23340432.380   122654800.023          50.000                                                  
G20  20514264.060   107803184.184          50.000                                                  
G21  23009046.300   120913368.422          50.000                                                  
G26  22700330.680   119290951.105          50.000    22700332.380    89080895.531          50.000  
G29  21695635.020   114011316.484          50.000                                                  
E 3  27066526.580   142235521.941          50.000    27066531.780   106214823.590          50.000  
E 7  25525027.080   134134881.441          50.000    25525033.020   100165643.082          50.000  
E 8  22432936.580   117885879.641          50.000    22432939.300    88031656.363          50.000  
E13  23565283.420   123836383.879          50.000    23565286.900    92475211.426          50.000  
E15  26090068.860   137104188.090          50.000    26090075.020   102382980.504          50.000  
E21  27008960.900   141932987.820          50.000    27008967.080   105988898.059          50.000  
E26  24401420.560   128230290.281          50.000    24401425.900    95756371.086          50.000  
> 2020  7 17 22 19 15.0000000  0 15       0.000000000000
G10  22786599.880   119744330.133          50.000    22786600.760    89419463.523          50.000  
G13  23450387.000   123232657.773          50.000                                                  
G15  21674204.940   113898528.191          50.000                                                  
G16  23340253.060   122653857.715          50.000                                                  
G20  20514020.920   107801906.473          50.000                                                  
G21  23008716.100   120911633.219          50.000                                                  
G26  22700568.640   119292201.586          50.000    22700570.340    89081829.336          50.000  
G29  21696109.820   114013811.664          50.000                                                  
E 3  27066907.680   142237524.594          50.000    27066912.880   106216319.074          50.000  
E 7  25524513.260   134132181.313          50.000    25524519.220   100163626.754          50.000  
E 8  22432854.120   117885446.332          50.000    22432856.840    88031332.789          50.000  
E13  23565297.880   123836459.949          50.000    23565301.380    92475268.230          50.000  
E15  26090389.440   137105872.797          50.000    26090395.600   102384238.563          50.000  
E21  27009435.840   141935483.684          50.000    27009442.040   105990761.852          50.000  
E26  24401101.020   128228611.125          50.000    24401106.360    95755117.172          50.000  
> 2020  7 17 22 19 16.0000000  0 15       0.000000000000
G10  22786073.860   119741565.863          50.000    22786074.720    89417399.297          50.000  
G13  23450539.680   123233460.176          50.000                                                  
G15  21674158.700   113898285.234          50.000                                                  
G16  23340073.880   122652916.023          50.000                                                  
G20  20513777.880   107800629.215          50.000                                                  
G21  23008385.920   120909898.078          50.000                                                  
G26  22700806.700   119293452.598          50.000    22700808.400    89082763.527          50.000  
G29  21696584.720   114016307.277          50.000                                                  
E 3  27067288.820   142239527.563          50.000    27067294.040   106217814.801          50.000  
E 7  25523999.480   134129481.379          50.000    25524005.420   100161610.574          50.000  
E 8  22432771.760   117885013.473          50.000    22432774.460    88031009.551          50.000  
E13  23565312.400   123836536.160          50.000    23565315.880    92475325.141          50.000  
E15  26090710.060   137107557.613          50.000    26090716.220   102385496.703          50.000  
E21  27009910.820   141937979.684          50.000    27009917.000   105992625.742          50.000  
E26  24400781.500   128226931.996          50.000    24400786.840    95753863.277          50.000  
> 2020  7 17 22 19 17.0000000  0 15       0.000000000000
G10  22785547.900   119738801.898          50.000    22785548.760    89415335.301          50.000  
G13  23450692.500   123234263.219          50.000                                                  
G15  21674112.600   113898042.977          50.000                                                  
G16  23339894.800   122651974.965          50.000                                                  
G20  20513534.900   107799352.414          50.000                                                  
G21  23008055.740   120908163.008          50.000                                                  
G26  22701044.840   119294704.113          50.000    22701046.540    89083698.102          50.000  
G29  21697059.700   114018803.313          50.000                                                  
E 3  27067670.040   142241530.871          50.000    27067675.240   106219310.773          50.000  
E 7  25523485.740   134126781.668          50.000    25523491.700   100159594.555          50.000  
E 8  22432689.480   117884581.105          50.000    22432692.180    88030686.680          50.000  
E13  23565326.920   123836612.512          50.000    23565330.400    92475382.160          50.000  
E15  26091030.700   137109242.574          50.000    26091036.840   102386754.953          50.000  
E21  27010385.820   141940475.813          50.000    27010392.000   105994489.734          50.000  
E26  24400461.980   128225252.898          50.000    24400467.320    95752609.402          50.000  
> 2020  7 17 22 19 18.0000000  0 15       0.000000000000
G10  22785022.000   119736038.238          50.000    22785022.860    89413271.527          50.000  
G13  23450845.440   123235066.887          50.000                                                  
G15  21674066.640   113897801.391          50.000                                                  
G16  23339715.840   122651034.539          50.000                                                  
G20  20513292.020   107798076.055          50.000                                                  
G21  23007725.580   120906428.004          50.000                                                  
G26  22701283.100   119295956.137          50.000    22701284.800    89084633.055          50.000  
G29  21697534.780   114021299.770          50.000                                                  
E 3  27068051.320   142243534.492          50.000    27068056.520   106220806.984          50.000  
E 7  25522972.040   134124082.164          50.000    25522978.000   100157578.695          50.000  
E 8  22432607.280   117884149.207          50.000    22432610.000    88030364.156          50.000  
E13  23565341.480   123836688.992          50.000    23565344.960    92475439.270          50.000  
E15  26091351.340   137110927.613          50.000    26091357.500   102388013.262          50.000  
E21  27010860.840   141942972.059          50.000    27010867.020   105996353.813          50.000  
E26  24400142.460   128223573.836          50.000    24400147.800    95751355.559          50.000  
> 2020  7 17 22 19 19.0000000  0 15       0.000000000000
G10  22784496.140   119733274.910          50.000    22784497.000    89411208.008          50.000  
G13  23450998.480   123235871.191          50.000                                                  
G15  21674020.800   113897560.492          50.000                                                  
G16  23339537.000   122650094.738          50.000                                                  
G20  20513049.220   107796800.141          50.000                                                  
G21  23007395.440   120904693.055          50.000                                                  
G26  22701521.460   119297208.672          50.000    22701523.160    89085568.387          50.000  
G29  21698009.920   114023796.652          50.000                                                  
E 3  27068432.660   142245538.441          50.000    27068437.860   106222303.438          50.000  
E 7  25522458.380   134121382.840          50.000    25522464.320   100155562.965          50.000  
E 8  22432525.180   117883717.762          50.000    22432527.900    88030041.977          50.000  
E13  23565356.060   123836765.637          50.000    23565359.540    92475496.504          50.000  
E15  26091672.020   137112612.785          50.000    26091678.180   102389271.668          50.000  
E21  27011335.880   141945468.441          50.000    27011342.080   105998217.996          50.000  
E26  24399822.940   128221894.789          50.000    24399828.280    95750101.727          50.000  
> 2020  7 17 22 19 20.0000000  0 15       0.000000000000
G10  22783970.360   119730511.887          50.000    22783971.220    89409144.711          50.000  
G13  23451151.660   123236676.137          50.000                                                  
G15  21673975.080   113897320.297          50.000                                                  
G16  23339358.280   122649155.566          50.000                                                  
G20  20512806.520   107795524.688          50.000                                                  
G21  23007065.300   120902958.184          50.000                                                  
G26  22701759.900   119298461.734          50.000    22701761.600    89086504.117          50.000  
G29  21698485.140   114026293.961          50.000                                                  
E 3  27068814.060   142247542.715          50.000    27068819.260   106223800.137          50.000  
E 7  25521944.760   134118683.750          50.000    25521950.700   100153547.414          50.000  
E 8  22432443.180   117883286.805          50.000    22432445.900    88029720.156          50.000  
E13  23565370.660   123836842.398          50.000    23565374.160    92475553.828          50.000  
E15  26091992.720   137114298.055          50.000    26091998.880   102390530.148          50.000  
E21  27011810.960   141947964.941          50.000    27011817.140   106000082.262          50.000  
E26  24399503.440   128220215.766          50.000    24399508.780    95748847.914          50.000  
> 2020  7 17 22 19 21.0000000  0 15       0.000000000000
G10  22783444.640   119727749.176          50.000    22783445.500    89407081.648          50.000  
G13  23451304.960   123237481.707          50.000                                                  
G15  21673929.500   113897080.785          50.000                                                  
G16  23339179.680   122648217.031          50.000                                                  
G20  20512563.880   107794249.684          50.000                                                  
G21  23006735.180   120901223.379          50.000                                                  
G26  22701998.440   119299715.289          50.000    22702000.140    89087440.211          50.000  
G29  21698960.440   114028791.703          50.000                                                  
E 3  27069195.520   142249547.309          50.000    27069200.740   106225297.070          50.000  
E 7  25521431.180   134115984.855          50.000    25521437.120   100151532.004          50.000  
E 8  22432361.260   117882856.313          50.000    22432363.980    88029398.684          50.000  
E13  23565385.300   123836919.313          50.000    23565388.780    92475611.262          50.000  
E15  26092313.440   137115983.453          50.000    26092319.600   102391788.723          50.000  
E21  27012286.040   141950461.574          50.000    27012292.240   106001946.629          50.000  
E26  24399183.940   128218536.773          50.000    24399189.280    95747594.117          50.000  
> 2020  7 17 22 19 22.0000000  0 15       0.000000000000
G10  22782918.960   119724986.773          50.000    22782919.820    89405018.816          50.000  
G13  23451458.380   123238287.918          50.000                                                  
G15  21673884.060   113896841.969          50.000                                                  
G16  23339001.200   122647279.121          50.000                                                  
G20  20512321.340   107792975.129          50.000                                                  
G21  23006405.060   120899488.637          50.000                                                  
G26  22702237.080   119300969.355          50.000    22702238.780    89088376.691          50.000  
G29  21699435.820   114031289.859          50.000                                                  
E 3  27069577.060   142251552.227          50.000    27069582.260   106226794.250          50.000  
E 7  25520917.620   134113286.156          50.000    25520923.580   100149516.742          50.000  
E 8  22432279.420   117882426.289          50.000    22432282.140    88029077.566          50.000  
E13  23565399.960   123836996.363          50.000    23565403.460    92475668.801          50.000  
E15  26092634.180   137117668.941          50.000    26092640.340   102393047.367          50.000  
E21  27012761.160   141952958.336          50.000    27012767.360   106003811.094          50.000  
E26  24398864.440   128216857.809          50.000    24398869.780    95746340.348          50.000  
> 2020  7 17 22 19 23.0000000  0 15       0.000000000000
G10  22782393.360   119722224.668          50.000    22782394.220    89402956.207          50.000  
G13  23451611.920   123239094.758          50.000                                                  
G15  21673838.740   113896603.836          50.000                                                  
G16  23338822.840   122646341.852          50.000                                                  
G20  20512078.900   107791701.023          50.000                                                  
G21  23006074.960   120897753.961          50.000                                                  
G26  22702475.820   119302223.934          50.000    22702477.520    89089313.547          50.000  
G29  21699911.280   114033788.445          50.000                                                  
E 3  27069958.640   142253557.477          50.000    27069963.840   106228291.676          50.000  
E 7  25520404.120   134110587.680          50.000    25520410.080   100147501.648          50.000  
E 8  22432197.680   117881996.742          50.000    22432200.400    88028756.801          50.000  
E13  23565414.660   123837073.547          50.000    23565418.140    92475726.438          50.000  
E15  26092954.940   137119354.551          50.000    26092961.100   102394306.102          50.000  
E21  27013236.300   141955455.219          50.000    27013242.500   106005675.648          50.000  
E26  24398544.940   128215178.855          50.000    24398550.280    95745086.586          50.000  
> 2020  7 17 22 19 24.0000000  0 15       0.000000000000
G10  22781867.800   119719462.895          50.000    22781868.660    89400893.844          50.000  
G13  23451765.560   123239902.223          50.000                                                  
G15  21673793.560   113896366.398          50.000                                                  
G16  23338644.600   122645405.203          50.000                                                  
G20  20511836.520   107790427.371          50.000                                                  
G21  23005744.880   120896019.348          50.000                                                  
G26  22702714.660   119303479.031          50.000    22702716.360    89090250.797          50.000  
G29  21700386.840   114036287.449          50.000                                                  
E 3  27070340.280   142255563.047          50.000    27070345.480   106229789.344          50.000  
E 7  25519890.660   134107889.414          50.000    25519896.600   100145486.711          50.000  
E 8  22432116.040   117881567.664          50.000    22432118.740    88028436.387          50.000  
E13  23565429.360   123837150.879          50.000    23565432.860    92475784.184          50.000  
E15  26093275.720   137121040.266          50.000    26093281.880   102395564.914          50.000  
E21  27013711.480   141957952.238          50.000    27013717.660   106007540.305          50.000  
E26  24398225.460   128213499.941          50.000    24398230.800    95743832.852          50.000  
> 2020  7 17 22 19 25.0000000  0 15       0.000000000000
G10  22781342.320   119716701.434          50.000    22781343.180    89398831.715          50.000  
G13  23451919.340   123240710.324          50.000                                                  
G15  21673748.500   113896129.641          50.000                                                  
G16  23338466.480   122644469.184          50.000                                                  
G20  20511594.240   107789154.172          50.000                                                  
G21  23005414.800   120894284.801          50.000                                                  
G26  22702953.600   119304734.633          50.000    22702955.300    89091188.422          50.000  
G29  21700862.460   114038786.879          50.000                                                  
E 3  27070722.000   142257568.938          50.000    27070727.200   106231287.246          50.000  
E 7  25519377.240   134105191.336          50.000    25519383.180   100143471.914          50.000  
E 8  22432034.480   117881139.059          50.000    22432037.180    88028116.320          50.000  
E13  23565444.120   123837228.348          50.000    23565447.600    92475842.035          50.000  
E15  26093596.520   137122726.105          50.000    26093602.680   102396823.816          50.000  
E21  27014186.660   141960449.367          50.000    27014192.860   106009405.043          50.000  
E26  24397905.980   128211821.055          50.000    24397911.320    95742579.137          50.000  
> 2020  7 17 22 19 26.0000000  0 15       0.000000000000
G10  22780816.880   119713940.277          50.000    22780817.740    89396769.816          50.000  
G13  23452073.240   123241519.066          50.000                                                  
G15  21673703.580   113895893.586          50.000                                                  
G16  23338288.500   122643533.809          50.000                                                  
G20  20511352.040   107787881.426          50.000                                                  
G21  23005084.740   120892550.324          50.000                                                  
G26  22703192.620   119305990.750          50.000    22703194.340    89092126.430          50.000  
G29  21701338.160   114041286.734          50.000                                                  
E 3  27071103.760   142259575.160          50.000    27071108.980   106232785.398          50.000  
E 7  25518863.840   134102493.477          50.000    25518869.800   100141457.281          50.000  
E 8  22431953.000   117880710.926          50.000    22431955.720    88027796.613          50.000  
E13  23565458.880   123837305.953          50.000    23565462.360    92475899.988          50.000  
E15  26093917.360   137124412.051          50.000    26093923.520   102398082.801          50.000  
E21  27014661.880   141962946.629          50.000    27014668.080   106011269.879          50.000  
E26  24397586.500   128210142.195          50.000    24397591.840    95741325.445          50.000  
> 2020  7 17 22 19 27.0000000  0 15       0.000000000000
G10  22780291.500   119711179.434          50.000    22780292.360    89394708.148          50.000  
G13  23452227.260   123242328.434          50.000                                                  
G15  21673658.800   113895658.219          50.000                                                  
G16  23338110.620   122642599.047          50.000                                                  
G20  20511109.940   107786609.117          50.000                                                  
G21  23004754.700   120890815.895          50.000                                                  
G26  22703431.760   119307247.375          50.000    22703433.460    89093064.816          50.000  
G29  21701813.960   114043787.008          50.000                                                  
E 3  27071485.600   142261581.695          50.000    27071490.800   106234283.785          50.000  
E 7  25518350.500   134099795.824          50.000    25518356.440   100139442.801          50.000  
E 8  22431871.620   117880283.254          50.000    22431874.340    88027477.246          50.000  
E13  23565473.680   123837383.703          50.000    23565477.160    92475958.047          50.000  
E15  26094238.200   137126098.102          50.000    26094244.360   102399341.867          50.000  
E21  27015137.120   141965444.020          50.000    27015143.300   106013134.813          50.000  
E26  24397267.020   128208463.352          50.000    24397272.360    95740071.762          50.000  
> 2020  7 17 22 19 28.0000000  0 15       0.000000000000
G10  22779766.200   119708418.883          50.000    22779767.060    89392646.699          50.000  
G13  23452381.400   123243138.430          50.000                                                  
G15  21673614.140   113895423.539          50.000                                                  
G16  23337932.860   122641664.914          50.000                                                  
G20  20510867.900   107785337.258          50.000                                                  
G21  23004424.660   120889081.543          50.000                                                  
G26  22703670.980   119308504.520          50.000    22703672.680    89094003.594          50.000  
G29  21702289.820   114046287.711          50.000                                                  
E 3  27071867.500   142263588.559          50.000    27071872.700   106235782.414          50.000  
E 7  25517837.200   134097098.371          50.000    25517843.140   100137428.469          50.000  
E 8  22431790.320   117879856.059          50.000    22431793.040    88027158.238          50.000  
E13  23565488.500   123837461.590          50.000    23565491.980    92476016.211          50.000  
E15  26094559.060   137127784.273          50.000    26094565.220   102400601.020          50.000  
E21  27015612.380   141967941.527          50.000    27015618.580   106014999.836          50.000  
E26  24396947.560   128206784.535          50.000    24396952.900    95738818.102          50.000  
> 2020  7 17 22 19 29.0000000  0 15       0.000000000000
G10  22779240.940   119705658.664          50.000    22779241.800    89390585.500          50.000  
G13  23452535.660   123243949.070          50.000                                                  
G15  21673569.620   113895189.547          50.000                                                  
G16  23337755.220   122640731.410          50.000                                                  
G20  20510625.960   107784065.852          50.000                                                  
G21  23004094.640   120887347.250          50.000                                                  
G26  22703910.300   119309762.164          50.000    22703912.000    89094942.742          50.000  
G29  21702765.780   114048788.828          50.000                                                  
E 3  27072249.440   142265595.746          50.000    27072254.660   106237281.289          50.000  
E 7  25517323.920   134094401.125          50.000    25517329.860   100135414.293          50.000  
E 8  22431709.120   117879429.336          50.000    22431711.840    88026839.582          50.000  
E13  23565503.340   123837539.617          50.000    23565506.820    92476074.477          50.000  
E15  26094879.960   137129470.543          50.000    26094886.120   102401860.246          50.000  
E21  27016087.660   141970439.168          50.000    27016093.860   106016864.953          50.000  
E26  24396628.100   128205105.742          50.000    24396633.440    95737564.457          50.000  
> 2020  7 17 22 19 30.0000000  0 15       0.000000000000
G10  22778715.740   119702898.766          50.000    22778716.600    89388524.539          50.000  
G13  23452690.040   123244760.332          50.000                                                  
G15  21673525.220   113894956.254          50.000                                                  
G16  23337577.700   122639798.551          50.000                                                  
G20  20510384.120   107782794.906          50.000                                                  
G21  23003764.620   120885613.023          50.000                                                  
G26  22704149.720   119311020.328          50.000    22704151.420    89095882.277          50.000  
G29  21703241.800   114051290.379          50.000                                                  
E 3  27072631.460   142267603.258          50.000    27072636.660   106238780.402          50.000  
E 7  25516810.700   134091704.086          50.000    25516816.640   100133400.273          50.000  
E 8  22431628.020   117879003.090          50.000    22431630.720    88026521.281          50.000  
E13  23565518.220   123837617.781          50.000    23565521.700    92476132.848          50.000  
E15  26095200.860   137131156.926          50.000    26095207.020   102403119.555          50.000  
E21  27016562.980   141972936.922          50.000    27016569.160   106018730.160          50.000  
E26  24396308.640   128203426.984          50.000    24396313.980    95736310.840          50.000  
> 2020  7 17 22 19 31.0000000  0 15       0.000000000000
G10  22778190.620   119700139.160          50.000    22778191.460    89386463.797          50.000  
G13  23452844.540   123245572.227          50.000                                                  
G15  21673480.960   113894723.637          50.000                                                  
G16  23337400.300   122638866.305          50.000                                                  
G20  20510142.340   107781524.398          50.000                                                  
G21  23003434.620   120883878.867          50.000                                                  
G26  22704389.240   119312278.988          50.000    22704390.940    89096822.188          50.000  
G29  21703717.900   114053792.348          50.000                                                  
E 3  27073013.540   142269611.090          50.000    27073018.740   106240279.758          50.000  
E 7  25516297.500   134089007.258          50.000    25516303.440   100131386.410          50.000  
E 8  22431547.000   117878577.313          50.000    22431549.700    88026203.332          50.000  
E13  23565533.120   123837696.082          50.000    23565536.600    92476191.316          50.000  
E15  26095521.800   137132843.434          50.000    26095527.960   102404378.961          50.000  
E21  27017038.300   141975434.813          50.000    27017044.500   106020595.469          50.000  
E26  24395989.180   128201748.246          50.000    24395994.520    95735057.238          50.000  
> 2020  7 17 22 19 32.0000000  0 15       0.000000000000
G10  22777665.540   119697379.867          50.000    22777666.400    89384403.285          50.000  
G13  23452999.160   123246384.758          50.000                                                  
G15  21673436.820   113894491.719          50.000                                                  
G16  23337223.020   122637934.699          50.000                                                  
G20  20509900.660   107780254.348          50.000                                                  
G21  23003104.620   120882144.762          50.000                                                  
G26  22704628.860   119313538.164          50.000    22704630.560    89097762.480          50.000  
G29  21704194.100   114056294.738          50.000                                                  
E 3  27073395.680   142271619.254          50.000    27073400.900   106241779.359          50.000  
E 7  25515784.340   134086310.625          50.000    25515790.300   100129372.691          50.000  
E 8  22431466.060   117878151.996          50.000    22431468.760    88025885.723          50.000  
E13  23565548.040   123837774.527          50.000    23565551.540    92476249.898          50.000  
E15  26095842.740   137134530.047          50.000    26095848.900   102405638.441          50.000  
E21  27017513.660   141977932.840          50.000    27017519.860   106022460.875          50.000  
E26  24395669.740   128200069.535          50.000    24395675.080    95733803.656          50.000  
> 2020  7 17 22 19 33.0000000  0 15       0.000000000000
G10  22777140.520   119694620.891          50.000    22777141.380    89382343.012          50.000  
G13  23453153.900   123247197.930          50.000                                                  
G15  21673392.820   113894260.488          50.000                                                  
G16  23337045.860   122637003.727          50.000                                                  
G20  20509659.060   107778984.742          50.000                                                  
G21  23002774.660   120880410.738          50.000                                                  
G26  22704868.560   119314797.855          50.000    22704870.280    89098703.160          50.000  
G29  21704670.360   114058797.551          50.000                                                  
E 3  27073777.880   142273627.734          50.000    27073783.100   106243279.199          50.000  
E 7  25515271.240   134083614.223          50.000    25515277.180   100127359.145          50.000  
E 8  22431385.220   117877727.164          50.000    22431387.920    88025568.480          50.000  
E13  23565563.000   123837853.121          50.000    23565566.480    92476308.586          50.000  
E15  26096163.720   137136216.777          50.000    26096169.880   102406898.012          50.000  
E21  27017989.040   141980430.980          50.000    27017995.240   106024326.367          50.000  
E26  24395350.300   128198390.863          50.000    24395355.640    95732550.102          50.000  
> 2020  7 17 22 19 34.0000000  0 15       0.000000000000
G10  22776615.560   119691862.227          50.000    22776616.420    89380282.973          50.000  
G13  23453308.760   123248011.723          50.000                                                  
G15  21673348.960   113894029.957          50.000                                                  
G16  23336868.820   122636073.375          50.000                                                  
G20  20509417.560   107777715.590          50.000                                                  
G21  23002444.680   120878676.762          50.000                                                  
G26  22705108.380   119316058.047          50.000    22705110.080    89099644.211          50.000  
G29  21705146.720   114061300.789          50.000                                                  
E 3  27074160.140   142275636.547          50.000    27074165.360   106244779.285          50.000  
E 7  25514758.160   134080918.008          50.000    25514764.100   100125345.734          50.000  
E 8  22431304.460   117877302.789          50.000    22431307.160    88025251.578          50.000  
E13  23565577.980   123837931.848          50.000    23565581.460    92476367.375          50.000  
E15  26096484.720   137137903.605          50.000    26096490.880   102408157.660          50.000  
E21  27018464.460   141982929.242          50.000    27018470.640   106026191.953          50.000  
E26  24395030.860   128196712.211          50.000    24395036.200    95731296.563          50.000  
> 2020  7 17 22 19 35.0000000  0 15       0.000000000000
G10  22776090.660   119689103.879          50.000    22776091.520    89378223.168          50.000  
G13  23453463.740   123248826.156          50.000                                                  
G15  21673305.220   113893800.113          50.000                                                  
G16  23336691.900   122635143.656          50.000                                                  
G20  20509176.120   107776446.883          50.000                                                  
G21  23002114.740   120876942.863          50.000                                                  
G26  22705348.280   119317318.766          50.000    22705349.980    89100585.656          50.000  
G29  21705623.160   114063804.461          50.000                                                  
E 3  27074542.480   142277645.668          50.000    27074547.680   106246279.602          50.000  
E 7  25514245.140   134078222.016          50.000    25514251.080   100123332.496          50.000  
E 8  22431223.800   117876878.906          50.000    22431226.500    88024935.043          50.000  
E13  23565592.980   123838010.715          50.000    23565596.480    92476426.270          50.000  
E15  26096805.740   137139590.555          50.000    26096811.880   102409417.391          50.000  
E21  27018939.880   141985427.625          50.000    27018946.080   106028057.629          50.000  
E26  24394711.420   128195033.582          50.000    24394716.760    95730043.043          50.000  
> 2020  7 17 22 19 36.0000000  0 15       0.000000000000
G10  22775565.820   119686345.840          50.000    22775566.680    89376163.594          50.000  
G13  23453618.840   123249641.219          50.000                                                  
G15  21673261.600   113893570.961          50.000                                                  
G16  23336515.100   122634214.578          50.000                                                  
G20  20508934.780   107775178.621          50.000                                                  
G21  23001784.800   120875209.027          50.000                                                  
G26  22705588.280   119318579.984          50.000    22705589.980    89101527.473          50.000  
G29  21706099.660   114066308.543          50.000                                                  
E 3  27074924.860   142279655.117          50.000    27074930.060   106247780.164          50.000  
E 7  25513732.140   134075526.219          50.000    25513738.080   100121319.402          50.000  
E 8  22431143.220   117876455.484          50.000    22431145.940    88024618.848          50.000  
E13  23565608.020   123838089.727          50.000    23565611.520    92476485.270          50.000  
E15  26097126.760   137141277.605          50.000    26097132.920   102410677.203          50.000  
E21  27019415.340   141987926.148          50.000    27019421.520   106029923.406          50.000  
E26  24394392.000   128193354.977          50.000    24394397.340    95728789.539          50.000  
> 2020  7 17 22 19 37.0000000  0 15       0.000000000000
G10  22775041.040   119683588.105          50.000    22775041.900    89374104.250          50.000  
G13  23453774.060   123250456.910          50.000                                                  
G15  21673218.120   113893342.484          50.000                                                  
G16  23336338.420   122633286.117          50.000                                                  
G20  20508693.520   107773910.824          50.000                                                  
G21  23001454.880   120873475.258          50.000                                                  
G26  22705828.380   119319841.711          50.000    22705830.080    89102469.672          50.000  
G29  21706576.260   114068813.043          50.000                                                  
E 3  27075307.300   142281664.887          50.000    27075312.520   106249280.965          50.000  
E 7  25513219.180   134072830.621          50.000    25513225.120   100119306.461          50.000  
E 8  22431062.740   117876032.531          50.000    22431065.440    88024303.008          50.000  
E13  23565623.080   123838168.867          50.000    23565626.580    92476544.371          50.000  
E15  26097447.820   137142964.781          50.000    26097453.980   102411937.105          50.000  
E21  27019890.800   141990424.793          50.000    27019897.000   106031789.273          50.000  
E26  24394072.580   128191676.395          50.000    24394077.900    95727536.051          50.000  
> 2020  7 17 22 19 38.0000000  0 15       0.000000000000
G10  22774516.320   119680830.719          50.000    22774517.140    89372045.242          50.000  
G13  23453929.380   123251273.313          50.000                                                  
G15  21673174.800   113893114.656          50.000                                                  
G16  23336161.860   122632358.289          50.000                                                  
G20  20508452.340   107772643.578          50.000                                                  
G21  23001124.940   120871741.605          50.000                                                  
G26  22706068.580   119321103.918          50.000    22706070.280    89103412.258          50.000  
G29  21707052.940   114071317.949          50.000                                                  
E 3  27075689.820   142283674.977          50.000    27075695.020   106250782.008          50.000  
E 7  25512706.280   134070135.242          50.000    25512712.220   100117293.676          50.000  
E 8  22430982.340   117875610.063          50.000    22430985.040    88023987.539          50.000  
E13  23565638.180   123838248.145          50.000    23565641.660    92476603.570          50.000  
E15  26097768.900   137144652.039          50.000    26097775.080   102413197.063          50.000  
E21  27020366.340   141992923.379          50.000    27020372.560   106033655.000          50.000  
E26  24393753.160   128189997.840          50.000    24393758.480    95726282.590          50.000  
> 2020  7 17 22 19 39.0000000  0 15       0.000000000000
G10  22773991.660   119678073.605          50.000    22773992.480    89369986.359          50.000  
G13  23454084.840   123252090.266          50.000                                                  
G15  21673131.580   113892887.570          50.000                                                  
G16  23335985.420   122631431.086          50.000                                                  
G20  20508211.260   107771376.684          50.000                                                  
G21  23000795.040   120870007.957          50.000                                                  
G26  22706308.880   119322366.664          50.000    22706310.580    89104355.215          50.000  
G29  21707529.680   114073823.305          50.000                                                  
E 3  27076072.380   142285685.387          50.000    27076077.600   106252283.289          50.000  
E 7  25512193.400   134067440.063          50.000    25512199.340   100115281.043          50.000  
E 8  22430902.020   117875188.047          50.000    22430904.740    88023672.398          50.000  
E13  23565653.300   123838327.570          50.000    23565656.780    92476662.879          50.000  
E15  26098090.020   137146339.434          50.000    26098096.180   102414457.129          50.000  
E21  27020841.860   141995422.266          50.000    27020848.080   106035521.051          50.000  
E26  24393433.740   128188319.313          50.000    24393439.080    95725029.141          50.000  
> 2020  7 17 22 19 40.0000000  0 15       0.000000000000
G10  22773467.060   119675316.801          50.000    22773467.880    89367927.707          50.000  
G13  23454240.440   123252907.852          50.000                                                  
G15  21673088.500   113892661.180          50.000                                                  
G16  23335809.100   122630504.520          50.000                                                  
G20  20507970.260   107770110.234          50.000                                                  
G21  23000465.160   120868274.371          50.000                                                  
G26  22706549.280   119323629.910          50.000    22706550.980    89105298.547          50.000  
G29  21708006.520   114076329.082          50.000                                                  
E 3  27076455.020   142287696.133          50.000    27076460.220   106253784.816          50.000  
E 7  25511680.560   134064745.098          50.000    25511686.500   100113268.570          50.000  
E 8  22430821.820   117874766.500          50.000    22430824.520    88023357.605          50.000  
E13  23565668.440   123838407.125          50.000    23565671.920    92476722.289          50.000  
E15  26098411.140   137148026.945          50.000    26098417.300   102415717.281          50.000  
E21  27021317.420   141997921.266          50.000    27021323.640   106037387.188          50.000  
E26  24393114.340   128186640.801          50.000    24393119.660    95723775.711          50.000  
> 2020  7 17 22 19 41.0000000  0 15       0.000000000000
G10  22772942.520   119672560.316          50.000    22772943.340    89365869.293          50.000  
G13  23454396.140   123253726.063          50.000                                                  
G15  21673045.560   113892435.457          50.000                                                  
G16  23335632.900   122629578.590          50.000                                                  
G20  20507729.360   107768844.234          50.000                                                  
G21  23000135.280   120866540.855          50.000                                                  
G26  22706789.760   119324893.676          50.000    22706791.460    89106242.270          50.000  
G29  21708483.440   114078835.277          50.000                                                  
E 3  27076837.720   142289707.184          50.000    27076842.920   106255286.574          50.000  
E 7  25511167.760   134062050.328          50.000    25511173.720   100111256.242          50.000  
E 8  22430741.680   117874345.426          50.000    22430744.400    88023043.168          50.000  
E13  23565683.600   123838486.824          50.000    23565687.080    92476781.805          50.000  
E15  26098732.280   137149714.551          50.000    26098738.440   102416977.504          50.000  
E21  27021792.980   142000420.414          50.000    27021799.200   106039253.430          50.000  
E26  24392794.940   128184962.324          50.000    24392800.260    95722522.305          50.000  
> 2020  7 17 22 19 42.0000000  0 15       0.000000000000
G10  22772418.020   119669804.129          50.000    22772418.860    89363811.105          50.000  
G13  23454551.960   123254544.902          50.000                                                  
G15  21673002.740   113892210.449          50.000                                                  
G16  23335456.820   122628653.281          50.000                                                  
G20  20507488.540   107767578.688          50.000                                                  
G21  22999805.420   120864807.398          50.000                                                  
G26  22707030.360   119326157.949          50.000    22707032.040    89107186.367          50.000  
G29  21708960.440   114081341.906          50.000                                                  
E 3  27077220.460   142291718.563          50.000    27077225.680   106256788.578          50.000  
E 7  25510655.020   134059355.785          50.000    25510660.960   100109244.086          50.000  
E 8  22430661.660   117873924.820          50.000    22430664.360    88022729.082          50.000  
E13  23565698.800   123838566.664          50.000    23565702.280    92476841.426          50.000  
E15  26099053.440   137151402.277          50.000    26099059.600   102418237.820          50.000  
E21  27022268.580   142002919.668          50.000    27022274.800   106041119.758          50.000  
E26  24392475.540   128183283.871          50.000    24392480.860    95721268.910          50.000  
> 2020  7 17 22 19 43.0000000  0 15       0.000000000000
G10  22771893.600   119667048.277          50.000    22771894.440    89361753.164          50.000  
G13  23454707.900   123255364.383          50.000                                                  
G15  21672960.040   113891986.105          50.000                                                  
G16  23335280.860   122627728.609          50.000                                                  
G20  20507247.800   107766313.590          50.000                                                  
G21  22999475.560   120863074.012          50.000                                                  
G26  22707271.040   119327422.730          50.000    22707272.720    89108130.844          50.000  
G29  21709437.520   114083848.938          50.000                                                  
E 3  27077603.280   142293730.277          50.000    27077608.500   106258290.832          50.000  
E 7  25510142.300   134056661.457          50.000    25510148.240   100107232.086          50.000  
E 8  22430581.700   117873504.699          50.000    22430584.420    88022415.352          50.000  
E13  23565714.020   123838646.645          50.000    23565717.500    92476901.152          50.000  
E15  26099374.640   137153090.109          50.000    26099380.800   102419498.215          50.000  
E21  27022744.200   142005419.047          50.000    27022750.420   106042986.176          50.000  
E26  24392156.140   128181605.449          50.000    24392161.480    95720015.547          50.000  
> 2020  7 17 22 19 44.0000000  0 15       0.000000000000
G10  22771369.240   119664292.711          50.000    22771370.080    89359695.438          50.000  
G13  23454863.960   123256184.496          50.000                                                  
G15  21672917.500   113891762.469          50.000                                                  
G16  23335105.020   122626804.551          50.000                                                  
G20  20507007.140   107765048.934          50.000                                                  
G21  22999145.720   120861340.680          50.000                                                  
G26  22707511.800   119328688.012          50.000    22707513.500    89109075.695          50.000  
G29  21709914.680   114086356.402          50.000                                                  
E 3  27077986.160   142295742.313          50.000    27077991.380   106259793.320          50.000  
E 7  25509629.620   134053967.297          50.000    25509635.560   100105220.211          50.000  
E 8  22430501.840   117873085.039          50.000    22430504.560    88022101.969          50.000  
E13  23565729.260   123838726.766          50.000    23565732.760    92476960.977          50.000  
E15  26099695.840   137154778.074          50.000    26099702.000   102420758.699          50.000  
E21  27023219.840   142007918.547          50.000    27023226.060   106044852.680          50.000  
E26  24391836.760   128179927.043          50.000    24391842.080    95718762.188          50.000  
> 2020  7 17 22 19 45.0000000  0 15       0.000000000000
G10  22770844.940   119661537.477          50.000    22770845.780    89357637.961          50.000  
G13  23455020.140   123257005.234          50.000                                                  
G15  21672875.060   113891539.512          50.000                                                  
G16  23334929.300   122625881.141          50.000                                                  
G20  20506766.580   107763784.715          50.000                                                  
G21  22998815.900   120859607.426          50.000                                                  
G26  22707752.680   119329953.809          50.000    22707754.380    89110020.934          50.000  
G29  21710391.900   114088864.285          50.000                                                  
E 3  27078369.100   142297754.660          50.000    27078374.320   106261296.043          50.000  
E 7  25509116.980   134051273.367          50.000    25509122.920   100103208.508          50.000  
E 8  22430422.080   117872665.855          50.000    22430424.800    88021788.938          50.000  
E13  23565744.540   123838807.031          50.000    23565748.020    92477020.910          50.000  
E15  26100017.060   137156466.129          50.000    26100023.240   102422019.258          50.000  
E21  27023695.500   142010418.184          50.000    27023701.740   106046719.289          50.000  
E26  24391517.380   128178248.691          50.000    24391522.720    95717508.871          50.000  
> 2020  7 17 22 19 46.0000000  0 15       0.000000000000
G10  22770320.700   119658782.563          50.000    22770321.540    89355580.719          50.000  
G13  23455176.460   123257826.609          50.000                                                  
G15  21672832.780   113891317.254          50.000                                                  
G16  23334753.720   122624958.352          50.000                                                  
G20  20506526.080   107762520.965          50.000                                                  
G21  22998486.080   120857874.230          50.000                                                  
G26  22707993.660   119331220.129          50.000    22707995.360    89110966.563          50.000  
G29  21710869.220   114091372.594          50.000                                                  
E 3  27078752.100   142299767.344          50.000    27078757.320   106262799.016          50.000  
E 7  25508604.380   134048579.656          50.000    25508610.320   100101196.969          50.000  
E 8  22430342.400   117872247.148          50.000    22430345.120    88021476.262          50.000  
E13  23565759.840   123838887.445          50.000    23565763.320    92477080.957          50.000  
E15  26100338.320   137158154.297          50.000    26100344.480   102423279.898          50.000  
E21  27024171.200   142012917.949          50.000    27024177.420   106048585.988          50.000  
E26  24391198.000   128176570.340          50.000    24391203.340    95716255.551          50.000  
> 2020  7 17 22 19 47.0000000  0 15       0.000000000000
G10  22769796.520   119656027.945          50.000    22769797.340    89353523.703          50.000  
G13  23455332.880   123258648.605          50.000                                                  
G15  21672790.620   113891095.676          50.000                                                  
G16  23334578.240   122624036.203          50.000                                                  
G20  20506285.680   107761257.645          50.000                                                  
G21  22998156.280   120856141.109          50.000                                                  
G26  22708234.740   119332486.953          50.000    22708236.440    89111912.566          50.000  
G29  21711346.620   114093881.320          50.000                                                  
E 3  27079135.160   142301780.336          50.000    27079140.380   106264302.219          50.000  
E 7  25508091.820   134045886.141          50.000    25508097.760   100099185.574          50.000  
E 8  22430262.820   117871828.895          50.000    22430265.520    88021163.926          50.000  
E13  23565775.160   123838967.980          50.000    23565778.660    92477141.090          50.000  
E15  26100659.580   137159842.586          50.000    26100665.760   102424540.629          50.000  
E21  27024646.920   142015417.840          50.000    27024653.140   106050452.785          50.000  
E26  24390878.620   128174892.035          50.000    24390883.960    95715002.270          50.000  
> 2020  7 17 22 19 48.0000000  0 15       0.000000000000
G10  22769272.380   119653273.629          50.000    22769273.220    89351466.910          50.000  
G13  23455489.420   123259471.230          50.000                                                  
G15  21672748.580   113890874.809          50.000                                                  
G16  23334402.880   122623114.684          50.000                                                  
G20  20506045.380   107759994.781          50.000                                                  
G21  22997826.500   120854408.039          50.000                                                  
G26  22708475.900   119333754.281          50.000    22708477.600    89112858.949          50.000  
G29  21711824.100   114096390.473          50.000                                                  
E 3  27079518.280   142303793.660          50.000    27079523.500   106265805.672          50.000  
E 7  25507579.300   134043192.840          50.000    25507585.260   100097174.340          50.000  
E 8  22430183.320   117871411.133          50.000    22430186.020    88020851.961          50.000  
E13  23565790.520   123839048.672          50.000    23565794.020    92477201.348          50.000  
E15  26100980.880   137161531.004          50.000    26100987.060   102425801.457          50.000  
E21  27025122.640   142017917.844          50.000    27025128.880   106052319.668          50.000  
E26  24390559.260   128173213.742          50.000    24390564.600    95713748.996          50.000  
> 2020  7 17 22 19 49.0000000  0 15       0.000000000000
G10  22768748.320   119650519.641          50.000    22768749.160    89349410.359          50.000  
G13  23455646.080   123260294.496          50.000                                                  
G15  21672706.680   113890654.617          50.000                                                  
G16  23334227.640   122622193.793          50.000                                                  
G20  20505805.140   107758732.363          50.000                                                  
G21  22997496.720   120852675.039          50.000                                                  
G26  22708717.160   119335022.121          50.000    22708718.860    89113805.711          50.000  
G29  21712301.660   114098900.051          50.000                                                  
E 3  27079901.480   142305807.316          50.000    27079906.680   106267309.375          50.000  
E 7  25507066.820   134040499.738          50.000    25507072.780   100095163.262          50.000  
E 8  22430103.900   117870993.836          50.000    22430106.620    88020540.340          50.000  
E13  23565805.900   123839129.500          50.000    23565809.400    92477261.703          50.000  
E15  26101302.200   137163219.508          50.000    26101308.360   102427062.352          50.000  
E21  27025598.400   142020417.984          50.000    27025604.640   106054186.652          50.000  
E26  24390239.900   128171535.484          50.000    24390245.240    95712495.750          50.000  
> 2020  7 17 22 19 50.0000000  0 15       0.000000000000
G10  22768224.320   119647765.965          50.000    22768225.140    89347354.043          50.000  
G13  23455802.860   123261118.391          50.000                                                  
G15  21672664.920   113890435.125          50.000                                                  
G16  23334052.520   122621273.535          50.000                                                  
G20  20505565.000   107757470.387          50.000                                                  
G21  22997166.960   120850942.105          50.000                                                  
G26  22708958.520   119336290.469          50.000    22708960.220    89114752.855          50.000  
G29  21712779.300   114101410.051          50.000                                                  
E 3  27080284.720   142307821.277          50.000    27080289.940   106268813.309          50.000  
E 7  25506554.380   134037806.855          50.000    25506560.340   100093152.340          50.000  
E 8  22430024.580   117870577.008          50.000    22430027.300    88020229.074          50.000  
E13  23565821.300   123839210.469          50.000    23565824.800    92477322.168          50.000  
E15  26101623.540   137164908.133          50.000    26101629.700   102428323.336          50.000  
E21  27026074.200   142022918.246          50.000    27026080.420   106056053.730          50.000  
E26  24389920.540   128169857.250          50.000    24389925.880    95711242.523          50.000  
> 2020  7 17 22 19 51.0000000  0 15       0.000000000000
G10  22767700.360   119645012.602          50.000    22767701.200    89345297.965          50.000  
G13  23455959.780   123261942.922          50.000                                                  
G15  21672623.280   113890216.320          50.000                                                  
G16  23333877.520   122620353.898          50.000                                                  
G20  20505324.940   107756208.875          50.000                                                  
G21  22996837.200   120849209.238          50.000                                                  
G26  22709199.980   119337559.332          50.000    22709201.680    89115700.379          50.000  
G29  21713257.020   114103920.469          50.000                                                  
E 3  27080668.020   142309835.563          50.000    27080673.240   106270317.480          50.000  
E 7  25506041.980   134035114.172          50.000    25506047.940   100091141.574          50.000  
E 8  22429945.360   117870160.648          50.000    22429948.060    88019918.156          50.000  
E13  23565836.740   123839291.574          50.000    23565840.240    92477382.734          50.000  
E15  26101944.880   137166596.867          50.000    26101951.060   102429584.402          50.000  
E21  27026550.000   142025418.625          50.000    27026556.240   106057920.895          50.000  
E26  24389601.180   128168179.043          50.000    24389606.520    95709989.320          50.000  
> 2020  7 17 22 19 52.0000000  0 15       0.000000000000
G10  22767176.480   119642259.543          50.000    22767177.300    89343242.109          50.000  
G13  23456116.800   123262768.090          50.000                                                  
G15  21672581.780   113889998.207          50.000                                                  
G16  23333702.640   122619434.910          50.000                                                  
G20  20505084.980   107754947.809          50.000                                                  
G21  22996507.460   120847476.430          50.000                                                  
G26  22709441.540   119338828.703          50.000    22709443.240    89116648.285          50.000  
G29  21713734.820   114106431.320          50.000                                                  
E 3  27081051.400   142311850.176          50.000    27081056.600   106271821.898          50.000  
E 7  25505529.620   134032421.695          50.000    25505535.560   100089130.961          50.000  
E 8  22429866.220   117869744.777          50.000    22429868.920    88019607.602          50.000  
E13  23565852.200   123839372.816          50.000    23565855.700    92477443.402          50.000  
E15  26102266.260   137168285.719          50.000    26102272.440   102430845.555          50.000  
E21  27027025.840   142027919.129          50.000    27027032.060   106059788.152          50.000  
E26  24389281.840   128166500.859          50.000    24389287.180    95708736.129          50.000  
> 2020  7 17 22 19 53.0000000  0 15       0.000000000000
G10  22766652.660   119639506.805          50.000    22766653.480    89341186.492          50.000  
G13  23456273.940   123263593.887          50.000                                                  
G15  21672540.400   113889780.785          50.000                                                  
G16  23333527.880   122618516.551          50.000                                                  
G20  20504845.080   107753687.188          50.000                                                  
G21  22996177.740   120845743.688          50.000                                                  
G26  22709683.200   119340098.578          50.000    22709684.900    89117596.566          50.000  
G29  21714212.700   114108942.582          50.000                                                  
E 3  27081434.820   142313865.109          50.000    27081440.040   106273326.555          50.000  
E 7  25505017.300   134029729.438          50.000    25505023.240   100087120.508          50.000  
E 8  22429787.160   117869329.363          50.000    22429789.880    88019297.391          50.000  
E13  23565867.680   123839454.203          50.000    23565871.180    92477504.176          50.000  
E15  26102587.660   137169974.688          50.000    26102593.840   102432106.797          50.000  
E21  27027501.680   142030419.766          50.000    27027507.920   106061655.512          50.000  
E26  24388962.480   128164822.703          50.000    24388967.820    95707482.961          50.000  
> 2020  7 17 22 19 54.0000000  0 15       0.000000000000
G10  22766128.880   119636754.367          50.000    22766129.720    89339131.105          50.000  
G13  23456431.220   123264420.320          50.000                                                  
G15  21672499.160   113889564.051          50.000                                                  
G16  23333353.260   122617598.820          50.000                                                  
G20  20504605.280   107752427.023          50.000                                                  
G21  22995848.020   120844011.000          50.000                                                  
G26  22709924.940   119341368.957          50.000    22709926.640    89118545.230          50.000  
G29  21714690.660   114111454.273          50.000                                                  
E 3  27081818.320   142315880.371          50.000    27081823.540   106274831.457          50.000  
E 7  25504505.020   134027037.395          50.000    25504510.960   100085110.219          50.000  
E 8  22429708.200   117868914.430          50.000    22429710.920    88018987.539          50.000  
E13  23565883.200   123839535.730          50.000    23565886.700    92477565.059          50.000  
E15  26102909.080   137171663.750          50.000    26102915.260   102433368.113          50.000  
E21  27027977.560   142032920.520          50.000    27027983.800   106063522.957          50.000  
E26  24388643.160   128163144.578          50.000    24388648.500    95706229.816          50.000  
> 2020  7 17 22 19 55.0000000  0 15       0.000000000000
G10  22765605.180   119634002.254          50.000    22765606.000    89337075.957          50.000  
G13  23456588.600   123265247.379          50.000                                                  
G15  21672458.060   113889348.012          50.000                                                  
G16  23333178.740   122616681.719          50.000                                                  
G20  20504365.580   107751167.305          50.000                                                  
G21  22995518.320   120842278.387          50.000                                                  
G26  22710166.780   119342639.859          50.000    22710168.480    89119494.277          50.000  
G29  21715168.700   114113966.387          50.000                                                  
E 3  27082201.860   142317895.945          50.000    27082207.080   106276336.594          50.000  
E 7  25503992.780   134024345.535          50.000    25503998.720   100083100.063          50.000  
E 8  22429629.340   117868499.945          50.000    22429632.040    88018678.023          50.000  
E13  23565898.740   123839617.391          50.000    23565902.240    92477626.039          50.000  
E15  26103230.520   137173352.941          50.000    26103236.700   102434629.520          50.000  
E21  27028453.460   142035421.387          50.000    27028459.700   106065390.484          50.000  
E26  24388323.820   128161466.461          50.000    24388329.160    95704976.676          50.000  
> 2020  7 17 22 19 56.0000000  0 15       0.000000000000
G10  22765081.520   119631250.449          50.000    22765082.360    89335021.039          50.000  
G13  23456746.100   123266075.078          50.000                                                  
G15  21672417.080   113889132.664          50.000                                                  
G16  23333004.340   122615765.246          50.000                                                  
G20  20504125.940   107749908.031          50.000                                                  
G21  22995188.620   120840545.848          50.000                                                  
G26  22710408.720   119343911.262          50.000    22710410.420    89120443.699          50.000  
G29  21715646.820   114116478.918          50.000                                                  
E 3  27082585.480   142319911.852          50.000    27082590.700   106277841.977          50.000  
E 7  25503480.580   134021653.902          50.000    25503486.520   100081090.078          50.000  
E 8  22429550.560   117868085.949          50.000    22429553.260    88018368.867          50.000  
E13  23565914.320   123839699.203          50.000    23565917.800    92477687.133          50.000  
E15  26103552.000   137175042.234          50.000    26103558.160   102435891.004          50.000  
E21  27028929.400   142037922.391          50.000    27028935.620   106067258.117          50.000  
E26  24388004.500   128159788.387          50.000    24388009.820    95703723.570          50.000  
> 2020  7 17 22 19 57.0000000  0 15       0.000000000000
G10  22764557.940   119628498.965          50.000    22764558.760    89332966.359          50.000  
G13  23456903.740   123266903.398          50.000                                                  
G15  21672376.240   113888918.000          50.000                                                  
G16  23332830.060   122614849.398          50.000                                                  
G20  20503886.400   107748649.199          50.000                                                  
G21  22994858.940   120838813.293          50.000                                                  
G26  22710650.760   119345183.156          50.000    22710652.460    89121393.484          50.000  
G29  21716125.040   114118991.867          50.000                                                  
E 3  27082969.160   142321928.074          50.000    27082974.380   106279347.598          50.000  
E 7  25502968.420   134018962.469          50.000    25502974.360   100079080.242          50.000  
E 8  22429471.860   117867672.422          50.000    22429474.580    88018060.066          50.000  
E13  23565929.900   123839781.156          50.000    23565933.400    92477748.332          50.000  
E15  26103873.480   137176731.641          50.000    26103879.640   102437152.574          50.000  
E21  27029405.340   142040423.504          50.000    27029411.580   106069125.832          50.000  
E26  24387685.160   128158110.336          50.000    24387690.500    95702470.480          50.000  
> 2020  7 17 22 19 58.0000000  0 15       0.000000000000
G10  22764034.400   119625747.797          50.000    22764035.240    89330911.918          50.000  
G13  23457061.480   123267732.363          50.000                                                  
G15  21672335.520   113888704.031          50.000                                                  
G16  23332655.900   122613934.188          50.000                                                  
G20  20503646.940   107747390.832          50.000                                                  
G21  22994529.280   120837080.883          50.000                                                  
G26  22710892.900   119346455.566          50.000    22710894.600    89122343.660          50.000  
G29  21716603.320   114121505.250          50.000                                                  
E 3  27083352.900   142323944.629          50.000    27083358.120   106280853.465          50.000  
E 7  25502456.300   134016271.250          50.000    25502462.240   100077070.570          50.000  
E 8  22429393.260   117867259.375          50.000    22429395.980    88017751.621          50.000  
E13  23565945.520   123839863.246          50.000    23565949.020    92477809.633          50.000  
E15  26104194.980   137178421.164          50.000    26104201.160   102438414.227          50.000  
E21  27029881.320   142042924.750          50.000    27029887.540   106070993.645          50.000  
E26  24387365.840   128156432.309          50.000    24387371.180    95701217.410          50.000  
> 2020  7 17 22 19 59.0000000  0 15       0.000000000000
G10  22763510.920   119622996.926          50.000    22763511.760    89328857.691          50.000  
G13  23457219.340   123268561.957          50.000                                                  
G15  21672294.940   113888490.758          50.000                                                  
G16  23332481.860   122613019.602          50.000                                                  
G20  20503407.560   107746132.906          50.000                                                  
G21  22994199.620   120835348.531          50.000                                                  
G26  22711135.140   119347728.500          50.000    22711136.840    89123294.227          50.000  
G29  21717081.680   114124019.051          50.000                                                  
E 3  27083736.700   142325961.480          50.000    27083741.900   106282359.555          50.000  
E 7  25501944.200   134013580.238          50.000    25501950.160   100075061.047          50.000  
E 8  22429314.740   117866846.789          50.000    22429317.460    88017443.523          50.000  
E13  23565961.180   123839945.469          50.000    23565964.660    92477871.031          50.000  
E15  26104516.500   137180110.805          50.000    26104522.680   102439675.973          50.000  
E21  27030357.300   142045426.113          50.000    27030363.540   106072861.543          50.000  
E26  24387046.540   128154754.305          50.000    24387051.880    95699964.355          50.000  
> 2020  7 17 22 20  0.0000000  0 15       0.000000000000
G10  22762987.520   119620246.387          50.000    22762988.340    89326803.715          50.000  
G13  23457377.340   123269392.180          50.000                                                  
G15  21672254.480   113888278.176          50.000                                                  
G16  23332307.940   122612105.660          50.000                                                  
G20  20503168.280   107744875.449          50.000                                                  
G21  22993869.980   120833616.262          50.000                                                  
G26  22711377.460   119349001.953          50.000    22711379.160    89124245.176          50.000  
G29  21717560.120   114126533.281          50.000                                                  
E 3  27084120.560   142327978.672          50.000    27084125.760   106283865.898          50.000  
E 7  25501432.160   134010889.449          50.000    25501438.120   100073051.691          50.000  
E 8  22429236.320   117866434.688          50.000    22429239.040    88017135.785          50.000  
E13  23565976.840   123840027.832          50.000    23565980.340    92477932.539          50.000  
E15  26104838.060   137181800.551          50.000    26104844.220   102440937.797          50.000  
E21  27030833.320   142047927.617          50.000    27030839.560   106074729.547          50.000  
E26  24386727.240   128153076.352          50.000    24386732.560    95698711.340          50.000  
> 2020  7 17 22 20  1.0000000  0 15       0.000000000000
G10  22762464.160   119617496.164          50.000    22762465.000    89324749.973          50.000  
G13  23457535.440   123270223.047          50.000                                                  
G15  21672214.160   113888066.281          50.000                                                  
G16  23332134.140   122611192.352          50.000                                                  
G20  20502929.080   107743618.434          50.000                                                  
G21  22993540.340   120831884.039          50.000                                                  
G26  22711619.880   119350275.906          50.000    22711621.600    89125196.500          50.000  
G29  21718038.640   114129047.938          50.000                                                  
E 3  27084504.480   142329996.188          50.000    27084509.680   106285372.484          50.000  
E 7  25500920.160   134008198.852          50.000    25500926.100   100071042.480          50.000  
E 8  22429158.000   117866023.039          50.000    22429160.700    88016828.383          50.000  
E13  23565992.560   123840110.352          50.000    23565996.040    92477994.160          50.000  
E15  26105159.620   137183490.398          50.000    26105165.800   102442199.695          50.000  
E21  27031309.380   142050429.234          50.000    27031315.600   106076597.637          50.000  
E26  24386407.920   128151398.406          50.000    24386413.260    95697458.324          50.000  
> 2020  7 17 22 20  2.0000000  0 15       0.000000000000
G10  22761940.880   119614746.242          50.000    22761941.700    89322696.457          50.000  
G13  23457693.660   123271054.531          50.000                                                  
G15  21672173.960   113887855.082          50.000                                                  
G16  23331960.460   122610279.668          50.000                                                  
G20  20502689.960   107742361.867          50.000                                                  
G21  22993210.720   120830151.891          50.000                                                  
G26  22711862.400   119351550.363          50.000    22711864.120    89126148.199          50.000  
G29  21718517.240   114131563.008          50.000                                                  
E 3  27084888.460   142332014.020          50.000    27084893.660   106286879.305          50.000  
E 7  25500408.200   134005508.461          50.000    25500414.140   100069033.426          50.000  
E 8  22429079.740   117865611.875          50.000    22429082.460    88016521.348          50.000  
E13  23566008.280   123840192.992          50.000    23566011.760    92478055.871          50.000  
E15  26105481.220   137185180.371          50.000    26105487.380   102443461.688          50.000  
E21  27031785.440   142052930.977          50.000    27031791.680   106078465.820          50.000  
E26  24386088.640   128149720.484          50.000    24386093.960    95696205.332          50.000  
> 2020  7 17 22 20  3.0000000  0 15       0.000000000000
G10  22761417.640   119611996.629          50.000    22761418.460    89320643.172          50.000  
G13  23457852.020   123271886.656          50.000                                                  
G15  21672133.900   113887644.570          50.000                                                  
G16  23331786.920   122609367.609          50.000                                                  
G20  20502450.940   107741105.754          50.000                                                  
G21  22992881.120   120828419.809          50.000                                                  
G26  22712105.020   119352825.324          50.000    22712106.740    89127100.277          50.000  
G29  21718995.920   114134078.508          50.000                                                  
E 3  27085272.500   142334032.176          50.000    27085277.720   106288386.367          50.000  
E 7  25499896.280   134002818.293          50.000    25499902.220   100067024.535          50.000  
E 8  22429001.600   117865201.184          50.000    22429004.320    88016214.660          50.000  
E13  23566024.040   123840275.789          50.000    23566027.520    92478117.699          50.000  
E15  26105802.840   137186870.461          50.000    26105809.000   102444723.762          50.000  
E21  27032261.520   142055432.836          50.000    27032267.760   106080334.090          50.000  
E26  24385769.340   128148042.594          50.000    24385774.680    95694952.363          50.000  
> 2020  7 17 22 20  4.0000000  0 15       0.000000000000
G10  22760894.460   119609247.355          50.000    22760895.300    89318590.141          50.000  
G13  23458010.480   123272719.414          50.000                                                  
G15  21672093.980   113887434.758          50.000                                                  
G16  23331613.480   122608456.188          50.000                                                  
G20  20502211.980   107739850.086          50.000                                                  
G21  22992551.540   120826687.785          50.000                                                  
G26  22712347.740   119354100.809          50.000    22712349.460    89128052.742          50.000  
G29  21719474.700   114136594.426          50.000                                                  
E 3  27085656.600   142336050.645          50.000    27085661.820   106289893.668          50.000  
E 7  25499384.400   134000128.324          50.000    25499390.340   100065015.793          50.000  
E 8  22428923.540   117864790.949          50.000    22428926.240    88015908.320          50.000  
E13  23566039.820   123840358.719          50.000    23566043.300    92478179.629          50.000  
E15  26106124.460   137188560.656          50.000    26106130.640   102445985.922          50.000  
E21  27032737.640   142057934.824          50.000    27032743.880   106082202.457          50.000  
E26  24385450.060   128146364.734          50.000    24385455.380    95693699.418          50.000  
> 2020  7 17 22 20  5.0000000  0 15       0.000000000000
G10  22760371.360   119606498.359          50.000    22760372.180    89316537.316          50.000  
G13  23458169.080   123273552.801          50.000                                                  
G15  21672054.180   113887225.625          50.000                                                  
G16  23331440.160   122607545.406          50.000                                                  
G20  20501973.120   107738594.867          50.000                                                  
G21  22992221.960   120824955.832          50.000                                                  
G26  22712590.560   119355376.785          50.000    22712592.260    89129005.578          50.000  
G29  21719953.540   114139110.773          50.000                                                  
E 3  27086040.760   142338069.434          50.000    27086045.980   106291401.199          50.000  
E 7  25498872.540   133997438.574          50.000    25498878.480   100063007.211          50.000  
E 8  22428845.560   117864381.195          50.000    22428848.280    88015602.336          50.000  
E13  23566055.620   123840441.793          50.000    23566059.120    92478241.664          50.000  
E15  26106446.120   137190250.961          50.000    26106452.300   102447248.160          50.000  
E21  27033213.780   142060436.938          50.000    27033220.020   106084070.914          50.000  
E26  24385130.760   128144686.898          50.000    24385136.100    95692446.488          50.000  
> 2020  7 17 22 20  6.0000000  0 15       0.000000000000
G10  22759848.300   119603749.691          50.000    22759849.120    89314484.738          50.000  
G13  23458327.780   123274386.824          50.000                                                  
G15  21672014.520   113887017.184          50.000                                                  
G16  23331266.960   122606635.254          50.000                                                  
G20  20501734.340   107737340.094          50.000                                                  
G21  22991892.380   120823223.934          50.000                                                  
G26  22712833.460   119356653.270          50.000    22712835.180    89129958.793          50.000  
G29  21720432.460   114141627.535          50.000                                                  
E 3  27086425.000   142340088.566          50.000    27086430.200   106292908.996          50.000  
E 7  25498360.740   133994749.031          50.000    25498366.680   100060998.789          50.000  
E 8  22428767.680   117863971.930          50.000    22428770.400    88015296.715          50.000  
E13  23566071.460   123840525.016          50.000    23566074.960    92478303.809          50.000  
E15  26106767.800   137191941.391          50.000    26106773.980   102448510.496          50.000  
E21  27033689.940   142062939.168          50.000    27033696.180   106085939.461          50.000  
E26  24384811.500   128143009.086          50.000    24384816.840    95691193.578          50.000  
> 2020  7 17 22 20  7.0000000  0 15       0.000000000000
G10  22759325.300   119601001.344          50.000    22759326.140    89312432.398          50.000  
G13  23458486.620   123275221.480          50.000                                                  
G15  21671974.980   113886809.441          50.000                                                  
G16  23331093.880   122605725.730          50.000                                                  
G20  20501495.660   107736085.773          50.000                                                  
G21  22991562.820   120821492.109          50.000                                                  
G26  22713076.460   119357930.277          50.000    22713078.180    89130912.398          50.000  
G29  21720911.460   114144144.715          50.000                                                  
E 3  27086809.280   142342107.996          50.000    27086814.500   106294417.008          50.000  
E 7  25497848.980   133992059.688          50.000    25497854.920   100058990.516          50.000  
E 8  22428689.880   117863563.117          50.000    22428692.600    88014991.434          50.000  
E13  23566087.320   123840608.359          50.000    23566090.820    92478366.047          50.000  
E15  26107089.500   137193631.902          50.000    26107095.660   102449772.891          50.000  
E21  27034166.120   142065441.520          50.000    27034172.360   106087808.102          50.000  
E26  24384492.220   128141331.305          50.000    24384497.560    95689940.688          50.000  
> 2020  7 17 22 20  8.0000000  0 15       0.000000000000
G10  22758802.360   119598253.305          50.000    22758803.200    89310380.289          50.000  
G13  23458645.560   123276056.766          50.000                                                  
G15  21671935.580   113886602.387          50.000                                                  
G16  23330920.920   122604816.844          50.000                                                  
G20  20501257.060   107734831.906          50.000                                                  
G21  22991233.280   120819760.340          50.000                                                  
G26  22713319.560   119359207.785          50.000    22713321.280    89131866.375          50.000  
G29  21721390.560   114146662.316          50.000                                                  
E 3  27087193.620   142344127.770          50.000    27087198.840   106295925.281          50.000  
E 7  25497337.260   133989370.563          50.000    25497343.200   100056982.402          50.000  
E 8  22428612.180   117863154.793          50.000    22428614.900    88014686.516          50.000  
E13  23566103.200   123840691.859          50.000    23566106.700    92478428.398          50.000  
E15  26107411.220   137195322.555          50.000    26107417.380   102451035.391          50.000  
E21  27034642.320   142067944.000          50.000    27034648.560   106089676.836          50.000  
E26  24384172.960   128139653.539          50.000    24384178.300    95688687.813          50.000  
> 2020  7 17 22 20  9.0000000  0 15       0.000000000000
G10  22758279.500   119595505.578          50.000    22758280.320    89308328.414          50.000  
G13  23458804.640   123276892.688          50.000                                                  
G15  21671896.320   113886396.027          50.000                                                  
G16  23330748.080   122603908.578          50.000                                                  
G20  20501018.540   107733578.484          50.000                                                  
G21  22990903.740   120818028.637          50.000                                                  
G26  22713562.760   119360485.789          50.000    22713564.480    89132820.727          50.000  
G29  21721869.720   114149180.355          50.000                                                  
E 3  27087578.040   142346147.855          50.000    27087583.260   106297433.785          50.000  
E 7  25496825.580   133986681.652          50.000    25496831.520   100054974.449          50.000  
E 8  22428534.560   117862746.926          50.000    22428537.280    88014381.938          50.000  
E13  23566119.120   123840775.500          50.000    23566122.620    92478490.859          50.000  
E15  26107732.960   137197013.305          50.000    26107739.120   102452297.961          50.000  
E21  27035118.560   142070446.602          50.000    27035124.800   106091545.660          50.000  
E26  24383853.700   128137975.828          50.000    24383859.040    95687434.977          50.000  
> 2020  7 17 22 20 10.0000000  0 15       0.000000000000
G10  22757756.680   119592758.164          50.000    22757757.500    89306276.770          50.000  
G13  23458963.820   123277729.234          50.000                                                  
G15  21671857.180   113886190.355          50.000                                                  
G16  23330575.380   122603000.953          50.000                                                  
G20  20500780.100   107732325.516          50.000                                                  
G21  22990574.240   120816297.020          50.000                                                  
G26  22713806.060   119361764.316          50.000    22713807.780    89133775.465          50.000  
G29  21722348.960   114151698.797          50.000                                                  
E 3  27087962.500   142348168.250          50.000    27087967.720   106298942.520          50.000  
E 7  25496313.920   133983992.938          50.000    25496319.860   100052966.645          50.000  
E 8  22428457.040   117862339.527          50.000    22428459.760    88014077.711          50.000  
E13  23566135.060   123840859.266          50.000    23566138.560    92478553.414          50.000  
E15  26108054.720   137198704.164          50.000    26108060.880   102453560.617          50.000  
E21  27035594.800   142072949.316          50.000    27035601.040   106093414.566          50.000  
E26  24383534.440   128136298.121          50.000    24383539.780    95686182.145          50.000  
> 2020  7 17 22 20 11.0000000  0 15       0.000000000000
G10  22757233.920   119590011.063          50.000    22757234.760    89304225.359          50.000  
G13  23459123.140   123278566.418          50.000                                                  
G15  21671818.180   113885985.371          50.000                                                  
G16  23330402.780   122602093.945          50.000                                                  
G20  20500541.760   107731072.992          50.000                                                  
G21  22990244.720   120814565.445          50.000                                                  
G26  22714049.460   119363043.340          50.000    22714051.160    89134730.574          50.000  
G29  21722828.280   114154217.668          50.000                                                  
E 3  27088347.040   142350188.980          50.000    27088352.260   106300451.508          50.000  
E 7  25495802.320   133981304.441          50.000    25495808.260   100050959.004          50.000  
E 8  22428379.600   117861932.609          50.000    22428382.320    88013773.848          50.000  
E13  23566151.040   123840943.191          50.000    23566154.520    92478616.082          50.000  
E15  26108376.500   137200395.164          50.000    26108382.680   102454823.371          50.000  
E21  27036071.080   142075452.180          50.000    27036077.320   106095283.594          50.000  
E26  24383215.180   128134620.438          50.000    24383220.520    95684929.328          50.000  
> 2020  7 17 22 20 12.0000000  0 15       0.000000000000
G10  22756711.220   119587264.254          50.000    22756712.060    89302174.168          50.000  
G13  23459282.560   123279404.230          50.000                                                  
G15  21671779.300   113885781.094          50.000                                                  
G16  23330230.300   122601187.582          50.000                                                  
G20  20500303.500   107729820.918          50.000                                                  
G21  22989915.240   120812833.957          50.000                                                  
G26  22714292.940   119364322.875          50.000    22714294.660    89135686.066          50.000  
G29  21723307.700   114156736.961          50.000                                                  
E 3  27088731.640   142352210.031          50.000    27088736.860   106301960.734          50.000  
E 7  25495290.760   133978616.152          50.000    25495296.700   100048951.520          50.000  
E 8  22428302.260   117861526.168          50.000    22428304.980    88013470.336          50.000  
E13  23566167.040   123841027.250          50.000    23566170.520    92478678.855          50.000  
E15  26108698.300   137202086.254          50.000    26108704.480   102456086.199          50.000  
E21  27036547.380   142077955.152          50.000    27036553.620   106097152.695          50.000  
E26  24382895.940   128132942.793          50.000    24382901.280    95683676.543          50.000  
> 2020  7 17 22 20 13.0000000  0 15       0.000000000000
G10  22756188.580   119584517.789          50.000    22756189.420    89300123.234          50.000  
G13  23459442.120   123280242.684          50.000                                                  
G15  21671740.560   113885577.488          50.000                                                  
G16  23330057.940   122600281.840          50.000                                                  
G20  20500065.320   107728569.293          50.000                                                  
G21  22989585.740   120811102.508          50.000                                                  
G26  22714536.520   119365602.926          50.000    22714538.240    89136641.945          50.000  
G29  21723787.180   114159256.668          50.000                                                  
E 3  27089116.280   142354231.402          50.000    27089121.500   106303470.199          50.000  
E 7  25494779.240   133975928.082          50.000    25494785.160   100046944.195          50.000  
E 8  22428225.000   117861120.188          50.000    22428227.720    88013167.172          50.000  
E13  23566183.060   123841111.453          50.000    23566186.540    92478741.734          50.000  
E15  26109020.120   137203777.453          50.000    26109026.300   102457349.109          50.000  
E21  27037023.700   142080458.238          50.000    27037029.940   106099021.883          50.000  
E26  24382576.700   128131265.164          50.000    24382582.040    95682423.770          50.000  
> 2020  7 17 22 20 14.0000000  0 15       0.000000000000
G10  22755666.000   119581771.609          50.000    22755666.840    89298072.516          50.000  
G13  23459601.780   123281081.750          50.000                                                  
G15  21671701.940   113885374.586          50.000                                                  
G16  23329885.700   122599376.738          50.000                                                  
G20  20499827.220   107727318.121          50.000                                                  
G21  22989256.280   120809371.145          50.000                                                  
G26  22714780.200   119366883.477          50.000    22714781.920    89137598.195          50.000  
G29  21724266.740   114161776.801          50.000                                                  
E 3  27089501.000   142356253.082          50.000    27089506.220   106304979.891          50.000  
E 7  25494267.740   133973240.207          50.000    25494273.680   100044937.016          50.000  
E 8  22428147.840   117860714.676          50.000    22428150.560    88012864.352          50.000  
E13  23566199.100   123841195.793          50.000    23566202.600    92478804.715          50.000  
E15  26109341.980   137205468.770          50.000    26109348.160   102458612.102          50.000  
E21  27037500.060   142082961.453          50.000    27037506.280   106100891.164          50.000  
E26  24382257.460   128129587.574          50.000    24382262.800    95681171.023          50.000  
> 2020  7 17 22 20 15.0000000  0 15       0.000000000000
G10  22755143.480   119579025.777          50.000    22755144.320    89296022.055          50.000  
G13  23459761.580   123281921.484          50.000                                                  
G15  21671663.460   113885172.371          50.000                                                  
G16  23329713.600   122598472.258          50.000                                                  
G20  20499589.220   107726067.391          50.000                                                  
G21  22988926.820   120807639.840          50.000                                                  
G26  22715023.980   119368164.531          50.000    22715025.700    89138554.820          50.000  
G29  21724746.380   114164297.352          50.000                                                  
E 3  27089885.780   142358275.094          50.000    27089891.000   106306489.836          50.000  
E 7  25493756.300   133970552.563          50.000    25493762.240   100042930.008          50.000  
E 8  22428070.760   117860309.641          50.000    22428073.480    88012561.891          50.000  
E13  23566215.180   123841280.266          50.000    23566218.660    92478867.797          50.000  
E15  26109663.840   137207160.195          50.000    26109670.020   102459875.180          50.000  
E21  27037976.420   142085464.777          50.000    27037982.660   106102760.531          50.000  
E26  24381938.220   128127909.996          50.000    24381943.560    95679918.289          50.000  
> 2020  7 17 22 20 16.0000000  0 15       0.000000000000
G10  22754621.020   119576280.227          50.000    22754621.860    89293971.801          50.000  
G13  23459921.500   123282761.848          50.000                                                  
G15  21671625.120   113884970.832          50.000                                                  
G16  23329541.600   122597568.410          50.000                                                  
G20  20499351.300   107724817.113          50.000                                                  
G21  22988597.380   120805908.602          50.000                                                  
G26  22715267.860   119369446.094          50.000    22715269.580    89139511.828          50.000  
G29  21725226.120   114166818.324          50.000                                                  
E 3  27090270.620   142360297.422          50.000    27090275.840   106308000.016          50.000  
E 7  25493244.900   133967865.094          50.000    25493250.840   100040923.137          50.000  
E 8  22427993.780   117859905.070          50.000    22427996.480    88012259.781          50.000  
E13  23566231.280   123841364.891          50.000    23566234.780    92478930.988          50.000  
E15  26109985.740   137208851.754          50.000    26109991.920   102461138.355          50.000  
E21  27038452.820   142087968.234          50.000    27038459.060   106104629.992          50.000  
E26  24381619.000   128126232.457          50.000    24381624.340    95678665.578          50.000  
> 2020  7 17 22 20 17.0000000  0 15       0.000000000000
G10  22754098.620   119573535.012          50.000    22754099.460    89291921.801          50.000  
G13  23460081.540   123283602.844          50.000                                                  
G15  21671586.900   113884770.004          50.000                                                  
G16  23329369.720   122596665.207          50.000                                                  
G20  20499113.460   107723567.277          50.000                                                  
G21  22988267.940   120804177.430          50.000                                                  
G26  22715511.820   119370728.164          50.000    22715513.560    89140469.215          50.000  
G29  21725705.920   114169339.719          50.000                                                  
E 3  27090655.500   142362320.066          50.000    27090660.740   106309510.434          50.000  
E 7  25492733.520   133965177.844          50.000    25492739.460   100038916.422          50.000  
E 8  22427916.880   117859500.980          50.000    22427919.600    88011958.023          50.000  
E13  23566247.420   123841449.648          50.000    23566250.900    92478994.285          50.000  
E15  26110307.640   137210543.391          50.000    26110313.820   102462401.590          50.000  
E21  27038929.220   142090471.809          50.000    27038935.460   106106499.543          50.000  
E26  24381299.780   128124554.949          50.000    24381305.120    95677412.895          50.000  
> 2020  7 17 22 20 18.0000000  0 15       0.000000000000
G10  22753576.280   119570790.105          50.000    22753577.120    89289872.031          50.000  
G13  23460241.680   123284444.465          50.000                                                  
G15  21671548.800   113884569.863          50.000                                                  
G16  23329197.960   122595762.625          50.000                                                  
G20  20498875.720   107722317.895          50.000                                                  
G21  22987938.520   120802446.313          50.000                                                  
G26  22715755.900   119372010.738          50.000    22715757.620    89141426.977          50.000  
G29  21726185.800   114171861.535          50.000                                                  
E 3  27091040.480   142364343.047          50.000    27091045.700   106311021.098          50.000  
E 7  25492222.200   133962490.820          50.000    25492228.140   100036909.879          50.000  
E 8  22427840.080   117859097.367          50.000    22427842.780    88011656.625          50.000  
E13  23566263.560   123841534.551          50.000    23566267.060    92479057.688          50.000  
E15  26110629.580   137212235.160          50.000    26110635.760   102463664.926          50.000  
E21  27039405.660   142092975.508          50.000    27039411.900   106108369.188          50.000  
E26  24380980.560   128122877.449          50.000    24380985.900    95676160.219          50.000  
> 2020  7 17 22 20 19.0000000  0 15       0.000000000000
G10  22753054.000   119568045.512          50.000    22753054.840    89287822.492          50.000  
G13  23460401.960   123285286.723          50.000                                                  
G15  21671510.860   113884370.402          50.000                                                  
G16  23329026.320   122594860.676          50.000                                                  
G20  20498638.060   107721068.961          50.000                                                  
G21  22987609.120   120800715.270          50.000                                                  
G26  22716000.060   119373293.828          50.000    22716001.780    89142385.125          50.000  
G29  21726665.780   114174383.766          50.000                                                  
E 3  27091425.480   142366366.332          50.000    27091430.720   106312531.992          50.000  
E 7  25491710.920   133959804.000          50.000    25491716.860   100034903.492          50.000  
E 8  22427763.360   117858694.207          50.000    22427766.060    88011355.563          50.000  
E13  23566279.740   123841619.590          50.000    23566283.240    92479121.191          50.000  
E15  26110951.540   137213927.031          50.000    26110957.700   102464928.332          50.000  
E21  27039882.120   142095479.320          50.000    27039888.360   106110238.918          50.000  
E26  24380661.360   128121199.988          50.000    24380666.700    95674907.570          50.000  
> 2020  7 17 22 20 20.0000000  0 15       0.000000000000
G10  22752531.780   119565301.223          50.000    22752532.620    89285773.184          50.000  
G13  23460562.360   123286129.605          50.000                                                  
G15  21671473.020   113884171.641          50.000                                                  
G16  23328854.820   122593959.371          50.000                                                  
G20  20498400.480   107719820.480          50.000                                                  
G21  22987279.720   120798984.285          50.000                                                  
G26  22716244.320   119374577.418          50.000    22716246.040    89143343.645          50.000  
G29  21727145.820   114176906.422          50.000                                                  
E 3  27091810.580   142368389.949          50.000    27091815.800   106314043.133          50.000  
E 7  25491199.660   133957117.383          50.000    25491205.600   100032897.250          50.000  
E 8  22427686.740   117858291.535          50.000    22427689.440    88011054.867          50.000  
E13  23566295.960   123841704.773          50.000    23566299.460    92479184.797          50.000  
E15  26111273.500   137215619.020          50.000    26111279.680   102466191.832          50.000  
E21  27040358.620   142097983.266          50.000    27040364.860   106112108.746          50.000  
E26  24380342.160   128119522.555          50.000    24380347.480    95673654.941          50.000  
> 2020  7 17 22 20 21.0000000  0 15       0.000000000000
G10  22752009.620   119562557.266          50.000    22752010.460    89283724.121          50.000  
G13  23460722.880   123286973.121          50.000                                                  
G15  21671435.340   113883973.578          50.000                                                  
G16  23328683.420   122593058.684          50.000                                                  
G20  20498162.980   107718572.441          50.000                                                  
G21  22986950.340   120797253.367          50.000                                                  
G26  22716488.680   119375861.516          50.000    22716490.400    89144302.543          50.000  
G29  21727625.940   114179429.500          50.000                                                  
E 3  27092195.720   142370413.887          50.000    27092200.940   106315554.512          50.000  
E 7  25490688.460   133954430.992          50.000    25490694.400   100030891.180          50.000  
E 8  22427610.200   117857889.320          50.000    22427612.900    88010754.512          50.000  
E13  23566312.200   123841790.098          50.000    23566315.680    92479248.516          50.000  
E15  26111595.500   137217311.113          50.000    26111601.680   102467455.406          50.000  
E21  27040835.120   142100487.324          50.000    27040841.360   106113978.656          50.000  
E26  24380022.940   128117845.137          50.000    24380028.280    95672402.324          50.000  
> 2020  7 17 22 20 22.0000000  0 15       0.000000000000
G10  22751487.520   119559813.605          50.000    22751488.360    89281675.281          50.000  
G13  23460883.520   123287817.266          50.000                                                  
G15  21671397.780   113883776.199          50.000                                                  
G16  23328512.140   122592158.633          50.000                                                  
G20  20497925.580   107717324.859          50.000                                                  
G21  22986620.980   120795522.523          50.000                                                  
G26  22716733.120   119377146.129          50.000    22716734.860    89145261.824          50.000  
G29  21728106.160   114181953.004          50.000                                                  
E 3  27092580.920   142372438.137          50.000    27092586.140   106317066.125          50.000  
E 7  25490177.300   133951744.793          50.000    25490183.240   100028885.254          50.000  
E 8  22427533.740   117857487.590          50.000    22427536.460    88010454.520          50.000  
E13  23566328.460   123841875.563          50.000    23566331.960    92479312.336          50.000  
E15  26111917.520   137219003.328          50.000    26111923.700   102468719.070          50.000  
E21  27041311.660   142102991.508          50.000    27041317.900   106115848.664          50.000  
E26  24379703.760   128116167.762          50.000    24379709.080    95671149.738          50.000  
> 2020  7 17 22 20 23.0000000  0 15       0.000000000000
G10  22750965.480   119557070.273          50.000    22750966.320    89279626.688          50.000  
G13  23461044.260   123288662.047          50.000                                                  
G15  21671360.340   113883579.512          50.000                                                  
G16  23328341.000   122591259.219          50.000                                                  
G20  20497688.260   107716077.727          50.000                                                  
G21  22986291.620   120793791.746          50.000                                                  
G26  22716977.680   119378431.242          50.000    22716979.420    89146221.484          50.000  
G29  21728586.440   114184476.930          50.000                                                  
E 3  27092966.180   142374462.707          50.000    27092971.400   106318577.984          50.000  
E 7  25489666.180   133949058.809          50.000    25489672.100   100026879.484          50.000  
E 8  22427457.380   117857086.328          50.000    22427460.100    88010154.875          50.000  
E13  23566344.740   123841961.164          50.000    23566348.240    92479376.262          50.000  
E15  26112239.560   137220695.656          50.000    26112245.740   102469982.824          50.000  
E21  27041788.200   142105495.809          50.000    27041794.440   106117718.758          50.000  
E26  24379384.560   128114490.398          50.000    24379389.900    95669897.164          50.000  
> 2020  7 17 22 20 24.0000000  0 15       0.000000000000
G10  22750443.500   119554327.254          50.000    22750444.340    89277578.328          50.000  
G13  23461205.140   123289507.449          50.000                                                  
G15  21671323.060   113883383.512          50.000                                                  
G16  23328169.960   122590360.430          50.000                                                  
G20  20497451.020   107714831.035          50.000                                                  
G21  22985962.260   120792061.020          50.000                                                  
G26  22717222.320   119379716.859          50.000    22717224.060    89147181.520          50.000  
G29  21729066.800   114187001.270          50.000                                                  
E 3  27093351.500   142376487.602          50.000    27093356.720   106320090.074          50.000  
E 7  25489155.080   133946373.035          50.000    25489161.020   100024873.879          50.000  
E 8  22427381.120   117856685.531          50.000    22427383.820    88009855.582          50.000  
E13  23566361.060   123842046.914          50.000    23566364.560    92479440.293          50.000  
E15  26112561.620   137222388.090          50.000    26112567.800   102471246.652          50.000  
E21  27042264.780   142108000.242          50.000    27042271.020   106119588.949          50.000  
E26  24379065.380   128112813.078          50.000    24379070.720    95668644.621          50.000  
> 2020  7 17 22 20 25.0000000  0 15       0.000000000000
G10  22749921.580   119551584.539          50.000    22749922.420    89275530.195          50.000  
G13  23461366.140   123290353.484          50.000                                                  
G15  21671285.880   113883188.219          50.000                                                  
G16  23327999.040   122589462.270          50.000                                                  
G20  20497213.860   107713584.801          50.000                                                  
G21  22985632.940   120790330.371          50.000                                                  
G26  22717467.060   119381002.980          50.000    22717468.800    89148141.930          50.000  
G29  21729547.260   114189526.031          50.000                                                  
E 3  27093736.900   142378512.809          50.000    27093742.120   106321602.406          50.000  
E 7  25488644.040   133943687.480          50.000    25488649.980   100022868.434          50.000  
E 8  22427304.940   117856285.219          50.000    22427307.660    88009556.645          50.000  
E13  23566377.420   123842132.801          50.000    23566380.900    92479504.430          50.000  
E15  26112883.700   137224080.648          50.000    26112889.880   102472510.574          50.000  
E21  27042741.380   142110504.781          50.000    27042747.620   106121459.223          50.000  
E26  24378746.200   128111135.773          50.000    24378751.540    95667392.086          50.000  
> 2020  7 17 22 20 26.0000000  0 15       0.000000000000
G10  22749399.720   119548842.137          50.000    22749400.560    89273482.293          50.000  
G13  23461527.260   123291200.156          50.000                                                  
G15  21671248.860   113882993.609          50.000                                                  
G16  23327828.260   122588564.750          50.000                                                  
G20  20496976.800   107712339.016          50.000                                                  
G21  22985303.620   120788599.777          50.000                                                  
G26  22717711.900   119382289.621          50.000    22717713.640    89149102.727          50.000  
G29  21730027.780   114192051.219          50.000                                                  
E 3  27094122.340   142380538.355          50.000    27094127.560   106323114.988          50.000  
E 7  25488133.040   133941002.125          50.000    25488138.960   100020863.137          50.000  
E 8  22427228.840   117855885.355          50.000    22427231.560    88009258.047          50.000  
E13  23566393.780   123842218.832          50.000    23566397.280    92479568.676          50.000  
E15  26113205.800   137225773.305          50.000    26113211.980   102473774.570          50.000  
E21  27043218.000   142113009.453          50.000    27043224.240   106123329.594          50.000  
E26  24378427.020   128109458.496          50.000    24378432.360    95666139.574          50.000  
> 2020  7 17 22 20 27.0000000  0 15       0.000000000000
G10  22748877.920   119546100.059          50.000    22748878.760    89271434.641          50.000  
G13  23461688.500   123292047.457          50.000                                                  
G15  21671211.960   113882799.691          50.000                                                  
G16  23327657.580   122587667.852          50.000                                                  
G20  20496739.820   107711093.680          50.000                                                  
G21  22984974.300   120786869.254          50.000                                                  
G26  22717956.840   119383576.754          50.000    22717958.580    89150063.898          50.000  
G29  21730508.380   114194576.820          50.000                                                  
E 3  27094507.840   142382564.203          50.000    27094513.060   106324627.797          50.000  
E 7  25487622.060   133938316.973          50.000    25487628.000   100018857.992          50.000  
E 8  22427152.840   117855485.980          50.000    22427155.560    88008959.813          50.000  
E13  23566410.180   123842305.000          50.000    23566413.660    92479633.020          50.000  
E15  26113527.940   137227466.078          50.000    26113534.120   102475038.656          50.000  
E21  27043694.660   142115514.242          50.000    27043700.900   106125200.047          50.000  
E26  24378107.840   128107781.234          50.000    24378113.180    95664887.074          50.000  
> 2020  7 17 22 20 28.0000000  0 15       0.000000000000
G10  22748356.180   119543358.277          50.000    22748357.020    89269387.207          50.000  
G13  23461849.840   123292895.387          50.000                                                  
G15  21671175.180   113882606.461          50.000                                                  
G16  23327487.020   122586771.582          50.000                                                  
G20  20496502.920   107709848.801          50.000                                                  
G21  22984645.000   120785138.789          50.000                                                  
G26  22718201.860   119384864.395          50.000    22718203.600    89151025.445          50.000  
G29  21730989.080   114197102.848          50.000                                                  
E 3  27094893.420   142384590.383          50.000    27094898.640   106326140.852          50.000  
E 7  25487111.140   133935632.051          50.000    25487117.080   100016853.016          50.000  
E 8  22427076.940   117855087.078          50.000    22427079.660    88008661.930          50.000  
E13  23566426.600   123842391.313          50.000    23566430.100    92479697.477          50.000  
E15  26113850.080   137229158.969          50.000    26113856.260   102476302.824          50.000  
E21  27044171.320   142118019.152          50.000    27044177.560   106127070.598          50.000  
E26  24377788.680   128106104.023          50.000    24377794.020    95663634.613          50.000  
> 2020  7 17 22 20 29.0000000  0 15       0.000000000000
G10  22747834.480   119540616.820          50.000    22747835.340    89267340.016          50.000  
G13  23462011.320   123293743.953          50.000                                                  
G15  21671138.540   113882413.934          50.000                                                  
G16  23327316.580   122585875.949          50.000                                                  
G20  20496266.120   107708604.367          50.000                                                  
G21  22984315.720   120783408.387          50.000                                                  
G26  22718447.000   119386152.551          50.000    22718448.740    89151987.379          50.000  
G29  21731469.840   114199629.305          50.000                                                  
E 3  27095279.040   142386616.875          50.000    27095284.260   106327654.141          50.000  
E 7  25486600.260   133932947.328          50.000    25486606.180   100014848.195          50.000  
E 8  22427001.120   117854688.648          50.000    22427003.840    88008364.402          50.000  
E13  23566443.060   123842477.762          50.000    23566446.540    92479762.031          50.000  
E15  26114172.240   137230851.969          50.000    26114178.420   102477567.078          50.000  
E21  27044648.020   142120524.184          50.000    27044654.260   106128941.238          50.000  
E26  24377469.520   128104426.828          50.000    24377474.860    95662382.160          50.000  
> 2020  7 17 22 20 30.0000000  0 15       0.000000000000
G10  22747312.860   119537875.676          50.000    22747313.720    89265293.059          50.000  
G13  23462172.920   123294593.148          50.000                                                  
G15  21671102.040   113882222.094          50.000                                                  
G16  23327146.280   122584980.934          50.000                                                  
G20  20496029.400   107707360.387          50.000                                                  
G21  22983986.460   120781678.055          50.000                                                  
G26  22718692.220   119387441.203          50.000    22718693.960    89152949.684          50.000  
G29  21731950.700   114202156.180          50.000                                                  
E 3  27095664.740   142388643.691          50.000    27095669.960   106329167.672          50.000  
E 7  25486089.420   133930262.832          50.000    25486095.340   100012843.535          50.000  
E 8  22426925.400   117854290.684          50.000    22426928.100    88008067.223          50.000  
E13  23566459.540   123842564.355          50.000    23566463.020    92479826.695          50.000  
E15  26114494.440   137232545.086          50.000    26114500.620   102478831.418          50.000  
E21  27045124.740   142123029.340          50.000    27045130.980   106130811.969          50.000  
E26  24377150.360   128102749.648          50.000    24377155.700    95661129.723          50.000  
> 2020  7 17 22 20 31.0000000  0 15       0.000000000000
G10  22746791.300   119535134.848          50.000    22746792.140    89263246.336          50.000  
G13  23462334.640   123295442.980          50.000                                                  
G15  21671065.660   113882030.953          50.000                                                  
G16  23326976.080   122584086.566          50.000                                                  
G20  20495792.760   107706116.859          50.000                                                  
G21  22983657.200   120779947.789          50.000                                                  
G26  22718937.540   119388730.363          50.000    22718939.280    89153912.367          50.000  
G29  21732431.620   114204683.488          50.000                                                  
E 3  27096050.480   142390670.824          50.000    27096055.720   106330681.438          50.000  
E 7  25485578.600   133927578.531          50.000    25485584.540   100010839.031          50.000  
E 8  22426849.760   117853893.207          50.000    22426852.460    88007770.402          50.000  
E13  23566476.040   123842651.094          50.000    23566479.520    92479891.465          50.000  
E15  26114816.640   137234238.316          50.000    26114822.820   102480095.840          50.000  
E21  27045601.460   142125534.609          50.000    27045607.720   106132682.789          50.000  
E26  24376831.220   128101072.516          50.000    24376836.560    95659877.320          50.000  
> 2020  7 17 22 20 32.0000000  0 15       0.000000000000
G10  22746269.800   119532394.328          50.000    22746270.640    89261199.848          50.000  
G13  23462496.480   123296293.441          50.000                                                  
G15  21671029.420   113881840.484          50.000                                                  
G16  23326806.000   122583192.820          50.000                                                  
G20  20495556.200   107704873.773          50.000                                                  
G21  22983327.940   120778217.566          50.000                                                  
G26  22719182.960   119390020.035          50.000    22719184.700    89154875.434          50.000  
G29  21732912.640   114207211.203          50.000                                                  
E 3  27096436.300   142392698.281          50.000    27096441.520   106332195.449          50.000  
E 7  25485067.840   133924894.441          50.000    25485073.780   100008834.680          50.000  
E 8  22426774.200   117853496.172          50.000    22426776.920    88007473.918          50.000  
E13  23566492.560   123842737.969          50.000    23566496.060    92479956.340          50.000  
E15  26115138.880   137235931.633          50.000    26115145.060   102481360.332          50.000  
E21  27046078.220   142128040.004          50.000    27046084.480   106134553.695          50.000  
E26  24376512.080   128099395.395          50.000    24376517.420    95658624.922          50.000  
> 2020  7 17 22 20 33.0000000  0 15       0.000000000000
G10  22745748.360   119529654.137          50.000    22745749.200    89259153.602          50.000  
G13  23462658.440   123297144.535          50.000                                                  
G15  21670993.320   113881650.723          50.000                                                  
G16  23326636.060   122582299.711          50.000                                                  
G20  20495319.740   107703631.133          50.000                                                  
G21  22982998.700   120776487.426          50.000                                                  
G26  22719428.460   119391310.203          50.000    22719430.200    89155838.871          50.000  
G29  21733393.720   114209739.355          50.000                                                  
E 3  27096822.180   142394726.051          50.000    27096827.400   106333709.688          50.000  
E 7  25484557.120   133922210.563          50.000    25484563.040   100006830.480          50.000  
E 8  22426698.740   117853099.637          50.000    22426701.460    88007177.801          50.000  
E13  23566509.120   123842824.980          50.000    23566512.620    92480021.320          50.000  
E15  26115461.140   137237625.094          50.000    26115467.320   102482624.926          50.000  
E21  27046555.020   142130545.516          50.000    27046561.260   106136424.695          50.000  
E26  24376192.940   128097718.309          50.000    24376198.280    95657372.555          50.000  
> 2020  7 17 22 20 34.0000000  0 15       0.000000000000
G10  22745226.960   119526914.289          50.000    22745227.760    89257107.758          50.000  
G13  23462820.500   123297996.258          50.000                                                  
G15  21670957.340   113881461.629          50.000                                                  
G16  23326466.180   122581407.410          50.000                                                  
G20  20495083.360   107702388.984          50.000                                                  
G21  22982669.480   120774757.316          50.000                                                  
G26  22719674.100   119392600.789          50.000    22719675.820    89156802.680          50.000  
G29  21733874.920   114212267.793          50.000                                                  
E 3  27097208.100   142396754.172          50.000    27097213.320   106335224.223          50.000  
E 7  25484046.420   133919526.938          50.000    25484052.340   100004826.504          50.000  
E 8  22426623.360   117852703.570          50.000    22426626.080    88006882.047          50.000  
E13  23566525.720   123842912.137          50.000    23566529.200    92480086.402          50.000  
E15  26115783.400   137239318.621          50.000    26115789.580   102483889.559          50.000  
E21  27047031.860   142133050.969          50.000    27047038.120   106138295.543          50.000  
E26  24375873.800   128096041.246          50.000    24375879.140    95656120.203          50.000  
> 2020  7 17 22 20 35.0000000  0 15       0.000000000000
G10  22744705.640   119524174.707          50.000    22744706.440    89255061.969          50.000  
G13  23462982.700   123298848.613          50.000                                                  
G15  21670921.480   113881273.234          50.000                                                  
G16  23326296.460   122580515.563          50.000                                                  
G20  20494847.060   107701147.246          50.000                                                  
G21  22982340.280   120773027.289          50.000                                                  
G26  22719919.800   119393891.969          50.000    22719921.520    89157766.871          50.000  
G29  21734356.160   114214796.777          50.000                                                  
E 3  27097594.100   142398782.605          50.000    27097599.300   106336738.961          50.000  
E 7  25483535.760   133916843.477          50.000    25483541.700   100002822.621          50.000  
E 8  22426548.080   117852307.984          50.000    22426550.800    88006586.641          50.000  
E13  23566542.320   123842999.438          50.000    23566545.820    92480151.594          50.000  
E15  26116105.700   137241012.301          50.000    26116111.880   102485154.316          50.000  
E21  27047508.680   142135556.711          50.000    27047514.960   106140166.711          50.000  
E26  24375554.660   128094364.215          50.000    24375560.000    95654867.875          50.000  
> 2020  7 17 22 20 36.0000000  0 15       0.000000000000
G10  22744184.380   119521435.445          50.000    22744185.180    89253016.418          50.000  
G13  23463145.020   123299701.586          50.000                                                  
G15  21670885.760   113881085.535          50.000                                                  
G16  23326126.880   122579624.348          50.000                                                  
G20  20494610.860   107699905.957          50.000                                                  
G21  22982011.080   120771297.336          50.000                                                  
G26  22720165.600   119395183.652          50.000    22720167.320    89158731.441          50.000  
G29  21734837.500   114217326.184          50.000                                                  
E 3  27097980.140   142400811.348          50.000    27097985.360   106338253.930          50.000  
E 7  25483025.160   133914160.266          50.000    25483031.100   100000818.926          50.000  
E 8  22426472.900   117851912.852          50.000    22426475.600    88006291.574          50.000  
E13  23566558.960   123843086.895          50.000    23566562.460    92480216.902          50.000  
E15  26116428.020   137242706.102          50.000    26116434.200   102486419.168          50.000  
E21  27047985.540   142138062.602          50.000    27047991.800   106142037.992          50.000  
E26  24375235.540   128092687.227          50.000    24375240.880    95653615.578          50.000  
> 2020  7 17 22 20 37.0000000  0 15       0.000000000000
G10  22743663.160   119518696.488          50.000    22743663.980    89250971.094          50.000  
G13  23463307.460   123300555.199          50.000                                                  
G15  21670850.180   113880898.531          50.000                                                  
G16  23325957.400   122578733.762          50.000                                                  
G20  20494374.740   107698665.121          50.000                                                  
G21  22981681.900   120769567.445          50.000                                                  
G26  22720411.500   119396475.848          50.000    22720413.220    89159696.391          50.000  
G29  21735318.920   114219856.016          50.000                                                  
E 3  27098366.260   142402840.422          50.000    27098371.480   106339769.145          50.000  
E 7  25482514.600   133911477.230          50.000    25482520.520    99998815.359          50.000  
E 8  22426397.800   117851518.199          50.000    22426400.500    88005996.867          50.000  
E13  23566575.620   123843174.477          50.000    23566579.120    92480282.305          50.000  
E15  26116750.360   137244400.000          50.000    26116756.540   102487684.094          50.000  
E21  27048462.400   142140568.594          50.000    27048468.680   106143909.348          50.000  
E26  24374916.420   128091010.246          50.000    24374921.760    95652363.289          50.000  
> 2020  7 17 22 20 38.0000000  0 15       0.000000000000
G10  22743142.020   119515957.863          50.000    22743142.840    89248926.016          50.000  
G13  23463470.020   123301409.430          50.000                                                  
G15  21670814.720   113880712.219          50.000                                                  
G16  23325788.060   122577843.813          50.000                                                  
G20  20494138.700   107697424.734          50.000                                                  
G21  22981352.720   120767837.625          50.000                                                  
G26  22720657.500   119397768.543          50.000    22720659.220    89160661.715          50.000  
G29  21735800.400   114222386.258          50.000                                                  
E 3  27098752.440   142404869.789          50.000    27098757.660   106341284.582          50.000  
E 7  25482004.080   133908794.426          50.000    25482010.000    99996811.969          50.000  
E 8  22426322.780   117851124.016          50.000    22426325.480    88005702.512          50.000  
E13  23566592.320   123843262.211          50.000    23566595.820    92480347.816          50.000  
E15  26117072.720   137246094.020          50.000    26117078.900   102488949.105          50.000  
E21  27048939.300   142143074.711          50.000    27048945.580   106145780.797          50.000  
E26  24374597.300   128089333.293          50.000    24374602.640    95651111.020          50.000  
> 2020  7 17 22 20 39.0000000  0 15       0.000000000000
G10  22742620.940   119513219.547          50.000    22742621.740    89246881.172          50.000  
G13  23463632.700   123302264.297          50.000                                                  
G15  21670779.400   113880526.602          50.000                                                  
G16  23325618.820   122576954.484          50.000                                                  
G20  20493902.740   107696184.793          50.000                                                  
G21  22981023.560   120766107.867          50.000                                                  
G26  22720903.580   119399061.754          50.000    22720905.300    89161627.422          50.000  
G29  21736281.980   114224916.926          50.000                                                  
E 3  27099138.680   142406899.488          50.000    27099143.900   106342800.266          50.000  
E 7  25481493.600   133906111.813          50.000    25481499.520    99994808.719          50.000  
E 8  22426247.860   117850730.309          50.000    22426250.560    88005408.508          50.000  
E13  23566609.040   123843350.074          50.000    23566612.540    92480413.430          50.000  
E15  26117395.100   137247788.152          50.000    26117401.280   102490214.203          50.000  
E21  27049416.220   142145580.949          50.000    27049422.500   106147652.340          50.000  
E26  24374278.200   128087656.387          50.000    24374283.540    95649858.785          50.000  
> 2020  7 17 22 20 40.0000000  0 15       0.000000000000
G10  22742099.920   119510481.539          50.000    22742100.720    89244836.551          50.000  
G13  23463795.500   123303119.797          50.000                                                  
G15  21670744.220   113880341.680          50.000                                                  
G16  23325449.720   122576065.793          50.000                                                  
G20  20493666.880   107694945.309          50.000                                                  
G21  22980694.420   120764378.180          50.000                                                  
G26  22721149.780   119400355.465          50.000    22721151.500    89162593.500          50.000  
G29  21736763.620   114227448.020          50.000                                                  
E 3  27099524.980   142408929.504          50.000    27099530.200   106344316.184          50.000  
E 7  25480983.140   133903429.418          50.000    25480989.080    99992805.633          50.000  
E 8  22426173.020   117850337.074          50.000    22426175.740    88005114.859          50.000  
E13  23566625.780   123843438.086          50.000    23566629.280    92480479.152          50.000  
E15  26117717.500   137249482.395          50.000    26117723.680   102491479.383          50.000  
E21  27049893.160   142148087.309          50.000    27049899.440   106149523.969          50.000  
E26  24373959.100   128085979.484          50.000    24373964.440    95648606.555          50.000  
> 2020  7 17 22 20 41.0000000  0 15       0.000000000000
G10  22741578.960   119507743.852          50.000    22741579.760    89242792.176          50.000  
G13  23463958.420   123303975.934          50.000                                                  
G15  21670709.160   113880157.449          50.000                                                  
G16  23325280.720   122575177.746          50.000                                                  
G20  20493431.100   107693706.270          50.000                                                  
G21  22980365.280   120762648.563          50.000                                                  
G26  22721396.060   119401649.680          50.000    22721397.780    89163559.957          50.000  
G29  21737245.360   114229979.535          50.000                                                  
E 3  27099911.340   142410959.844          50.000    27099916.560   106345832.344          50.000  
E 7  25480472.740   133900747.234          50.000    25480478.660    99990802.707          50.000  
E 8  22426098.280   117849944.305          50.000    22426101.000    88004821.559          50.000  
E13  23566642.560   123843526.238          50.000    23566646.040    92480544.984          50.000  
E15  26118039.920   137251176.754          50.000    26118046.100   102492744.652          50.000  
E21  27050370.140   142150593.789          50.000    27050376.400   106151395.688          50.000  
E26  24373640.000   128084302.613          50.000    24373645.340    95647354.344          50.000  
> 2020  7 17 22 20 42.0000000  0 15       0.000000000000
G10  22741058.040   119505006.477          50.000    22741058.860    89240748.027          50.000  
G13  23464121.440   123304832.688          50.000                                                  
G15  21670674.240   113879973.914          50.000                                                  
G16  23325111.860   122574290.324          50.000                                                  
G20  20493195.400   107692467.688          50.000                                                  
G21  22980036.160   120760919.004          50.000                                                  
G26  22721642.420   119402944.398          50.000    22721644.160    89164526.785          50.000  
G29  21737727.180   114232511.473          50.000                                                  
E 3  27100297.760   142412990.496          50.000    27100302.980   106347348.742          50.000  
E 7  25479962.380   133898065.273          50.000    25479968.300    99988799.941          50.000  
E 8  22426023.620   117849552.004          50.000    22426026.340    88004528.605          50.000  
E13  23566659.360   123843614.523          50.000    23566662.840    92480610.910          50.000  
E15  26118362.360   137252871.215          50.000    26118368.560   102494009.996          50.000  
E21  27050847.120   142153100.391          50.000    27050853.400   106153267.500          50.000  
E26  24373320.900   128082625.777          50.000    24373326.240    95646102.164          50.000  
> 2020  7 17 22 20 43.0000000  0 15       0.000000000000
G10  22740537.200   119502269.418          50.000    22740538.000    89238704.117          50.000  
G13  23464284.600   123305690.078          50.000                                                  
G15  21670639.440   113879791.074          50.000                                                  
G16  23324943.100   122573403.531          50.000                                                  
G20  20492959.800   107691229.555          50.000                                                  
G21  22979707.040   120759189.516          50.000                                                  
G26  22721888.900   119404239.629          50.000    22721890.640    89165494.000          50.000  
G29  21738209.060   114235043.832          50.000                                                  
E 3  27100684.240   142415021.469          50.000    27100689.460   106348865.379          50.000  
E 7  25479452.060   133895383.520          50.000    25479457.980    99986797.336          50.000  
E 8  22425949.060   117849160.184          50.000    22425951.780    88004236.016          50.000  
E13  23566676.180   123843702.965          50.000    23566679.680    92480676.953          50.000  
E15  26118684.840   137254565.801          50.000    26118691.020   102495275.430          50.000  
E21  27051324.140   142155607.113          50.000    27051330.400   106155139.402          50.000  
E26  24373001.820   128080948.957          50.000    24373007.140    95644849.992          50.000  
> 2020  7 17 22 20 44.0000000  0 15       0.000000000000
G10  22740016.420   119499532.672          50.000    22740017.220    89236660.438          50.000  
G13  23464447.880   123306548.109          50.000                                                  
G15  21670604.780   113879608.918          50.000                                                  
G16  23324774.460   122572517.367          50.000                                                  
G20  20492724.260   107689991.871          50.000                                                  
G21  22979377.940   120757460.090          50.000                                                  
G26  22722135.480   119405535.355          50.000    22722137.200    89166461.582          50.000  
G29  21738691.040   114237576.605          50.000                                                  
E 3  27101070.780   142417052.773          50.000    27101076.000   106350382.258          50.000  
E 7  25478941.760   133892701.961          50.000    25478947.700    99984794.875          50.000  
E 8  22425874.600   117848768.836          50.000    22425877.300    88003943.773          50.000  
E13  23566693.040   123843791.535          50.000    23566696.520    92480743.094          50.000  
E15  26119007.320   137256260.488          50.000    26119013.500   102496540.945          50.000  
E21  27051801.160   142158113.945          50.000    27051807.440   106157011.387          50.000  
E26  24372682.720   128079272.176          50.000    24372688.060    95643597.852          50.000  
> 2020  7 17 22 20 45.0000000  0 15       0.000000000000
G10  22739495.680   119496796.242          50.000    22739496.500    89234617.000          50.000  
G13  23464611.280   123307406.766          50.000                                                  
G15  21670570.240   113879427.457          50.000                                                  
G16  23324605.960   122571631.855          50.000                                                  
G20  20492488.840   107688754.645          50.000                                                  
G21  22979048.860   120755730.730          50.000                                                  
G26  22722382.140   119406831.594          50.000    22722383.860    89167429.551          50.000  
G29  21739173.080   114240109.797          50.000                                                  
E 3  27101457.380   142419084.383          50.000    27101462.600   106351899.371          50.000  
E 7  25478431.520   133890020.617          50.000    25478437.440    99982792.578          50.000  
E 8  22425800.200   117848377.949          50.000    22425802.920    88003651.879          50.000  
E13  23566709.920   123843880.250          50.000    23566713.400    92480809.344          50.000  
E15  26119329.840   137257955.293          50.000    26119336.020   102497806.547          50.000  
E21  27052278.220   142160620.902          50.000    27052284.500   106158883.465          50.000  
E26  24372363.640   128077595.410          50.000    24372368.980    95642345.723          50.000  
> 2020  7 17 22 20 46.0000000  0 15       0.000000000000
G10  22738975.020   119494060.121          50.000    22738975.820    89232573.789          50.000  
G13  23464774.800   123308266.059          50.000                                                  
G15  21670535.840   113879246.684          50.000                                                  
G16  23324437.580   122570746.969          50.000                                                  
G20  20492253.480   107687517.855          50.000                                                  
G21  22978719.780   120754001.430          50.000                                                  
G26  22722628.900   119408128.332          50.000    22722630.640    89168397.887          50.000  
G29  21739655.220   114242643.414          50.000                                                  
E 3  27101844.040   142421116.320          50.000    27101849.260   106353416.727          50.000  
E 7  25477921.320   133887339.488          50.000    25477927.240    99980790.438          50.000  
E 8  22425725.920   117847987.535          50.000    22425728.620    88003360.340          50.000  
E13  23566726.820   123843969.105          50.000    23566730.320    92480875.703          50.000  
E15  26119652.360   137259650.203          50.000    26119658.540   102499072.230          50.000  
E21  27052755.300   142163127.973          50.000    27052761.580   106160755.629          50.000  
E26  24372044.580   128075918.688          50.000    24372049.920    95641093.629          50.000  
> 2020  7 17 22 20 47.0000000  0 15       0.000000000000
G10  22738454.420   119491324.320          50.000    22738455.220    89230530.820          50.000  
G13  23464938.440   123309125.988          50.000                                                  
G15  21670501.580   113879066.602          50.000                                                  
G16  23324269.300   122569862.715          50.000                                                  
G20  20492018.220   107686281.523          50.000                                                  
G21  22978390.720   120752272.191          50.000                                                  
G26  22722875.760   119409425.594          50.000    22722877.500    89169366.617          50.000  
G29  21740137.440   114245177.453          50.000                                                  
E 3  27102230.760   142423148.563          50.000    27102235.980   106354934.316          50.000  
E 7  25477411.160   133884658.578          50.000    25477417.080    99978788.465          50.000  
E 8  22425651.700   117847597.594          50.000    22425654.420    88003069.152          50.000  
E13  23566743.760   123844058.102          50.000    23566747.260    92480942.164          50.000  
E15  26119974.920   137261345.227          50.000    26119981.100   102500337.996          50.000  
E21  27053232.400   142165635.160          50.000    27053238.680   106162627.883          50.000  
E26  24371725.500   128074241.961          50.000    24371730.840    95639841.531          50.000  
> 2020  7 17 22 20 48.0000000  0 15       0.000000000000
G10  22737933.860   119488588.840          50.000    22737934.680    89228488.090          50.000  
G13  23465102.180   123309986.531          50.000                                                  
G15  21670467.440   113878887.211          50.000                                                  
G16  23324101.160   122568979.102          50.000                                                  
G20  20491783.040   107685045.645          50.000                                                  
G21  22978061.660   120750543.027          50.000                                                  
G26  22723122.720   119410723.336          50.000    22723124.440    89170335.707          50.000  
G29  21740619.720   114247711.902          50.000                                                  
E 3  27102617.560   142425181.129          50.000    27102622.760   106356452.145          50.000  
E 7  25476901.040   133881977.887          50.000    25476906.960    99976786.656          50.000  
E 8  22425577.600   117847208.145          50.000    22425580.300    88002778.336          50.000  
E13  23566760.720   123844147.238          50.000    23566764.220    92481008.730          50.000  
E15  26120297.500   137263040.371          50.000    26120303.680   102501603.852          50.000  
E21  27053709.540   142168142.477          50.000    27053715.800   106164500.234          50.000  
E26  24371406.440   128072565.293          50.000    24371411.780    95638589.480          50.000  
> 2020  7 17 22 20 49.0000000  0 15       0.000000000000
G10  22737413.380   119485853.668          50.000    22737414.200    89226445.586          50.000  
G13  23465266.060   123310847.719          50.000                                                  
G15  21670433.440   113878708.512          50.000                                                  
G16  23323933.120   122568096.113          50.000                                                  
G20  20491547.940   107683810.215          50.000                                                  
G21  22977732.620   120748813.926          50.000                                                  
G26  22723369.760   119412021.594          50.000    22723371.500    89171305.180          50.000  
G29  21741102.100   114250246.777          50.000                                                  
E 3  27103004.400   142427214.020          50.000    27103009.620   106357970.215          50.000  
E 7  25476390.960   133879297.391          50.000    25476396.880    99974784.992          50.000  
E 8  22425503.580   117846819.145          50.000    22425506.280    88002487.852          50.000  
E13  23566777.720   123844236.523          50.000    23566781.200    92481075.406          50.000  
E15  26120620.080   137264735.621          50.000    26120626.280   102502869.789          50.000  
E21  27054186.680   142170649.902          50.000    27054192.960   106166372.664          50.000  
E26  24371087.400   128070888.633          50.000    24371092.720    95637337.434          50.000  
> 2020  7 17 22 20 50.0000000  0 15       0.000000000000
G10  22736892.960   119483118.813          50.000    22736893.760    89224403.324          50.000  
G13  23465430.060   123311709.539          50.000                                                  
G15  21670399.560   113878530.508          50.000                                                  
G16  23323765.220   122567213.762          50.000                                                  
G20  20491312.920   107682575.227          50.000                                                  
G21  22977403.600   120747084.895          50.000                                                  
G26  22723616.920   119413320.352          50.000    22723618.640    89172275.027          50.000  
G29  21741584.540   114252782.078          50.000                                                  
E 3  27103391.300   142429247.227          50.000    27103396.520   106359488.523          50.000  
E 7  25475880.920   133876617.105          50.000    25475886.840    99972783.484          50.000  
E 8  22425429.640   117846430.617          50.000    22425432.340    88002197.723          50.000  
E13  23566794.720   123844325.938          50.000    23566798.220    92481142.184          50.000  
E15  26120942.700   137266430.984          50.000    26120948.880   102504135.813          50.000  
E21  27054663.860   142173157.461          50.000    27054670.120   106168245.195          50.000  
E26  24370768.340   128069212.008          50.000    24370773.660    95636085.410          50.000  
> 2020  7 17 22 20 51.0000000  0 15       0.000000000000
G10  22736372.580   119480384.273          50.000    22736373.400    89222361.293          50.000  
G13  23465594.180   123312571.984          50.000                                                  
G15  21670365.820   113878353.188          50.000                                                  
G16  23323597.440   122566332.031          50.000                                                  
G20  20491078.000   107681340.688          50.000                                                  
G21  22977074.580   120745355.918          50.000                                                  
G26  22723864.160   119414619.621          50.000    22723865.900    89173245.254          50.000  
G29  21742067.080   114255317.793          50.000                                                  
E 3  27103778.280   142431280.746          50.000    27103783.480   106361007.063          50.000  
E 7  25475370.920   133873937.031          50.000    25475376.840    99970782.137          50.000  
E 8  22425355.800   117846042.563          50.000    22425358.500    88001907.945          50.000  
E13  23566811.780   123844415.496          50.000    23566815.260    92481209.066          50.000  
E15  26121265.340   137268126.461          50.000    26121271.520   102505401.918          50.000  
E21  27055141.060   142175665.133          50.000    27055147.320   106170117.809          50.000  
E26  24370449.300   128067535.398          50.000    24370454.620    95634833.402          50.000  
> 2020  7 17 22 20 52.0000000  0 15       0.000000000000
G10  22735852.280   119477650.051          50.000    22735853.100    89220319.500          50.000  
G13  23465758.420   123313435.063          50.000                                                  
G15  21670332.220   113878176.570          50.000                                                  
G16  23323429.760   122565450.938          50.000                                                  
G20  20490843.160   107680106.602          50.000                                                  
G21  22976745.580   120743627.008          50.000                                                  
G26  22724111.500   119415919.391          50.000    22724113.240    89174215.855          50.000  
G29  21742549.680   114257853.922          50.000                                                  
E 3  27104165.300   142433314.594          50.000    27104170.520   106362525.848          50.000  
E 7  25474860.960   133871257.180          50.000    25474866.860    99968780.953          50.000  
E 8  22425282.040   117845654.984          50.000    22425284.740    88001618.527          50.000  
E13  23566828.840   123844505.199          50.000    23566832.320    92481276.055          50.000  
E15  26121588.000   137269822.039          50.000    26121594.180   102506668.098          50.000  
E21  27055618.260   142178172.918          50.000    27055624.540   106171990.508          50.000  
E26  24370130.240   128065858.824          50.000    24370135.580    95633581.418          50.000  
> 2020  7 17 22 20 53.0000000  0 15       0.000000000000
G10  22735332.040   119474916.129          50.000    22735332.840    89218277.934          50.000  
G13  23465922.780   123314298.770          50.000                                                  
G15  21670298.740   113878000.629          50.000                                                  
G16  23323262.220   122564570.477          50.000                                                  
G20  20490608.400   107678872.961          50.000                                                  
G21  22976416.600   120741898.168          50.000                                                  
G26  22724358.920   119417219.660          50.000    22724360.660    89175186.836          50.000  
G29  21743032.380   114260390.477          50.000                                                  
E 3  27104552.380   142435348.754          50.000    27104557.600   106364044.863          50.000  
E 7  25474351.040   133868577.539          50.000    25474356.940    99966779.930          50.000  
E 8  22425208.380   117845267.883          50.000    22425211.080    88001329.461          50.000  
E13  23566845.940   123844595.047          50.000    23566849.420    92481343.152          50.000  
E15  26121910.680   137271517.746          50.000    26121916.860   102507934.375          50.000  
E21  27056095.500   142180680.820          50.000    27056101.780   106173863.297          50.000  
E26  24369811.220   128064182.281          50.000    24369816.540    95632329.461          50.000  
> 2020  7 17 22 20 54.0000000  0 15       0.000000000000
G10  22734811.840   119472182.539          50.000    22734812.660    89216236.613          50.000  
G13  23466087.260   123315163.105          50.000                                                  
G15  21670265.380   113877825.395          50.000                                                  
G16  23323094.800   122563690.660          50.000                                                  
G20  20490373.740   107677639.777          50.000                                                  
G21  22976087.620   120740169.383          50.000                                                  
G26  22724606.460   119418520.441          50.000    22724608.200    89176158.191          50.000  
G29  21743515.140   114262927.449          50.000                                                  
E 3  27104939.540   142437383.230          50.000    27104944.760   106365564.121          50.000  
E 7  25473841.160   133865898.109          50.000    25473847.060    99964779.059          50.000  
E 8  22425134.800   117844881.242          50.000    22425137.500    88001040.738          50.000  
E13  23566863.060   123844685.031          50.000    23566866.540    92481410.348          50.000  
E15  26122233.400   137273213.559          50.000    26122239.560   102509200.734          50.000  
E21  27056572.780   142183188.848          50.000    27056579.040   106175736.172          50.000  
E26  24369492.180   128062505.762          50.000    24369497.500    95631077.516          50.000  
> 2020  7 17 22 20 55.0000000  0 15       0.000000000000
G10  22734291.720   119469449.254          50.000    22734292.540    89214195.520          50.000  
G13  23466251.860   123316028.070          50.000                                                  
G15  21670232.180   113877650.855          50.000                                                  
G16  23322927.500   122562811.465          50.000                                                  
G20  20490139.160   107676407.039          50.000                                                  
G21  22975758.660   120738440.664          50.000                                                  
G26  22724854.080   119419821.734          50.000    22724855.820    89177129.930          50.000  
G29  21743998.000   114265464.848          50.000                                                  
E 3  27105326.740   142439418.035          50.000    27105331.960   106367083.617          50.000  
E 7  25473331.320   133863218.891          50.000    25473337.220    99962778.344          50.000  
E 8  22425061.320   117844495.074          50.000    22425064.020    88000752.367          50.000  
E13  23566880.220   123844775.152          50.000    23566883.700    92481477.648          50.000  
E15  26122556.120   137274909.477          50.000    26122562.300   102510467.164          50.000  
E21  27057050.060   142185696.988          50.000    27057056.320   106177609.137          50.000  
E26  24369173.160   128060829.266          50.000    24369178.480    95629825.590          50.000  
> 2020  7 17 22 20 56.0000000  0 15       0.000000000000
G10  22733771.640   119466716.277          50.000    22733772.460    89212154.660          50.000  
G13  23466416.580   123316893.660          50.000                                                  
G15  21670199.080   113877477.004          50.000                                                  
G16  23322760.300   122561932.898          50.000                                                  
G20  20489904.660   107675174.750          50.000                                                  
G21  22975429.700   120736712.012          50.000                                                  
G26  22725101.800   119421123.496          50.000    22725103.540    89178102.023          50.000  
G29  21744480.940   114268002.660          50.000                                                  
E 3  27105714.020   142441453.148          50.000    27105719.240   106368603.344          50.000  
E 7  25472821.520   133860539.871          50.000    25472827.420    99960777.781          50.000  
E 8  22424987.920   117844109.383          50.000    22424990.620    88000464.352          50.000  
E13  23566897.380   123844865.418          50.000    23566900.880    92481545.055          50.000  
E15  26122878.860   137276605.523          50.000    26122885.040   102511733.691          50.000  
E21  27057527.360   142188205.250          50.000    27057533.640   106179482.188          50.000  
E26  24368854.140   128059152.813          50.000    24368859.460    95628573.691          50.000  
> 2020  7 17 22 20 57.0000000  0 15       0.000000000000
G10  22733251.640   119463983.629          50.000    22733252.460    89210114.043          50.000  
G13  23466581.400   123317759.883          50.000                                                  
G15  21670166.140   113877303.848          50.000                                                  
G16  23322593.240   122561054.969          50.000                                                  
G20  20489670.240   107673942.910          50.000                                                  
G21  22975100.760   120734983.418          50.000                                                  
G26  22725349.620   119422425.797          50.000    22725351.360    89179074.516          50.000  
G29  21744963.940   114270540.898          50.000                                                  
E 3  27106101.340   142443488.586          50.000    27106106.560   106370123.313          50.000  
E 7  25472311.760   133857861.090          50.000    25472317.680    99958777.391          50.000  
E 8  22424914.620   117843724.164          50.000    22424917.320    88000176.688          50.000  
E13  23566914.600   123844955.828          50.000    23566918.080    92481612.566          50.000  
E15  26123201.620   137278301.676          50.000    26123207.800   102513000.297          50.000  
E21  27058004.700   142190713.629          50.000    27058010.960   106181355.324          50.000  
E26  24368535.120   128057476.363          50.000    24368540.440    95627321.797          50.000  
> 2020  7 17 22 20 58.0000000  0 15       0.000000000000
G10  22732731.700   119461251.309          50.000    22732732.520    89208073.656          50.000  
G13  23466746.360   123318626.734          50.000                                                  
G15  21670133.320   113877131.379          50.000                                                  
G16  23322426.300   122560177.699          50.000                                                  
G20  20489435.920   107672711.520          50.000                                                  
G21  22974771.840   120733254.906          50.000                                                  
G26  22725597.540   119423728.609          50.000    22725599.280    89180047.371          50.000  
G29  21745447.040   114273079.527          50.000                                                  
E 3  27106488.740   142445524.340          50.000    27106493.960   106371643.520          50.000  
E 7  25471802.040   133855182.492          50.000    25471807.960    99956777.141          50.000  
E 8  22424841.400   117843339.414          50.000    22424844.100    87999889.375          50.000  
E13  23566931.820   123845046.383          50.000    23566935.300    92481680.191          50.000  
E15  26123524.420   137279997.938          50.000    26123530.600   102514266.984          50.000  
E21  27058482.040   142193222.129          50.000    27058488.320   106183228.555          50.000  
E26  24368216.120   128055799.965          50.000    24368221.440    95626069.941          50.000  
