     3.03           OBSERVATION DATA    M: Mixed            RINEX VERSION / TYPE
sbp2rinex v2.2 (RTKL                    20210504 171526 UTC PGM / RUN BY / DATE 
log: 2020-06-10-US-MTV-1.sbp                                COMMENT             
format: Swift Navigation SBP, option: CONVBASE,EPHALL,OBSALLCOMMENT             
                                                            MARKER NAME         
                                                            MARKER NUMBER       
                                                            MARKER TYPE         
                                                            OBSERVER / AGENCY   
                                                            REC # / TYPE / VERS 
                                                            ANT # / TYPE        
 -2725684.2823 -4348425.7643  3774468.1774                  APPROX POSITION XYZ 
        0.0000        0.0000        0.0000                  ANTENNA: DELTA H/E/N
G    6 C1C L1C S1C C5I L5I S5I                              SYS / # / OBS TYPES 
E    6 C1B L1B S1B C5I L5I S5I                              SYS / # / OBS TYPES 
  2020     6    10    17    47   53.0000000     GPS         TIME OF FIRST OBS   
  2020     6    10    18    16   59.0000000     GPS         TIME OF LAST OBS    
G                                                           SYS / PHASE SHIFT   
E                                                           SYS / PHASE SHIFT   
  0                                                         GLONASS SLOT / FRQ #
 C1C    0.000 C1P    0.000 C2C    0.000 C2P    0.000        GLONASS COD/PHS/BIS 
                                                            END OF HEADER       
> 2020  6 10 17 47 53.0000000  0 13       0.000000000000
G 2  22936242.120   120530760.219          50.000                                                  
G 6  21527076.540   113125492.078          50.000    21527079.420    84476826.430          50.000  
G12  23698894.820   124538519.992          50.000                                                  
G13  24220923.240   127281826.813          50.000                                                  
G15  24539927.200   128957970.820          50.000                                                  
G17  21653721.120   113791030.496          50.000                                                  
G19  20224060.880   106278156.520          50.000                                                  
G24  21548316.700   113237113.633          50.000    21548318.680    84560180.258          50.000  
G28  22815443.140   119896090.594          50.000                                                  
E 2  27192303.760   142896490.660          50.000    27192309.000   106708402.578          50.000  
E15  23720835.340   124653791.207          50.000    23720840.940    93085608.883          50.000  
E27  24354662.180   127984588.473          50.000    24354666.400    95572895.035          50.000  
E30  22652812.800   119041304.180          50.000    22652816.780    88894466.781          50.000  
> 2020  6 10 17 47 54.0000000  0 13       0.000000000000
G 2  22935648.220   120527639.180          50.000                                                  
G 6  21526655.280   113123278.387          50.000    21526658.160    84475173.352          50.000  
G12  23698376.700   124535797.277          50.000                                                  
G13  24221538.100   127285057.852          50.000                                                  
G15  24540411.740   128960517.051          50.000                                                  
G17  21654132.620   113793192.879          50.000                                                  
G19  20224238.820   106279091.578          50.000                                                  
G24  21547985.060   113235370.848          50.000    21547987.040    84558878.828          50.000  
G28  22815771.520   119897816.145          50.000                                                  
E 2  27192696.900   142898556.602          50.000    27192702.140   106709945.324          50.000  
E15  23720495.900   124652007.477          50.000    23720501.500    93084276.875          50.000  
E27  24354364.380   127983023.531          50.000    24354368.600    95571726.414          50.000  
E30  22652925.280   119041895.219          50.000    22652929.240    88894908.141          50.000  
> 2020  6 10 17 47 55.0000000  0 13       0.000000000000
G 2  22935054.340   120524518.387          50.000                                                  
G 6  21526234.140   113121065.219          50.000    21526237.000    84473520.660          50.000  
G12  23697858.600   124533074.594          50.000                                                  
G13  24222152.940   127288288.895          50.000                                                  
G15  24540896.300   128963063.387          50.000                                                  
G17  21654544.140   113795355.473          50.000                                                  
G19  20224416.840   106280027.117          50.000                                                  
G24  21547653.520   113233628.594          50.000    21547655.500    84557577.797          50.000  
G28  22816099.900   119899541.828          50.000                                                  
E 2  27193090.060   142900622.684          50.000    27193095.300   106711488.176          50.000  
E15  23720156.540   124650224.129          50.000    23720162.140    93082945.156          50.000  
E27  24354066.620   127981458.695          50.000    24354070.820    95570557.867          50.000  
E30  22653037.800   119042486.469          50.000    22653041.760    88895349.656          50.000  
> 2020  6 10 17 47 56.0000000  0 13       0.000000000000
G 2  22934460.520   120521397.840          50.000                                                  
G 6  21525813.080   113118852.566          50.000    21525815.960    84471868.355          50.000  
G12  23697340.500   124530351.945          50.000                                                  
G13  24222767.780   127291519.910          50.000                                                  
G15  24541380.860   128965609.828          50.000                                                  
G17  21654955.700   113797518.277          50.000                                                  
G19  20224594.960   106280963.156          50.000                                                  
G24  21547322.080   113231886.871          50.000    21547324.060    84556277.160          50.000  
G28  22816428.300   119901267.637          50.000                                                  
E 2  27193483.240   142902688.910          50.000    27193488.480   106713031.137          50.000  
E15  23719817.260   124648441.188          50.000    23719822.860    93081613.738          50.000  
E27  24353768.840   127979893.949          50.000    24353773.060    95569389.387          50.000  
E30  22653150.340   119043077.934          50.000    22653154.320    88895791.336          50.000  
> 2020  6 10 17 47 57.0000000  0 13       0.000000000000
G 2  22933866.760   120518277.555          50.000                                                  
G 6  21525392.120   113116640.438          50.000    21525395.000    84470216.441          50.000  
G12  23696822.400   124527629.332          50.000                                                  
G13  24223382.640   127294750.945          50.000                                                  
G15  24541865.460   128968156.371          50.000                                                  
G17  21655367.320   113799681.297          50.000                                                  
G19  20224773.180   106281899.672          50.000                                                  
G24  21546990.740   113230145.676          50.000    21546992.720    84554976.918          50.000  
G28  22816756.740   119902993.582          50.000                                                  
E 2  27193876.460   142904755.277          50.000    27193881.700   106714574.203          50.000  
E15  23719478.060   124646658.641          50.000    23719483.660    93080282.617          50.000  
E27  24353471.100   127978329.289          50.000    24353475.320    95568220.973          50.000  
E30  22653262.940   119043669.629          50.000    22653266.900    88896233.188          50.000  
> 2020  6 10 17 47 58.0000000  0 13       0.000000000000
G 2  22933273.020   120515157.512          50.000                                                  
G 6  21524971.280   113114428.824          50.000    21524974.140    84468564.914          50.000  
G12  23696304.300   124524906.758          50.000                                                  
G13  24223997.480   127297982.000          50.000                                                  
G15  24542350.080   128970703.023          50.000                                                  
G17  21655778.960   113801844.527          50.000                                                  
G19  20224951.480   106282836.676          50.000                                                  
G24  21546659.500   113228404.996          50.000    21546661.480    84553677.059          50.000  
G28  22817085.200   119904719.652          50.000                                                  
E 2  27194269.700   142906821.773          50.000    27194274.940   106716117.363          50.000  
E15  23719138.920   124644876.488          50.000    23719144.520    93078951.793          50.000  
E27  24353173.380   127976764.746          50.000    24353177.580    95567052.645          50.000  
E30  22653375.580   119044261.551          50.000    22653379.540    88896675.207          50.000  
> 2020  6 10 17 47 59.0000000  0 13       0.000000000000
G 2  22932679.340   120512037.723          50.000                                                  
G 6  21524550.520   113112217.730          50.000    21524553.380    84466913.773          50.000  
G12  23695786.220   124522184.219          50.000                                                  
G13  24224612.320   127301213.027          50.000                                                  
G15  24542834.700   128973249.773          50.000                                                  
G17  21656190.660   113804007.965          50.000                                                  
G19  20225129.880   106283774.160          50.000                                                  
G24  21546328.360   113226664.859          50.000    21546330.340    84552377.605          50.000  
G28  22817413.700   119906445.852          50.000                                                  
E 2  27194662.980   142908888.438          50.000    27194668.220   106717660.648          50.000  
E15  23718799.860   124643094.734          50.000    23718805.460    93077621.262          50.000  
E27  24352875.680   127975200.293          50.000    24352879.880    95565884.387          50.000  
E30  22653488.260   119044853.688          50.000    22653492.220    88897117.383          50.000  
> 2020  6 10 17 48  0.0000000  0 13       0.000000000000
G 2  22932085.720   120508918.176          50.000                                                  
G 6  21524129.860   113110007.148          50.000    21524132.720    84465263.016          50.000  
G12  23695268.140   124519461.707          50.000                                                  
G13  24225227.180   127304444.059          50.000                                                  
G15  24543319.360   128975796.617          50.000                                                  
G17  21656602.380   113806171.613          50.000                                                  
G19  20225308.380   106284712.141          50.000                                                  
G24  21545997.320   113224925.250          50.000    21545999.300    84551078.551          50.000  
G28  22817742.200   119908172.180          50.000                                                  
E 2  27195056.280   142910955.211          50.000    27195061.520   106719204.020          50.000  
E15  23718460.880   124641313.383          50.000    23718466.480    93076291.031          50.000  
E27  24352577.980   127973635.922          50.000    24352582.200    95564716.188          50.000  
E30  22653600.980   119045446.039          50.000    22653604.940    88897559.727          50.000  
> 2020  6 10 17 48  1.0000000  0 13       0.000000000000
G 2  22931492.140   120505798.891          50.000                                                  
G 6  21523709.280   113107797.078          50.000    21523712.160    84463612.641          50.000  
G12  23694750.080   124516739.230          50.000                                                  
G13  24225842.020   127307675.121          50.000                                                  
G15  24543804.020   128978343.578          50.000                                                  
G17  21657014.160   113808335.477          50.000                                                  
G19  20225486.960   106285650.602          50.000                                                  
G24  21545666.380   113223186.184          50.000    21545668.360    84549779.895          50.000  
G28  22818070.740   119909898.633          50.000                                                  
E 2  27195449.600   142913022.145          50.000    27195454.840   106720747.508          50.000  
E15  23718121.980   124639532.414          50.000    23718127.580    93074961.090          50.000  
E27  24352280.320   127972071.684          50.000    24352284.520    95563548.086          50.000  
E30  22653713.740   119046038.609          50.000    22653717.720    88898002.230          50.000  
> 2020  6 10 17 48  2.0000000  0 13       0.000000000000
G 2  22930898.600   120502679.855          50.000                                                  
G 6  21523288.820   113105587.543          50.000    21523291.700    84461962.664          50.000  
G12  23694232.020   124514016.789          50.000                                                  
G13  24226456.880   127310906.156          50.000                                                  
G15  24544288.720   128980890.637          50.000                                                  
G17  21657425.960   113810499.555          50.000                                                  
G19  20225665.640   106286589.559          50.000                                                  
G24  21545335.560   113221447.645          50.000    21545337.540    84548481.633          50.000  
G28  22818399.300   119911625.227          50.000                                                  
E 2  27195842.960   142915089.219          50.000    27195848.200   106722291.102          50.000  
E15  23717783.140   124637751.848          50.000    23717788.740    93073631.445          50.000  
E27  24351982.660   127970507.520          50.000    24351986.880    95562380.043          50.000  
E30  22653826.560   119046631.422          50.000    22653830.520    88898444.914          50.000  
> 2020  6 10 17 48  3.0000000  0 13       0.000000000000
G 2  22930305.120   120499561.055          50.000                                                  
G 6  21522868.460   113103378.508          50.000    21522871.340    84460313.063          50.000  
G12  23693713.960   124511294.387          50.000                                                  
G13  24227071.720   127314137.191          50.000                                                  
G15  24544773.420   128983437.793          50.000                                                  
G17  21657837.820   113812663.828          50.000                                                  
G19  20225844.400   106287528.996          50.000                                                  
G24  21545004.820   113219709.617          50.000    21545006.800    84547183.758          50.000  
G28  22818727.880   119913351.949          50.000                                                  
E 2  27196236.320   142917156.430          50.000    27196241.580   106723834.797          50.000  
E15  23717444.400   124635971.676          50.000    23717449.980    93072302.098          50.000  
E27  24351685.040   127968943.441          50.000    24351689.240    95561212.063          50.000  
E30  22653939.400   119047224.430          50.000    22653943.360    88898887.742          50.000  
> 2020  6 10 17 48  4.0000000  0 13       0.000000000000
G 2  22929711.680   120496442.520          50.000                                                  
G 6  21522448.200   113101170.016          50.000    21522451.060    84458663.863          50.000  
G12  23693195.900   124508572.020          50.000                                                  
G13  24227686.560   127317368.238          50.000                                                  
G15  24545258.160   128985985.063          50.000                                                  
G17  21658249.700   113814828.324          50.000                                                  
G19  20226023.260   106288468.926          50.000                                                  
G24  21544674.180   113217972.105          50.000    21544676.160    84545886.270          50.000  
G28  22819056.480   119915078.789          50.000                                                  
E 2  27196629.740   142919223.781          50.000    27196634.980   106725378.598          50.000  
E15  23717105.720   124634191.906          50.000    23717111.300    93070973.051          50.000  
E27  24351387.420   127967379.480          50.000    24351391.620    95560044.168          50.000  
E30  22654052.280   119047817.672          50.000    22654056.260    88899330.750          50.000  
> 2020  6 10 17 48  5.0000000  0 13       0.000000000000
G 2  22929118.280   120493324.238          50.000                                                  
G 6  21522028.040   113098962.035          50.000    21522030.900    84457015.047          50.000  
G12  23692677.860   124505849.691          50.000                                                  
G13  24228301.420   127320599.277          50.000                                                  
G15  24545742.900   128988532.426          50.000                                                  
G17  21658661.640   113816993.023          50.000                                                  
G19  20226202.220   106289409.336          50.000                                                  
G24  21544343.640   113216235.137          50.000    21544345.620    84544589.180          50.000  
G28  22819385.120   119916805.770          50.000                                                  
E 2  27197023.160   142921291.281          50.000    27197028.420   106726922.508          50.000  
E15  23716767.100   124632412.523          50.000    23716772.700    93069644.289          50.000  
E27  24351089.840   127965815.633          50.000    24351094.040    95558876.363          50.000  
E30  22654165.220   119048411.137          50.000    22654169.180    88899773.922          50.000  
> 2020  6 10 17 48  6.0000000  0 13       0.000000000000
G 2  22928524.940   120490206.211          50.000                                                  
G 6  21521607.960   113096754.570          50.000    21521610.840    84455366.617          50.000  
G12  23692159.820   124503127.395          50.000                                                  
G13  24228916.260   127323830.316          50.000                                                  
G15  24546227.680   128991079.898          50.000                                                  
G17  21659073.600   113819157.930          50.000                                                  
G19  20226381.260   106290350.223          50.000                                                  
G24  21544013.220   113214498.688          50.000    21544015.180    84543292.480          50.000  
G28  22819713.780   119918532.883          50.000                                                  
E 2  27197416.620   142923358.906          50.000    27197421.860   106728466.512          50.000  
E15  23716428.580   124630633.543          50.000    23716434.180    93068315.832          50.000  
E27  24350792.260   127964251.863          50.000    24350796.460    95557708.613          50.000  
E30  22654278.200   119049004.820          50.000    22654282.160    88900217.254          50.000  
> 2020  6 10 17 48  7.0000000  0 13       0.000000000000
G 2  22927931.640   120487088.426          50.000                                                  
G 6  21521188.000   113094547.637          50.000    21521190.860    84453718.582          50.000  
G12  23691641.800   124500405.129          50.000                                                  
G13  24229531.100   127327061.359          50.000                                                  
G15  24546712.460   128993627.477          50.000                                                  
G17  21659485.600   113821323.047          50.000                                                  
G19  20226560.400   106291291.605          50.000                                                  
G24  21543682.880   113212762.781          50.000    21543684.860    84541996.188          50.000  
G28  22820042.460   119920260.121          50.000                                                  
E 2  27197810.100   142925426.684          50.000    27197815.360   106730010.629          50.000  
E15  23716090.120   124628854.965          50.000    23716095.720    93066987.672          50.000  
E27  24350494.700   127962688.199          50.000    24350498.900    95556540.941          50.000  
E30  22654391.220   119049598.734          50.000    22654395.180    88900660.762          50.000  
> 2020  6 10 17 48  8.0000000  0 13       0.000000000000
G 2  22927338.400   120483970.895          50.000                                                  
G 6  21520768.140   113092341.219          50.000    21520771.000    84452070.934          50.000  
G12  23691123.760   124497682.895          50.000                                                  
G13  24230145.960   127330292.406          50.000                                                  
G15  24547197.260   128996175.152          50.000                                                  
G17  21659897.660   113823488.375          50.000                                                  
G19  20226739.640   106292233.465          50.000                                                  
G24  21543352.640   113211027.410          50.000    21543354.620    84540700.293          50.000  
G28  22820371.180   119921987.492          50.000                                                  
E 2  27198203.620   142927494.598          50.000    27198208.860   106731554.848          50.000  
E15  23715751.740   124627076.773          50.000    23715757.340    93065659.805          50.000  
E27  24350197.160   127961124.625          50.000    24350201.360    95555373.340          50.000  
E30  22654504.260   119050192.855          50.000    22654508.240    88901104.426          50.000  
> 2020  6 10 17 48  9.0000000  0 13       0.000000000000
G 2  22926745.200   120480853.625          50.000                                                  
G 6  21520348.360   113090135.309          50.000    21520351.220    84450423.664          50.000  
G12  23690605.760   124494960.703          50.000                                                  
G13  24230760.800   127333523.453          50.000                                                  
G15  24547682.100   128998722.938          50.000                                                  
G17  21660309.740   113825653.902          50.000                                                  
G19  20226918.960   106293175.816          50.000                                                  
G24  21543022.520   113209292.570          50.000    21543024.500    84539404.797          50.000  
G28  22820699.900   119923714.984          50.000                                                  
E 2  27198597.160   142929562.645          50.000    27198602.400   106733099.168          50.000  
E15  23715413.440   124625298.973          50.000    23715419.040    93064332.227          50.000  
E27  24349899.640   127959561.152          50.000    24349903.840    95554205.809          50.000  
E30  22654617.360   119050787.199          50.000    22654621.340    88901548.250          50.000  
> 2020  6 10 17 48 10.0000000  0 13       0.000000000000
G 2  22926152.040   120477736.594          50.000                                                  
G 6  21519928.680   113087929.926          50.000    21519931.560    84448776.789          50.000  
G12  23690087.740   124492238.551          50.000                                                  
G13  24231375.660   127336754.496          50.000                                                  
G15  24548166.940   129001270.816          50.000                                                  
G17  21660721.880   113827819.652          50.000                                                  
G19  20227098.380   106294118.652          50.000                                                  
G24  21542692.500   113207558.266          50.000    21542694.460    84538109.699          50.000  
G28  22821028.660   119925442.617          50.000                                                  
E 2  27198990.720   142931630.840          50.000    27198995.960   106734643.598          50.000  
E15  23715075.220   124623521.578          50.000    23715080.800    93063004.953          50.000  
E27  24349602.140   127957997.773          50.000    24349606.340    95553038.352          50.000  
E30  22654730.520   119051381.766          50.000    22654734.480    88901992.246          50.000  
> 2020  6 10 17 48 11.0000000  0 13       0.000000000000
G 2  22925558.940   120474619.824          50.000                                                  
G 6  21519509.120   113085725.063          50.000    21519511.980    84447130.301          50.000  
G12  23689569.740   124489516.438          50.000                                                  
G13  24231990.500   127339985.527          50.000                                                  
G15  24548651.820   129003818.809          50.000                                                  
G17  21661134.040   113829985.613          50.000                                                  
G19  20227277.880   106295061.965          50.000                                                  
G24  21542362.560   113205824.473          50.000    21542364.540    84536814.988          50.000  
G28  22821357.440   119927170.375          50.000                                                  
E 2  27199384.320   142933699.172          50.000    27199389.560   106736188.129          50.000  
E15  23714737.060   124621744.578          50.000    23714742.660    93061677.973          50.000  
E27  24349304.660   127956434.496          50.000    24349308.860    95551870.969          50.000  
E30  22654843.700   119051976.547          50.000    22654847.660    88902436.402          50.000  
> 2020  6 10 17 48 12.0000000  0 13       0.000000000000
G 2  22924965.880   120471503.309          50.000                                                  
G 6  21519089.640   113083520.727          50.000    21519092.520    84445484.207          50.000  
G12  23689051.740   124486794.344          50.000                                                  
G13  24232605.340   127343216.570          50.000                                                  
G15  24549136.700   129006366.891          50.000                                                  
G17  21661546.240   113832151.781          50.000                                                  
G19  20227457.480   106296005.770          50.000                                                  
G24  21542032.740   113204091.203          50.000    21542034.700    84535520.660          50.000  
G28  22821686.260   119928898.266          50.000                                                  
E 2  27199777.940   142935767.648          50.000    27199783.180   106737732.770          50.000  
E15  23714398.980   124619967.977          50.000    23714404.580    93060351.289          50.000  
E27  24349007.200   127954871.320          50.000    24349011.400    95550703.664          50.000  
E30  22654956.920   119052571.566          50.000    22654960.900    88902880.734          50.000  
> 2020  6 10 17 48 13.0000000  0 13       0.000000000000
G 2  22924372.880   120468387.031          50.000                                                  
G 6  21518670.280   113081316.902          50.000    21518673.140    84443838.496          50.000  
G12  23688533.760   124484072.297          50.000                                                  
G13  24233220.200   127346447.613          50.000                                                  
G15  24549621.600   129008915.078          50.000                                                  
G17  21661958.500   113834318.156          50.000                                                  
G19  20227637.180   106296950.059          50.000                                                  
G24  21541703.000   113202358.453          50.000    21541704.980    84534226.727          50.000  
G28  22822015.080   119930626.281          50.000                                                  
E 2  27200171.580   142937836.258          50.000    27200176.820   106739277.512          50.000  
E15  23714060.980   124618191.773          50.000    23714066.580    93059024.906          50.000  
E27  24348709.760   127953308.230          50.000    24348713.960    95549536.422          50.000  
E30  22655070.200   119053166.793          50.000    22655074.160    88903325.223          50.000  
> 2020  6 10 17 48 14.0000000  0 13       0.000000000000
G 2  22923779.920   120465271.008          50.000                                                  
G 6  21518251.000   113079113.602          50.000    21518253.860    84442193.172          50.000  
G12  23688015.760   124481350.277          50.000                                                  
G13  24233835.040   127349678.648          50.000                                                  
G15  24550106.520   129011463.359          50.000                                                  
G17  21662370.780   113836484.754          50.000                                                  
G19  20227816.960   106297894.828          50.000                                                  
G24  21541373.360   113200626.242          50.000    21541375.340    84532933.191          50.000  
G28  22822343.940   119932354.434          50.000                                                  
E 2  27200565.260   142939905.020          50.000    27200570.500   106740822.363          50.000  
E15  23713723.060   124616415.965          50.000    23713728.660    93057698.816          50.000  
E27  24348412.320   127951745.250          50.000    24348416.540    95548369.262          50.000  
E30  22655183.500   119053762.250          50.000    22655187.480    88903769.883          50.000  
> 2020  6 10 17 48 15.0000000  0 13       0.000000000000
G 2  22923187.000   120462155.234          50.000                                                  
G 6  21517831.820   113076910.820          50.000    21517834.680    84440548.238          50.000  
G12  23687497.800   124478628.301          50.000                                                  
G13  24234449.900   127352909.691          50.000                                                  
G15  24550591.460   129014011.750          50.000                                                  
G17  21662783.120   113838651.547          50.000                                                  
G19  20227996.840   106298840.082          50.000                                                  
G24  21541043.840   113198894.563          50.000    21541045.820    84531640.055          50.000  
G28  22822672.820   119934082.699          50.000                                                  
E 2  27200958.960   142941973.914          50.000    27200964.200   106742367.316          50.000  
E15  23713385.200   124614640.547          50.000    23713390.800    93056373.020          50.000  
E27  24348114.920   127950182.363          50.000    24348119.120    95547202.172          50.000  
E30  22655296.860   119054357.914          50.000    22655300.820    88904214.695          50.000  
> 2020  6 10 17 48 16.0000000  0 13       0.000000000000
G 2  22922594.140   120459039.711          50.000                                                  
G 6  21517412.740   113074708.555          50.000    21517415.600    84438903.695          50.000  
G12  23686979.820   124475906.367          50.000                                                  
G13  24235064.740   127356140.727          50.000                                                  
G15  24551076.420   129016560.242          50.000                                                  
G17  21663195.480   113840818.559          50.000                                                  
G19  20228176.800   106299785.832          50.000                                                  
G24  21540714.420   113197163.422          50.000    21540716.400    84530347.320          50.000  
G28  22823001.720   119935811.105          50.000                                                  
E 2  27201352.680   142944042.965          50.000    27201357.920   106743912.383          50.000  
E15  23713047.440   124612865.527          50.000    23713053.020    93055047.516          50.000  
E27  24347817.520   127948619.574          50.000    24347821.740    95546035.152          50.000  
E30  22655410.260   119054953.813          50.000    22655414.220    88904659.684          50.000  
> 2020  6 10 17 48 17.0000000  0 13       0.000000000000
G 2  22922001.320   120455924.453          50.000                                                  
G 6  21516993.760   113072506.809          50.000    21516996.620    84437259.535          50.000  
G12  23686461.860   124473184.441          50.000                                                  
G13  24235679.580   127359371.750          50.000                                                  
G15  24551561.420   129019108.840          50.000                                                  
G17  21663607.900   113842985.773          50.000                                                  
G19  20228356.860   106300732.059          50.000                                                  
G24  21540385.100   113195432.816          50.000    21540387.080    84529054.984          50.000  
G28  22823330.660   119937539.637          50.000                                                  
E 2  27201746.440   142946112.148          50.000    27201751.680   106745457.551          50.000  
E15  23712709.740   124611090.914          50.000    23712715.320    93053722.316          50.000  
E27  24347520.160   127947056.887          50.000    24347524.360    95544868.211          50.000  
E30  22655523.680   119055549.926          50.000    22655527.660    88905104.832          50.000  
> 2020  6 10 17 48 18.0000000  0 13       0.000000000000
G 2  22921408.560   120452809.430          50.000                                                  
G 6  21516574.880   113070305.594          50.000    21516577.760    84435615.770          50.000  
G12  23685943.900   124470462.539          50.000                                                  
G13  24236294.420   127362602.785          50.000                                                  
G15  24552046.420   129021657.523          50.000                                                  
G17  21664020.340   113845153.188          50.000                                                  
G19  20228537.020   106301678.770          50.000                                                  
G24  21540055.880   113193702.742          50.000    21540057.840    84527763.047          50.000  
G28  22823659.600   119939268.305          50.000                                                  
E 2  27202140.200   142948181.461          50.000    27202145.460   106747002.816          50.000  
E15  23712372.120   124609316.691          50.000    23712377.700    93052397.410          50.000  
E27  24347222.800   127945494.297          50.000    24347227.020    95543701.344          50.000  
E30  22655637.160   119056146.266          50.000    22655641.140    88905550.152          50.000  
> 2020  6 10 17 48 19.0000000  0 13       0.000000000000
G 2  22920815.840   120449694.672          50.000                                                  
G 6  21516156.100   113068104.895          50.000    21516158.980    84433972.391          50.000  
G12  23685425.940   124467740.676          50.000                                                  
G13  24236909.280   127365833.816          50.000                                                  
G15  24552531.440   129024206.313          50.000                                                  
G17  21664432.820   113847320.820          50.000                                                  
G19  20228717.260   106302625.961          50.000                                                  
G24  21539726.760   113191973.207          50.000    21539728.720    84526471.512          50.000  
G28  22823988.580   119940997.102          50.000                                                  
E 2  27202534.020   142950250.922          50.000    27202539.260   106748548.195          50.000  
E15  23712034.560   124607542.867          50.000    23712040.160    93051072.801          50.000  
E27  24346925.480   127943931.809          50.000    24346929.680    95542534.551          50.000  
E30  22655750.680   119056742.820          50.000    22655754.660    88905995.629          50.000  
> 2020  6 10 17 48 20.0000000  0 13       0.000000000000
G 2  22920223.160   120446580.160          50.000                                                  
G 6  21515737.420   113065904.719          50.000    21515740.300    84432329.406          50.000  
G12  23684908.000   124465018.863          50.000                                                  
G13  24237524.120   127369064.852          50.000                                                  
G15  24553016.480   129026755.207          50.000                                                  
G17  21664845.360   113849488.656          50.000                                                  
G19  20228897.600   106303573.645          50.000                                                  
G24  21539397.740   113190244.227          50.000    21539399.720    84525180.391          50.000  
G28  22824317.600   119942726.027          50.000                                                  
E 2  27202927.840   142952320.527          50.000    27202933.100   106750093.676          50.000  
E15  23711697.080   124605769.430          50.000    23711702.680    93049748.484          50.000  
E27  24346628.160   127942369.410          50.000    24346632.360    95541367.824          50.000  
E30  22655864.260   119057339.602          50.000    22655868.220    88906441.277          50.000  
> 2020  6 10 17 48 21.0000000  0 13       0.000000000000
G 2  22919630.540   120443465.902          50.000                                                  
G 6  21515318.840   113063705.055          50.000    21515321.700    84430686.797          50.000  
G12  23684390.060   124462297.086          50.000                                                  
G13  24238138.960   127372295.879          50.000                                                  
G15  24553501.520   129029304.199          50.000                                                  
G17  21665257.920   113851656.699          50.000                                                  
G19  20229078.040   106304521.805          50.000                                                  
G24  21539068.820   113188515.766          50.000    21539070.800    84523889.656          50.000  
G28  22824646.620   119944455.082          50.000                                                  
E 2  27203321.700   142954390.262          50.000    27203326.960   106751639.258          50.000  
E15  23711359.700   124603996.398          50.000    23711365.280    93048424.469          50.000  
E27  24346330.860   127940807.121          50.000    24346335.080    95540201.180          50.000  
E30  22655977.860   119057936.598          50.000    22655981.820    88906887.086          50.000  
> 2020  6 10 17 48 22.0000000  0 13       0.000000000000
G 2  22919037.960   120440351.902          50.000                                                  
G 6  21514900.360   113061505.918          50.000    21514903.220    84429044.590          50.000  
G12  23683872.120   124459575.340          50.000                                                  
G13  24238753.800   127375526.895          50.000                                                  
G15  24553986.600   129031853.289          50.000                                                  
G17  21665670.520   113853824.961          50.000                                                  
G19  20229258.560   106305470.453          50.000                                                  
G24  21538740.000   113186787.844          50.000    21538741.980    84522599.328          50.000  
G28  22824975.680   119946184.273          50.000                                                  
E 2  27203715.600   142956460.145          50.000    27203720.840   106753184.945          50.000  
E15  23711022.380   124602223.766          50.000    23711027.960    93047100.750          50.000  
E27  24346033.600   127939244.930          50.000    24346037.800    95539034.609          50.000  
E30  22656091.500   119058533.828          50.000    22656095.480    88907333.070          50.000  
> 2020  6 10 17 48 23.0000000  0 13       0.000000000000
G 2  22918445.420   120437238.148          50.000                                                  
G 6  21514481.980   113059307.305          50.000    21514484.840    84427402.766          50.000  
G12  23683354.200   124456853.621          50.000                                                  
G13  24239368.660   127378757.914          50.000                                                  
G15  24554471.700   129034402.477          50.000                                                  
G17  21666083.160   113855993.422          50.000                                                  
G19  20229439.160   106306419.582          50.000                                                  
G24  21538411.300   113185060.453          50.000    21538413.280    84521309.391          50.000  
G28  22825304.760   119947913.582          50.000                                                  
E 2  27204109.500   142958530.176          50.000    27204114.760   106754730.746          50.000  
E15  23710685.120   124600451.527          50.000    23710690.720    93045777.328          50.000  
E27  24345736.340   127937682.828          50.000    24345740.540    95537868.105          50.000  
E30  22656205.200   119059131.270          50.000    22656209.160    88907779.211          50.000  
> 2020  6 10 17 48 24.0000000  0 13       0.000000000000
G 2  22917852.940   120434124.633          50.000                                                  
G 6  21514063.700   113057109.211          50.000    21514066.560    84425761.332          50.000  
G12  23682836.280   124454131.949          50.000                                                  
G13  24239983.500   127381988.938          50.000                                                  
G15  24554956.820   129036951.773          50.000                                                  
G17  21666495.860   113858162.098          50.000                                                  
G19  20229619.880   106307369.188          50.000                                                  
G24  21538082.680   113183333.578          50.000    21538084.660    84520019.844          50.000  
G28  22825633.860   119949643.027          50.000                                                  
E 2  27204503.440   142960600.332          50.000    27204508.700   106756276.641          50.000  
E15  23710347.960   124598679.688          50.000    23710353.540    93044454.199          50.000  
E27  24345439.100   127936120.832          50.000    24345443.300    95536701.680          50.000  
E30  22656318.920   119059728.941          50.000    22656322.900    88908225.527          50.000  
> 2020  6 10 17 48 25.0000000  0 13       0.000000000000
G 2  22917260.520   120431011.383          50.000                                                  
G 6  21513645.500   113054911.629          50.000    21513648.380    84424120.285          50.000  
G12  23682318.380   124451410.313          50.000                                                  
G13  24240598.340   127385219.957          50.000                                                  
G15  24555441.960   129039501.168          50.000                                                  
G17  21666908.580   113860330.980          50.000                                                  
G19  20229800.660   106308319.289          50.000                                                  
G24  21537754.160   113181607.230          50.000    21537756.140    84518730.688          50.000  
G28  22825962.980   119951372.609          50.000                                                  
E 2  27204897.420   142962670.645          50.000    27204902.660   106757822.652          50.000  
E15  23710010.860   124596908.242          50.000    23710016.440    93043131.367          50.000  
E27  24345141.880   127934558.934          50.000    24345146.080    95535535.328          50.000  
E30  22656432.700   119060326.820          50.000    22656436.680    88908671.992          50.000  
> 2020  6 10 17 48 26.0000000  0 13       0.000000000000
G 2  22916668.120   120427898.379          50.000                                                  
G 6  21513227.420   113052714.586          50.000    21513230.280    84422479.637          50.000  
G12  23681800.460   124448688.715          50.000                                                  
G13  24241213.180   127388450.977          50.000                                                  
G15  24555927.100   129042050.660          50.000                                                  
G17  21667321.340   113862500.070          50.000                                                  
G19  20229981.560   106309269.871          50.000                                                  
G24  21537425.760   113179881.418          50.000    21537427.740    84517441.934          50.000  
G28  22826292.140   119953102.313          50.000                                                  
E 2  27205291.400   142964741.094          50.000    27205296.660   106759368.766          50.000  
E15  23709673.840   124595137.191          50.000    23709679.420    93041808.832          50.000  
E27  24344844.680   127932997.125          50.000    24344848.880    95534369.043          50.000  
E30  22656546.520   119060924.930          50.000    22656550.480    88909118.633          50.000  
> 2020  6 10 17 48 27.0000000  0 13       0.000000000000
G 2  22916075.780   120424785.625          50.000                                                  
G 6  21512809.440   113050518.051          50.000    21512812.300    84420839.367          50.000  
G12  23681282.580   124445967.152          50.000                                                  
G13  24241828.020   127391681.988          50.000                                                  
G15  24556412.280   129044600.254          50.000                                                  
G17  21667734.140   113864669.375          50.000                                                  
G19  20230162.540   106310220.941          50.000                                                  
G24  21537097.440   113178156.137          50.000    21537099.420    84516153.574          50.000  
G28  22826621.320   119954832.160          50.000                                                  
E 2  27205685.440   142966811.688          50.000    27205690.680   106760914.988          50.000  
E15  23709336.900   124593366.547          50.000    23709342.480    93040486.598          50.000  
E27  24344547.500   127931435.422          50.000    24344551.700    95533202.836          50.000  
E30  22656660.380   119061523.262          50.000    22656664.340    88909565.438          50.000  
> 2020  6 10 17 48 28.0000000  0 13       0.000000000000
G 2  22915483.500   120421673.133          50.000                                                  
G 6  21512391.540   113048322.047          50.000    21512394.420    84419199.496          50.000  
G12  23680764.680   124443245.621          50.000                                                  
G13  24242442.860   127394912.984          50.000                                                  
G15  24556897.460   129047149.953          50.000                                                  
G17  21668147.000   113866838.891          50.000                                                  
G19  20230343.620   106311172.496          50.000                                                  
G24  21536769.240   113176431.379          50.000    21536771.220    84514865.605          50.000  
G28  22826950.520   119956562.137          50.000                                                  
E 2  27206079.480   142968882.418          50.000    27206084.740   106762461.309          50.000  
E15  23709000.020   124591596.289          50.000    23709005.620    93039164.652          50.000  
E27  24344250.320   127929873.820          50.000    24344254.540    95532036.707          50.000  
E30  22656774.280   119062121.813          50.000    22656778.240    88910012.410          50.000  
> 2020  6 10 17 48 29.0000000  0 13       0.000000000000
G 2  22914891.260   120418560.895          50.000                                                  
G 6  21511973.760   113046126.563          50.000    21511976.620    84417560.012          50.000  
G12  23680246.800   124440524.129          50.000                                                  
G13  24243057.700   127398143.984          50.000                                                  
G15  24557382.680   129049699.750          50.000                                                  
G17  21668559.880   113869008.609          50.000                                                  
G19  20230524.780   106312124.539          50.000                                                  
G24  21536441.120   113174707.148          50.000    21536443.100    84513578.031          50.000  
G28  22827279.740   119958292.223          50.000                                                  
E 2  27206473.560   142970953.281          50.000    27206478.800   106764007.730          50.000  
E15  23708663.240   124589826.438          50.000    23708668.820    93037843.008          50.000  
E27  24343953.180   127928312.313          50.000    24343957.380    95530870.645          50.000  
E30  22656888.220   119062720.578          50.000    22656892.180    88910459.539          50.000  
> 2020  6 10 17 48 30.0000000  0 13       0.000000000000
G 2  22914299.060   120415448.898          50.000                                                  
G 6  21511556.080   113043931.605          50.000    21511558.940    84415920.922          50.000  
G12  23679728.920   124437802.676          50.000                                                  
G13  24243672.540   127401374.984          50.000                                                  
G15  24557867.920   129052249.645          50.000                                                  
G17  21668972.800   113871178.543          50.000                                                  
G19  20230706.040   106313077.059          50.000                                                  
G24  21536113.120   113172983.441          50.000    21536115.100    84512290.848          50.000  
G28  22827609.000   119960022.453          50.000                                                  
E 2  27206867.660   142973024.301          50.000    27206872.900   106765554.273          50.000  
E15  23708326.520   124588056.984          50.000    23708332.100    93036521.664          50.000  
E27  24343656.060   127926750.918          50.000    24343660.260    95529704.668          50.000  
E30  22657002.200   119063319.582          50.000    22657006.180    88910906.848          50.000  
> 2020  6 10 17 48 31.0000000  0 13       0.000000000000
G 2  22913706.920   120412337.164          50.000                                                  
G 6  21511138.480   113041737.145          50.000    21511141.340    84414282.203          50.000  
G12  23679211.060   124435081.262          50.000                                                  
G13  24244287.380   127404605.980          50.000                                                  
G15  24558353.160   129054799.641          50.000                                                  
G17  21669385.760   113873348.672          50.000                                                  
G19  20230887.400   106314030.070          50.000                                                  
G24  21535785.200   113171260.250          50.000    21535787.180    84511004.051          50.000  
G28  22827938.280   119961752.813          50.000                                                  
E 2  27207261.780   142975095.453          50.000    27207267.040   106767100.910          50.000  
E15  23707989.880   124586287.922          50.000    23707995.460    93035200.613          50.000  
E27  24343358.960   127925189.609          50.000    24343363.160    95528538.758          50.000  
E30  22657116.240   119063918.801          50.000    22657120.200    88911354.313          50.000  
> 2020  6 10 17 48 32.0000000  0 13       0.000000000000
G 2  22913114.820   120409225.676          50.000                                                  
G 6  21510721.000   113039543.230          50.000    21510723.860    84412643.891          50.000  
G12  23678693.180   124432359.883          50.000                                                  
G13  24244902.220   127407836.980          50.000                                                  
G15  24558838.420   129057349.734          50.000                                                  
G17  21669798.760   113875519.023          50.000                                                  
G19  20231068.840   106314983.566          50.000                                                  
G24  21535457.400   113169537.598          50.000    21535459.360    84509717.652          50.000  
G28  22828267.580   119963483.305          50.000                                                  
E 2  27207655.940   142977166.750          50.000    27207661.200   106768647.656          50.000  
E15  23707653.320   124584519.266          50.000    23707658.900    93033879.863          50.000  
E27  24343061.860   127923628.402          50.000    24343066.060    95527372.918          50.000  
E30  22657230.300   119064518.238          50.000    22657234.280    88911801.945          50.000  
> 2020  6 10 17 48 33.0000000  0 13       0.000000000000
G 2  22912522.760   120406114.438          50.000                                                  
G 6  21510303.600   113037349.832          50.000    21510306.460    84411005.961          50.000  
G12  23678175.340   124429638.535          50.000                                                  
G13  24245517.060   127411067.965          50.000                                                  
G15  24559323.720   129059899.926          50.000                                                  
G17  21670211.820   113877689.566          50.000                                                  
G19  20231250.380   106315937.539          50.000                                                  
G24  21535129.680   113167815.461          50.000    21535131.660    84508431.641          50.000  
G28  22828596.900   119965213.930          50.000                                                  
E 2  27208050.120   142979238.176          50.000    27208055.380   106770194.500          50.000  
E15  23707316.820   124582750.992          50.000    23707322.400    93032559.398          50.000  
E27  24342764.800   127922067.281          50.000    24342769.000    95526207.148          50.000  
E30  22657344.420   119065117.898          50.000    22657348.380    88912249.742          50.000  
> 2020  6 10 17 48 34.0000000  0 13       0.000000000000
G 2  22911930.760   120403003.457          50.000                                                  
G 6  21509886.320   113035156.957          50.000    21509889.180    84409368.430          50.000  
G12  23677657.480   124426917.230          50.000                                                  
G13  24246131.900   127414298.949          50.000                                                  
G15  24559809.020   129062450.227          50.000                                                  
G17  21670624.900   113879860.324          50.000                                                  
G19  20231432.000   106316892.004          50.000                                                  
G24  21534802.080   113166093.855          50.000    21534804.040    84507146.031          50.000  
G28  22828926.260   119966944.684          50.000                                                  
E 2  27208444.320   142981309.758          50.000    27208449.580   106771741.461          50.000  
E15  23706980.400   124580983.125          50.000    23706986.000    93031239.242          50.000  
E27  24342467.740   127920506.273          50.000    24342471.940    95525041.461          50.000  
E30  22657458.560   119065717.781          50.000    22657462.540    88912697.707          50.000  
> 2020  6 10 17 48 35.0000000  0 13       0.000000000000
G 2  22911338.820   120399892.730          50.000                                                  
G 6  21509469.120   113032964.605          50.000    21509471.980    84407731.281          50.000  
G12  23677139.640   124424195.965          50.000                                                  
G13  24246746.740   127417529.941          50.000                                                  
G15  24560294.340   129065000.629          50.000                                                  
G17  21671038.020   113882031.289          50.000                                                  
G19  20231613.720   106317846.941          50.000                                                  
G24  21534474.560   113164372.801          50.000    21534476.540    84505860.824          50.000  
G28  22829255.640   119968675.559          50.000                                                  
E 2  27208838.560   142983381.469          50.000    27208843.820   106773288.516          50.000  
E15  23706644.060   124579215.656          50.000    23706649.660    93029919.379          50.000  
E27  24342170.720   127918945.367          50.000    24342174.920    95523875.852          50.000  
E30  22657572.760   119066317.891          50.000    22657576.740    88913145.844          50.000  
> 2020  6 10 17 48 36.0000000  0 13       0.000000000000
G 2  22910746.900   120396782.258          50.000                                                  
G 6  21509052.020   113030772.766          50.000    21509054.880    84406094.520          50.000  
G12  23676621.820   124421474.730          50.000                                                  
G13  24247361.560   127420760.930          50.000                                                  
G15  24560779.700   129067551.133          50.000                                                  
G17  21671451.180   113884202.461          50.000                                                  
G19  20231795.540   106318802.371          50.000                                                  
G24  21534147.160   113162652.301          50.000    21534149.140    84504576.035          50.000  
G28  22829585.040   119970406.574          50.000                                                  
E 2  27209232.820   142985453.328          50.000    27209238.080   106774835.680          50.000  
E15  23706307.800   124577448.582          50.000    23706313.380    93028599.809          50.000  
E27  24341873.700   127917384.551          50.000    24341877.900    95522710.309          50.000  
E30  22657687.000   119066918.215          50.000    22657690.980    88913594.133          50.000  
> 2020  6 10 17 48 37.0000000  0 13       0.000000000000
G 2  22910155.060   120393672.031          50.000                                                  
G 6  21508635.040   113028581.457          50.000    21508637.900    84404458.152          50.000  
G12  23676103.980   124418753.531          50.000                                                  
G13  24247976.400   127423991.910          50.000                                                  
G15  24561265.060   129070101.734          50.000                                                  
G17  21671864.380   113886373.840          50.000                                                  
G19  20231977.440   106319758.285          50.000                                                  
G24  21533819.860   113160932.309          50.000    21533821.840    84503291.625          50.000  
G28  22829914.460   119972137.703          50.000                                                  
E 2  27209627.120   142987525.320          50.000    27209632.360   106776382.945          50.000  
E15  23705971.620   124575681.902          50.000    23705977.200    93027280.539          50.000  
E27  24341576.700   127915823.840          50.000    24341580.900    95521544.840          50.000  
E30  22657801.280   119067518.758          50.000    22657805.260    88914042.594          50.000  
> 2020  6 10 17 48 38.0000000  0 13       0.000000000000
G 2  22909563.240   120390562.063          50.000                                                  
G 6  21508218.140   113026390.676          50.000    21508221.000    84402822.180          50.000  
G12  23675586.160   124416032.375          50.000                                                  
G13  24248591.240   127427222.898          50.000                                                  
G15  24561750.440   129072652.434          50.000                                                  
G17  21672277.620   113888545.426          50.000                                                  
G19  20232159.440   106320714.680          50.000                                                  
G24  21533492.660   113159212.852          50.000    21533494.640    84502007.617          50.000  
G28  22830243.900   119973868.973          50.000                                                  
E 2  27210021.420   142989597.449          50.000    27210026.680   106777930.316          50.000  
E15  23705635.500   124573915.629          50.000    23705641.100    93025961.566          50.000  
E27  24341279.720   127914263.234          50.000    24341283.940    95520379.453          50.000  
E30  22657915.600   119068119.527          50.000    22657919.580    88914491.219          50.000  
> 2020  6 10 17 48 39.0000000  0 13       0.000000000000
G 2  22908971.480   120387452.355          50.000                                                  
G 6  21507801.340   113024200.410          50.000    21507804.200    84401186.594          50.000  
G12  23675068.360   124413311.254          50.000                                                  
G13  24249206.080   127430453.891          50.000                                                  
G15  24562235.840   129075203.230          50.000                                                  
G17  21672690.900   113890717.223          50.000                                                  
G19  20232341.520   106321671.559          50.000                                                  
G24  21533165.560   113157493.910          50.000    21533167.520    84500723.996          50.000  
G28  22830573.380   119975600.379          50.000                                                  
E 2  27210415.760   142991669.730          50.000    27210421.020   106779477.797          50.000  
E15  23705299.460   124572149.750          50.000    23705305.060    93024642.895          50.000  
E27  24340982.780   127912702.719          50.000    24340986.980    95519214.133          50.000  
E30  22658029.980   119068720.520          50.000    22658033.940    88914940.012          50.000  
> 2020  6 10 17 48 40.0000000  0 13       0.000000000000
G 2  22908379.780   120384342.898          50.000                                                  
G 6  21507384.660   113022010.672          50.000    21507387.520    84399551.402          50.000  
G12  23674550.540   124410590.176          50.000                                                  
G13  24249820.920   127433684.871          50.000                                                  
G15  24562721.260   129077754.121          50.000                                                  
G17  21673104.220   113892889.223          50.000                                                  
G19  20232523.700   106322628.914          50.000                                                  
G24  21532838.560   113155775.520          50.000    21532840.520    84499440.781          50.000  
G28  22830902.880   119977331.902          50.000                                                  
E 2  27210810.140   142993742.160          50.000    27210815.400   106781025.391          50.000  
E15  23704963.500   124570384.262          50.000    23704969.100    93023324.512          50.000  
E27  24340685.840   127911142.305          50.000    24340690.040    95518048.891          50.000  
E30  22658144.380   119069321.723          50.000    22658148.340    88915388.961          50.000  
> 2020  6 10 17 48 41.0000000  0 13       0.000000000000
G 2  22907788.100   120381233.695          50.000                                                  
G 6  21506968.060   113019821.449          50.000    21506970.920    84397916.594          50.000  
G12  23674032.740   124407869.125          50.000                                                  
G13  24250435.760   127436915.840          50.000                                                  
G15  24563206.700   129080305.113          50.000                                                  
G17  21673517.580   113895061.438          50.000                                                  
G19  20232705.980   106323586.754          50.000                                                  
G24  21532511.660   113154057.668          50.000    21532513.640    84498157.969          50.000  
G28  22831232.400   119979063.559          50.000                                                  
E 2  27211204.540   142995814.723          50.000    27211209.800   106782573.078          50.000  
E15  23704627.620   124568619.176          50.000    23704633.200    93022006.426          50.000  
E27  24340388.920   127909581.984          50.000    24340393.120    95516883.719          50.000  
E30  22658258.820   119069923.164          50.000    22658262.800    88915838.090          50.000  
> 2020  6 10 17 48 42.0000000  0 13       0.000000000000
G 2  22907196.500   120378124.746          50.000                                                  
G 6  21506551.560   113017632.750          50.000    21506554.420    84396282.180          50.000  
G12  23673514.960   124405148.105          50.000                                                  
G13  24251050.580   127440146.813          50.000                                                  
G15  24563692.160   129082856.195          50.000                                                  
G17  21673930.960   113897233.852          50.000                                                  
G19  20232888.340   106324545.086          50.000                                                  
G24  21532184.860   113152340.336          50.000    21532186.840    84496875.547          50.000  
G28  22831561.960   119980795.348          50.000                                                  
E 2  27211598.960   142997887.430          50.000    27211604.220   106784120.879          50.000  
E15  23704291.820   124566854.496          50.000    23704297.400    93020688.648          50.000  
E27  24340092.020   127908021.773          50.000    24340096.220    95515718.625          50.000  
E30  22658373.320   119070524.813          50.000    22658377.280    88916287.375          50.000  
> 2020  6 10 17 48 43.0000000  0 13       0.000000000000
G 2  22906604.920   120375016.047          50.000                                                  
G 6  21506135.160   113015444.578          50.000    21506138.020    84394648.152          50.000  
G12  23672997.160   124402427.125          50.000                                                  
G13  24251665.420   127443377.766          50.000                                                  
G15  24564177.640   129085407.387          50.000                                                  
G17  21674344.400   113899406.477          50.000                                                  
G19  20233070.800   106325503.898          50.000                                                  
G24  21531858.160   113150623.543          50.000    21531860.140    84495593.527          50.000  
G28  22831891.540   119982527.270          50.000                                                  
E 2  27211993.420   142999960.270          50.000    27211998.660   106785668.777          50.000  
E15  23703956.080   124565090.203          50.000    23703961.660    93019371.156          50.000  
E27  24339795.140   127906461.652          50.000    24339799.340    95514553.598          50.000  
E30  22658487.860   119071126.695          50.000    22658491.820    88916736.828          50.000  
> 2020  6 10 17 48 44.0000000  0 13       0.000000000000
G 2  22906013.400   120371907.605          50.000                                                  
G 6  21505718.860   113013256.922          50.000    21505721.720    84393014.516          50.000  
G12  23672479.380   124399706.176          50.000                                                  
G13  24252280.260   127446608.742          50.000                                                  
G15  24564663.120   129087958.672          50.000                                                  
G17  21674757.880   113901579.313          50.000                                                  
G19  20233253.340   106326463.195          50.000                                                  
G24  21531531.580   113148907.285          50.000    21531533.540    84494311.906          50.000  
G28  22832221.140   119984259.320          50.000                                                  
E 2  27212387.880   143002033.246          50.000    27212393.140   106787216.777          50.000  
E15  23703620.420   124563326.313          50.000    23703626.000    93018053.965          50.000  
E27  24339498.280   127904901.633          50.000    24339502.480    95513388.648          50.000  
E30  22658602.420   119071728.801          50.000    22658606.400    88917186.453          50.000  
> 2020  6 10 17 48 45.0000000  0 13       0.000000000000
G 2  22905421.940   120368799.430          50.000                                                  
G 6  21505302.660   113011069.793          50.000    21505305.520    84391381.270          50.000  
G12  23671961.620   124396985.266          50.000                                                  
G13  24252895.080   127449839.699          50.000                                                  
G15  24565148.640   129090510.066          50.000                                                  
G17  21675171.400   113903752.344          50.000                                                  
G19  20233435.980   106327422.965          50.000                                                  
G24  21531205.080   113147191.547          50.000    21531207.060    84493030.672          50.000  
G28  22832550.760   119985991.492          50.000                                                  
E 2  27212782.380   143004106.367          50.000    27212787.640   106788764.887          50.000  
E15  23703284.840   124561562.813          50.000    23703290.420    93016737.066          50.000  
E27  24339201.440   127903341.711          50.000    24339205.640    95512223.773          50.000  
E30  22658717.040   119072331.109          50.000    22658721.020    88917636.230          50.000  
> 2020  6 10 17 48 46.0000000  0 13       0.000000000000
G 2  22904830.520   120365691.500          50.000                                                  
G 6  21504886.580   113008883.184          50.000    21504889.440    84389748.414          50.000  
G12  23671443.840   124394264.398          50.000                                                  
G13  24253509.920   127453070.645          50.000                                                  
G15  24565634.180   129093061.555          50.000                                                  
G17  21675584.960   113905925.586          50.000                                                  
G19  20233618.720   106328383.234          50.000                                                  
G24  21530878.680   113145476.363          50.000    21530880.660    84491749.855          50.000  
G28  22832880.400   119987723.805          50.000                                                  
E 2  27213176.920   143006179.637          50.000    27213182.180   106790313.109          50.000  
E15  23702949.340   124559799.719          50.000    23702954.920    93015420.473          50.000  
E27  24338904.600   127901781.895          50.000    24338908.820    95511058.977          50.000  
E30  22658831.700   119072933.664          50.000    22658835.680    88918086.188          50.000  
> 2020  6 10 17 48 47.0000000  0 13       0.000000000000
G 2  22904239.140   120362583.820          50.000                                                  
G 6  21504470.580   113006697.109          50.000    21504473.440    84388115.957          50.000  
G12  23670926.080   124391543.547          50.000                                                  
G13  24254124.740   127456301.578          50.000                                                  
G15  24566119.720   129095613.137          50.000                                                  
G17  21675998.540   113908099.035          50.000                                                  
G19  20233801.540   106329343.977          50.000                                                  
G24  21530552.400   113143761.703          50.000    21530554.380    84490469.426          50.000  
G28  22833210.080   119989456.238          50.000                                                  
E 2  27213571.480   143008253.047          50.000    27213576.740   106791861.434          50.000  
E15  23702613.900   124558037.023          50.000    23702619.480    93014104.176          50.000  
E27  24338607.800   127900222.176          50.000    24338612.000    95509894.250          50.000  
E30  22658946.400   119073536.422          50.000    22658950.380    88918536.301          50.000  
> 2020  6 10 17 48 48.0000000  0 13       0.000000000000
G 2  22903647.820   120359476.398          50.000                                                  
G 6  21504054.680   113004511.555          50.000    21504057.540    84386483.887          50.000  
G12  23670408.340   124388822.750          50.000                                                  
G13  24254739.560   127459532.516          50.000                                                  
G15  24566605.300   129098164.813          50.000                                                  
G17  21676412.180   113910272.691          50.000                                                  
G19  20233984.460   106330305.207          50.000                                                  
G24  21530226.220   113142047.582          50.000    21530228.180    84489189.402          50.000  
G28  22833539.780   119991188.813          50.000                                                  
E 2  27213966.060   143010326.594          50.000    27213971.320   106793409.859          50.000  
E15  23702278.540   124556274.719          50.000    23702284.140    93012788.168          50.000  
E27  24338311.020   127898662.547          50.000    24338315.220    95508729.594          50.000  
E30  22659061.160   119074139.410          50.000    22659065.120    88918986.582          50.000  
> 2020  6 10 17 48 49.0000000  0 13       0.000000000000
G 2  22903056.540   120356369.305          50.000                                                  
G 6  21503638.880   113002326.539          50.000    21503641.620    84384852.660          50.000  
G12  23669890.520   124386102.340          50.000                                                  
G13  24255354.420   127462763.320          50.000                                                  
G15  24567090.880   129100716.578          50.000                                                  
G17  21676825.840   113912446.668          50.000                                                  
G19  20234167.460   106331266.926          50.000                                                  
G24  21529900.180   113140333.680          50.000    21529902.100    84487909.777          50.000  
G28  22833869.500   119992921.438          50.000                                                  
E 2  27214360.640   143012400.406          50.000    27214365.880   106794958.551          50.000  
E15  23701943.240   124554512.922          50.000    23701948.820    93011472.598          50.000  
E27  24338014.260   127897103.008          50.000    24338018.460    95507564.988          50.000  
E30  22659175.940   119074742.629          50.000    22659179.900    88919437.039          50.000  
> 2020  6 10 17 48 50.0000000  0 13       0.000000000000
G 2  22902465.300   120353262.402          50.000                                                  
G 6  21503223.180   113000142.035          50.000    21503225.920    84383221.367          50.000  
G12  23669372.780   124383381.613          50.000                                                  
G13  24255969.240   127465994.254          50.000                                                  
G15  24567576.500   129103268.465          50.000                                                  
G17  21677239.540   113914620.746          50.000                                                  
G19  20234350.560   106332229.117          50.000                                                  
G24  21529574.200   113138620.645          50.000    21529576.120    84486630.551          50.000  
G28  22834199.260   119994654.281          50.000                                                  
E 2  27214755.280   143014474.238          50.000    27214760.520   106796507.191          50.000  
E15  23701608.040   124552751.414          50.000    23701613.620    93010157.188          50.000  
E27  24337717.500   127895543.598          50.000    24337721.700    95506400.496          50.000  
E30  22659290.760   119075346.066          50.000    22659294.740    88919887.656          50.000  
> 2020  6 10 17 48 51.0000000  0 13       0.000000000000
G 2  22901874.120   120350155.742          50.000                                                  
G 6  21502807.580   112997958.059          50.000    21502810.320    84381590.469          50.000  
G12  23668855.040   124380660.930          50.000                                                  
G13  24256584.060   127469225.188          50.000                                                  
G15  24568062.120   129105820.449          50.000                                                  
G17  21677653.300   113916795.031          50.000                                                  
G19  20234533.740   106333191.797          50.000                                                  
G24  21529248.320   113136908.125          50.000    21529250.240    84485351.719          50.000  
G28  22834529.020   119996387.242          50.000                                                  
E 2  27215149.940   143016548.207          50.000    27215155.180   106798055.934          50.000  
E15  23701272.920   124550990.320          50.000    23701278.480    93008842.086          50.000  
E27  24337420.780   127893984.281          50.000    24337424.980    95505236.070          50.000  
E30  22659405.640   119075949.730          50.000    22659409.600    88920338.449          50.000  
> 2020  6 10 17 48 52.0000000  0 13       0.000000000000
G 2  22901282.980   120347049.340          50.000                                                  
G 6  21502392.080   112995774.594          50.000    21502394.820    84379959.953          50.000  
G12  23668337.320   124377940.285          50.000                                                  
G13  24257198.900   127472456.109          50.000                                                  
G15  24568547.760   129108372.523          50.000                                                  
G17  21678067.080   113918969.527          50.000                                                  
G19  20234717.020   106334154.961          50.000                                                  
G24  21528922.540   113135196.137          50.000    21528924.460    84484073.277          50.000  
G28  22834858.820   119998120.344          50.000                                                  
E 2  27215544.640   143018622.320          50.000    27215549.880   106799604.785          50.000  
E15  23700937.860   124549229.613          50.000    23700943.420    93007527.273          50.000  
E27  24337124.060   127892425.059          50.000    24337128.260    95504071.715          50.000  
E30  22659520.540   119076553.602          50.000    22659524.520    88920789.391          50.000  
> 2020  6 10 17 48 53.0000000  0 13       0.000000000000
G 2  22900691.900   120343943.191          50.000                                                  
G 6  21501976.660   112993591.656          50.000    21501979.420    84378329.832          50.000  
G12  23667819.600   124375219.676          50.000                                                  
G13  24257813.720   127475687.027          50.000                                                  
G15  24569033.420   129110924.711          50.000                                                  
G17  21678480.920   113921144.234          50.000                                                  
G19  20234900.400   106335118.598          50.000                                                  
G24  21528596.860   113133484.676          50.000    21528598.780    84482795.230          50.000  
G28  22835188.640   119999853.574          50.000                                                  
E 2  27215939.360   143020696.578          50.000    27215944.600   106801153.742          50.000  
E15  23700602.880   124547469.309          50.000    23700608.460    93006212.762          50.000  
E27  24336827.360   127890865.938          50.000    24336831.580    95502907.438          50.000  
E30  22659635.500   119077157.711          50.000    22659639.480    88921240.512          50.000  
> 2020  6 10 17 48 54.0000000  0 13       0.000000000000
G 2  22900100.860   120340837.301          50.000                                                  
G 6  21501561.360   112991409.250          50.000    21501564.120    84376700.105          50.000  
G12  23667301.900   124372499.105          50.000                                                  
G13  24258428.540   127478917.953          50.000                                                  
G15  24569519.100   129113476.980          50.000                                                  
G17  21678894.780   113923319.148          50.000                                                  
G19  20235083.860   106336082.723          50.000                                                  
G24  21528271.280   113131773.730          50.000    21528273.200    84481517.570          50.000  
G28  22835518.480   120001586.934          50.000                                                  
E 2  27216334.100   143022770.977          50.000    27216339.340   106802702.809          50.000  
E15  23700267.980   124545709.395          50.000    23700273.540    93004898.543          50.000  
E27  24336530.700   127889306.910          50.000    24336534.900    95501743.230          50.000  
E30  22659750.500   119077762.039          50.000    22659754.480    88921691.793          50.000  
> 2020  6 10 17 48 55.0000000  0 13       0.000000000000
G 2  22899509.880   120337731.668          50.000                                                  
G 6  21501146.160   112989227.367          50.000    21501148.920    84375070.770          50.000  
G12  23666784.200   124369778.574          50.000                                                  
G13  24259043.360   127482148.859          50.000                                                  
G15  24570004.800   129116029.352          50.000                                                  
G17  21679308.700   113925494.273          50.000                                                  
G19  20235267.420   106337047.336          50.000                                                  
G24  21527945.780   113130063.320          50.000    21527947.720    84480240.309          50.000  
G28  22835848.360   120003320.418          50.000                                                  
E 2  27216728.860   143024845.516          50.000    27216734.100   106804251.973          50.000  
E15  23699933.160   124543949.891          50.000    23699938.720    93003584.625          50.000  
E27  24336234.040   127887748.000          50.000    24336238.240    95500579.109          50.000  
E30  22659865.540   119078366.590          50.000    22659869.520    88922143.242          50.000  
> 2020  6 10 17 48 56.0000000  0 13       0.000000000000
G 2  22898918.940   120334626.289          50.000                                                  
G 6  21500731.060   112987046.000          50.000    21500733.820    84373441.824          50.000  
G12  23666266.500   124367058.078          50.000                                                  
G13  24259658.180   127485379.766          50.000                                                  
G15  24570490.520   129118581.828          50.000                                                  
G17  21679722.640   113927669.605          50.000                                                  
G19  20235451.060   106338012.414          50.000                                                  
G24  21527620.400   113128353.438          50.000    21527622.340    84478963.441          50.000  
G28  22836178.260   120005054.039          50.000                                                  
E 2  27217123.660   143026920.195          50.000    27217128.900   106805801.250          50.000  
E15  23699598.400   124542190.781          50.000    23699603.980    93002271.008          50.000  
E27  24335937.400   127886189.172          50.000    24335941.600    95499415.051          50.000  
E30  22659980.620   119078971.352          50.000    22659984.600    88922594.852          50.000  
> 2020  6 10 17 48 57.0000000  0 13       0.000000000000
G 2  22898328.060   120331521.168          50.000                                                  
G 6  21500316.060   112984865.168          50.000    21500318.820    84371813.266          50.000  
G12  23665748.800   124364337.609          50.000                                                  
G13  24260273.000   127488610.672          50.000                                                  
G15  24570976.260   129121134.391          50.000                                                  
G17  21680136.640   113929845.141          50.000                                                  
G19  20235634.800   106338977.984          50.000                                                  
G24  21527295.120   113126644.090          50.000    21527297.060    84477686.965          50.000  
G28  22836508.180   120006787.785          50.000                                                  
E 2  27217518.480   143028995.008          50.000    27217523.720   106807350.621          50.000  
E15  23699263.720   124540432.059          50.000    23699269.300    93000957.676          50.000  
E27  24335640.780   127884630.457          50.000    24335644.980    95498251.074          50.000  
E30  22660095.740   119079576.340          50.000    22660099.720    88923046.629          50.000  
> 2020  6 10 17 48 58.0000000  0 13       0.000000000000
G 2  22897737.220   120328416.305          50.000                                                  
G 6  21499901.160   112982684.863          50.000    21499903.920    84370185.113          50.000  
G12  23665231.120   124361617.184          50.000                                                  
G13  24260887.820   127491841.570          50.000                                                  
G15  24571462.020   129123687.051          50.000                                                  
G17  21680550.660   113932020.883          50.000                                                  
G19  20235818.640   106339944.043          50.000                                                  
G24  21526969.940   113124935.273          50.000    21526971.880    84476410.898          50.000  
G28  22836838.120   120008521.668          50.000                                                  
E 2  27217913.340   143031069.969          50.000    27217918.580   106808900.105          50.000  
E15  23698929.120   124538673.746          50.000    23698934.700    92999644.652          50.000  
E27  24335344.180   127883071.836          50.000    24335348.400    95497087.172          50.000  
E30  22660210.920   119080181.563          50.000    22660214.880    88923498.578          50.000  
> 2020  6 10 17 48 59.0000000  0 13       0.000000000000
G 2  22897146.420   120325311.688          50.000                                                  
G 6  21499486.360   112980505.078          50.000    21499489.120    84368557.348          50.000  
G12  23664713.440   124358896.797          50.000                                                  
G13  24261502.620   127495072.457          50.000                                                  
G15  24571947.780   129126239.820          50.000                                                  
G17  21680964.720   113934196.828          50.000                                                  
G19  20236002.560   106340910.570          50.000                                                  
G24  21526644.860   113123226.973          50.000    21526646.800    84475135.215          50.000  
G28  22837168.080   120010255.664          50.000                                                  
E 2  27218308.220   143033145.074          50.000    27218313.460   106810449.695          50.000  
E15  23698594.600   124536915.832          50.000    23698600.180    92998331.926          50.000  
E27  24335047.600   127881513.320          50.000    24335051.820    95495923.348          50.000  
E30  22660326.120   119080786.996          50.000    22660330.100    88923950.691          50.000  
> 2020  6 10 17 49  0.0000000  0 13       0.000000000000
G 2  22896555.680   120322207.336          50.000                                                  
G 6  21499071.660   112978325.809          50.000    21499074.420    84366929.969          50.000  
G12  23664195.780   124356176.441          50.000                                                  
G13  24262117.440   127498303.344          50.000                                                  
G15  24572433.580   129128792.668          50.000                                                  
G17  21681378.840   113936372.984          50.000                                                  
G19  20236186.580   106341877.594          50.000                                                  
G24  21526319.880   113121519.215          50.000    21526321.820    84473859.938          50.000  
G28  22837498.080   120011989.801          50.000                                                  
E 2  27218703.120   143035220.313          50.000    27218708.360   106811999.383          50.000  
E15  23698260.160   124535158.309          50.000    23698265.720    92997019.492          50.000  
E27  24334751.040   127879954.906          50.000    24334755.260    95494759.594          50.000  
E30  22660441.380   119081392.656          50.000    22660445.340    88924402.969          50.000  
> 2020  6 10 17 49  1.0000000  0 13       0.000000000000
G 2  22895964.980   120319103.238          50.000                                                  
G 6  21498657.040   112976147.063          50.000    21498659.820    84365302.977          50.000  
G12  23663678.120   124353456.125          50.000                                                  
G13  24262732.260   127501534.230          50.000                                                  
G15  24572919.380   129131345.625          50.000                                                  
G17  21681792.980   113938549.340          50.000                                                  
G19  20236370.680   106342845.086          50.000                                                  
G24  21525995.000   113119811.992          50.000    21525996.940    84472585.059          50.000  
G28  22837828.100   120013724.051          50.000                                                  
E 2  27219098.040   143037295.691          50.000    27219103.280   106813549.184          50.000  
E15  23697925.780   124533401.188          50.000    23697931.360    92995707.359          50.000  
E27  24334454.500   127878396.578          50.000    24334458.720    95493595.914          50.000  
E30  22660556.660   119081998.535          50.000    22660560.640    88924855.418          50.000  
> 2020  6 10 17 49  2.0000000  0 13       0.000000000000
G 2  22895374.340   120315999.406          50.000                                                  
G 6  21498242.540   112973968.852          50.000    21498245.320    84363676.387          50.000  
G12  23663160.460   124350735.840          50.000                                                  
G13  24263347.080   127504765.109          50.000                                                  
G15  24573405.220   129133898.676          50.000                                                  
G17  21682207.160   113940725.918          50.000                                                  
G19  20236554.880   106343813.066          50.000                                                  
G24  21525670.240   113118105.301          50.000    21525672.180    84471310.574          50.000  
G28  22838158.140   120015458.457          50.000                                                  
E 2  27219493.000   143039371.211          50.000    27219498.240   106815099.090          50.000  
E15  23697591.500   124531644.469          50.000    23697597.060    92994395.527          50.000  
E27  24334157.980   127876838.352          50.000    24334162.180    95492432.309          50.000  
E30  22660672.000   119082604.637          50.000    22660675.980    88925308.027          50.000  
> 2020  6 10 17 49  3.0000000  0 13       0.000000000000
G 2  22894783.740   120312895.813          50.000                                                  
G 6  21497828.140   112971791.160          50.000    21497830.900    84362050.184          50.000  
G12  23662642.800   124348015.590          50.000                                                  
G13  24263961.880   127507995.977          50.000                                                  
G15  24573891.060   129136451.836          50.000                                                  
G17  21682621.400   113942902.680          50.000                                                  
G19  20236739.160   106344781.512          50.000                                                  
G24  21525345.560   113116399.145          50.000    21525347.500    84470036.488          50.000  
G28  22838488.200   120017192.980          50.000                                                  
E 2  27219887.980   143041446.867          50.000    27219893.220   106816649.098          50.000  
E15  23697257.280   124529888.137          50.000    23697262.840    92993083.988          50.000  
E27  24333861.480   127875280.227          50.000    24333865.680    95491268.777          50.000  
E30  22660787.380   119083210.945          50.000    22660791.340    88925760.797          50.000  
> 2020  6 10 17 49  4.0000000  0 13       0.000000000000
G 2  22894193.200   120309792.480          50.000                                                  
G 6  21497413.840   112969613.996          50.000    21497416.600    84360424.371          50.000  
G12  23662125.160   124345295.371          50.000                                                  
G13  24264576.700   127511226.836          50.000                                                  
G15  24574376.920   129139005.082          50.000                                                  
G17  21683035.660   113945079.652          50.000                                                  
G19  20236923.540   106345750.445          50.000                                                  
G24  21525021.000   113114693.527          50.000    21525022.940    84468762.805          50.000  
G28  22838818.300   120018927.629          50.000                                                  
E 2  27220283.000   143043522.664          50.000    27220288.240   106818199.207          50.000  
E15  23696923.140   124528132.203          50.000    23696928.700    92991772.742          50.000  
E27  24333565.000   127873722.191          50.000    24333569.200    95490105.316          50.000  
E30  22660902.800   119083817.488          50.000    22660906.760    88926213.738          50.000  
> 2020  6 10 17 49  5.0000000  0 13       0.000000000000
G 2  22893602.700   120306689.414          50.000                                                  
G 6  21496999.640   112967437.359          50.000    21497002.400    84358798.953          50.000  
G12  23661607.520   124342575.199          50.000                                                  
G13  24265191.500   127514457.684          50.000                                                  
G15  24574862.800   129141558.426          50.000                                                  
G17  21683449.960   113947256.836          50.000                                                  
G19  20237108.020   106346719.871          50.000                                                  
G24  21524696.520   113112988.465          50.000    21524698.460    84467489.539          50.000  
G28  22839148.420   120020662.422          50.000                                                  
E 2  27220678.040   143045598.613          50.000    27220683.280   106819749.434          50.000  
E15  23696589.060   124526376.684          50.000    23696594.620    92990461.809          50.000  
E27  24333268.540   127872164.277          50.000    24333272.740    95488941.941          50.000  
E30  22661018.260   119084424.262          50.000    22661022.240    88926666.852          50.000  
> 2020  6 10 17 49  6.0000000  0 13       0.000000000000
G 2  22893012.240   120303586.590          50.000                                                  
G 6  21496585.520   112965261.242          50.000    21496588.300    84357173.926          50.000  
G12  23661089.900   124339855.063          50.000                                                  
G13  24265806.320   127517688.543          50.000                                                  
G15  24575348.700   129144111.859          50.000                                                  
G17  21683864.300   113949434.227          50.000                                                  
G19  20237292.580   106347689.777          50.000                                                  
G24  21524372.160   113111283.941          50.000    21524374.100    84466216.672          50.000  
G28  22839478.560   120022397.344          50.000                                                  
E 2  27221073.100   143047674.695          50.000    27221078.340   106821299.758          50.000  
E15  23696255.080   124524621.555          50.000    23696260.640    92989151.164          50.000  
E27  24332972.100   127870606.457          50.000    24332976.300    95487778.641          50.000  
E30  22661133.780   119085031.258          50.000    22661137.740    88927120.133          50.000  
> 2020  6 10 17 49  7.0000000  0 13       0.000000000000
G 2  22892421.840   120300484.031          50.000                                                  
G 6  21496171.520   112963085.656          50.000    21496174.300    84355549.293          50.000  
G12  23660572.280   124337134.949          50.000                                                  
G13  24266421.120   127520919.383          50.000                                                  
G15  24575834.620   129146665.387          50.000                                                  
G17  21684278.680   113951611.820          50.000                                                  
G19  20237477.240   106348660.164          50.000                                                  
G24  21524047.900   113109579.941          50.000    21524049.840    84464944.199          50.000  
G28  22839808.720   120024132.398          50.000                                                  
E 2  27221468.200   143049750.926          50.000    27221473.440   106822850.191          50.000  
E15  23695921.160   124522866.824          50.000    23695926.720    92987840.820          50.000  
E27  24332675.680   127869048.742          50.000    24332679.860    95486615.414          50.000  
E30  22661249.320   119085638.473          50.000    22661253.280    88927573.574          50.000  
> 2020  6 10 17 49  8.0000000  0 13       0.000000000000
G 2  22891831.500   120297381.727          50.000                                                  
G 6  21495757.620   112960910.594          50.000    21495760.400    84353925.051          50.000  
G12  23660054.660   124334414.883          50.000                                                  
G13  24267035.920   127524150.219          50.000                                                  
G15  24576320.560   129149219.016          50.000                                                  
G17  21684693.100   113953789.617          50.000                                                  
G19  20237661.980   106349631.023          50.000                                                  
G24  21523723.740   113107876.465          50.000    21523725.680    84463672.117          50.000  
G28  22840138.920   120025867.578          50.000                                                  
E 2  27221863.320   143051827.309          50.000    27221868.560   106824400.738          50.000  
E15  23695587.320   124521112.492          50.000    23695592.880    92986530.770          50.000  
E27  24332379.260   127867491.113          50.000    24332383.460    95485452.254          50.000  
E30  22661364.920   119086245.910          50.000    22661368.880    88928027.184          50.000  
> 2020  6 10 17 49  9.0000000  0 13       0.000000000000
G 2  22891241.200   120294279.684          50.000                                                  
G 6  21495343.820   112958736.055          50.000    21495346.600    84352301.203          50.000  
G12  23659537.060   124331694.852          50.000                                                  
G13  24267650.740   127527381.047          50.000                                                  
G15  24576806.520   129151772.738          50.000                                                  
G17  21685107.560   113955967.609          50.000                                                  
G19  20237846.820   106350602.367          50.000                                                  
G24  21523399.680   113106173.523          50.000    21523401.620    84462400.434          50.000  
G28  22840469.140   120027602.887          50.000                                                  
E 2  27222258.460   143053903.801          50.000    27222263.700   106825951.371          50.000  
E15  23695253.560   124519358.559          50.000    23695259.120    92985221.020          50.000  
E27  24332082.880   127865933.586          50.000    24332087.060    95484289.172          50.000  
E30  22661480.540   119086853.563          50.000    22661484.500    88928480.957          50.000  
> 2020  6 10 17 49 10.0000000  0 13       0.000000000000
G 2  22890650.940   120291177.883          50.000                                                  
G 6  21494930.120   112956562.031          50.000    21494932.900    84350677.742          50.000  
G12  23659019.460   124328974.852          50.000                                                  
G13  24268265.540   127530611.871          50.000                                                  
G15  24577292.500   129154326.555          50.000                                                  
G17  21685522.060   113958145.805          50.000                                                  
G19  20238031.760   106351574.195          50.000                                                  
G24  21523075.720   113104471.117          50.000    21523077.660    84461129.156          50.000  
G28  22840799.380   120029338.324          50.000                                                  
E 2  27222653.640   143055980.449          50.000    27222658.880   106827502.117          50.000  
E15  23694919.880   124517605.020          50.000    23694925.420    92983911.563          50.000  
E27  24331786.500   127864376.164          50.000    24331790.700    95483126.164          50.000  
E30  22661596.220   119087461.441          50.000    22661600.180    88928934.895          50.000  
> 2020  6 10 17 49 11.0000000  0 13       0.000000000000
G 2  22890060.740   120288076.348          50.000                                                  
G 6  21494516.520   112954388.543          50.000    21494519.300    84349054.684          50.000  
G12  23658501.860   124326254.895          50.000                                                  
G13  24268880.340   127533842.672          50.000                                                  
G15  24577778.500   129156880.461          50.000                                                  
G17  21685936.580   113960324.219          50.000                                                  
G19  20238216.780   106352546.504          50.000                                                  
G24  21522751.860   113102769.254          50.000    21522753.820    84459858.281          50.000  
G28  22841129.640   120031073.898          50.000                                                  
E 2  27223048.840   143058057.246          50.000    27223054.080   106829052.973          50.000  
E15  23694586.260   124515851.891          50.000    23694591.820    92982602.410          50.000  
E27  24331490.160   127862818.852          50.000    24331494.360    95481963.238          50.000  
E30  22661711.940   119088069.555          50.000    22661715.900    88929389.004          50.000  
> 2020  6 10 17 49 12.0000000  0 13       0.000000000000
G 2  22889470.580   120284975.074          50.000                                                  
G 6  21494103.020   112952215.578          50.000    21494105.800    84347432.012          50.000  
G12  23657984.280   124323534.961          50.000                                                  
G13  24269495.140   127537073.492          50.000                                                  
G15  24578264.500   129159434.465          50.000                                                  
G17  21686351.160   113962502.820          50.000                                                  
G19  20238401.900   106353519.297          50.000                                                  
G24  21522428.120   113101067.926          50.000    21522430.060    84458587.805          50.000  
G28  22841459.940   120032809.598          50.000                                                  
E 2  27223444.060   143060134.160          50.000    27223449.300   106830603.914          50.000  
E15  23694252.720   124514099.152          50.000    23694258.280    92981293.547          50.000  
E27  24331193.820   127861261.621          50.000    24331198.020    95480800.375          50.000  
E30  22661827.700   119088677.871          50.000    22661831.660    88929843.270          50.000  
> 2020  6 10 17 49 13.0000000  0 13       0.000000000000
G 2  22888880.480   120281874.047          50.000                                                  
G 6  21493689.600   112950043.133          50.000    21493692.380    84345809.727          50.000  
G12  23657466.700   124320815.070          50.000                                                  
G13  24270109.940   127540304.289          50.000                                                  
G15  24578750.540   129161988.566          50.000                                                  
G17  21686765.780   113964681.625          50.000                                                  
G19  20238587.100   106354492.563          50.000                                                  
G24  21522104.460   113099367.109          50.000    21522106.400    84457317.715          50.000  
G28  22841790.260   120034545.430          50.000                                                  
E 2  27223839.320   143062211.230          50.000    27223844.560   106832154.973          50.000  
E15  23693919.260   124512346.813          50.000    23693924.820    92979984.984          50.000  
E27  24330897.520   127859704.504          50.000    24330901.700    95479637.590          50.000  
E30  22661943.500   119089286.418          50.000    22661947.460    88930297.703          50.000  
> 2020  6 10 17 49 14.0000000  0 13       0.000000000000
G 2  22888290.420   120278773.293          50.000                                                  
G 6  21493276.300   112947871.219          50.000    21493279.080    84344187.840          50.000  
G12  23656949.120   124318095.223          50.000                                                  
G13  24270724.740   127543535.078          50.000                                                  
G15  24579236.580   129164542.762          50.000                                                  
G17  21687180.440   113966860.648          50.000                                                  
G19  20238772.400   106355466.320          50.000                                                  
G24  21521780.900   113097666.848          50.000    21521782.860    84456048.031          50.000  
G28  22842120.600   120036281.391          50.000                                                  
E 2  27224234.600   143064288.441          50.000    27224239.840   106833706.137          50.000  
E15  23693585.880   124510594.867          50.000    23693591.440    92978676.715          50.000  
E27  24330601.220   127858147.477          50.000    24330605.420    95478474.879          50.000  
E30  22662059.340   119089895.180          50.000    22662063.300    88930752.301          50.000  
> 2020  6 10 17 49 15.0000000  0 13       0.000000000000
G 2  22887700.400   120275672.781          50.000                                                  
G 6  21492863.100   112945699.824          50.000    21492865.880    84342566.344          50.000  
G12  23656431.560   124315375.406          50.000                                                  
G13  24271339.540   127546765.867          50.000                                                  
G15  24579722.640   129167097.059          50.000                                                  
G17  21687595.120   113969039.871          50.000                                                  
G19  20238957.800   106356440.559          50.000                                                  
G24  21521457.460   113095967.117          50.000    21521459.420    84454778.750          50.000  
G28  22842450.960   120038017.488          50.000                                                  
E 2  27224629.900   143066365.793          50.000    27224635.140   106835257.406          50.000  
E15  23693252.580   124508843.332          50.000    23693258.120    92977368.750          50.000  
E27  24330304.960   127856590.563          50.000    24330309.140    95477312.246          50.000  
E30  22662175.240   119090504.180          50.000    22662179.200    88931207.074          50.000  
> 2020  6 10 17 49 16.0000000  0 13       0.000000000000
G 2  22887110.440   120272572.539          50.000                                                  
G 6  21492450.000   112943528.965          50.000    21492452.780    84340945.246          50.000  
G12  23655914.000   124312655.625          50.000                                                  
G13  24271954.340   127549996.652          50.000                                                  
G15  24580208.740   129169651.441          50.000                                                  
G17  21688009.860   113971219.309          50.000                                                  
G19  20239143.280   106357415.277          50.000                                                  
G24  21521134.120   113094267.945          50.000    21521136.080    84453509.887          50.000  
G28  22842781.360   120039753.719          50.000                                                  
E 2  27225025.240   143068443.293          50.000    27225030.480   106836808.785          50.000  
E15  23692919.340   124507092.191          50.000    23692924.900    92976061.082          50.000  
E27  24330008.700   127855033.738          50.000    24330012.900    95476149.684          50.000  
E30  22662291.160   119091113.402          50.000    22662295.120    88931662.012          50.000  
> 2020  6 10 17 49 17.0000000  0 13       0.000000000000
G 2  22886520.540   120269472.551          50.000                                                  
G 6  21492037.000   112941358.629          50.000    21492039.780    84339324.535          50.000  
G12  23655396.440   124309935.875          50.000                                                  
G13  24272569.140   127553227.410          50.000                                                  
G15  24580694.840   129172205.930          50.000                                                  
G17  21688424.620   113973398.945          50.000                                                  
G19  20239328.860   106358390.473          50.000                                                  
G24  21520810.880   113092569.301          50.000    21520812.820    84452241.418          50.000  
G28  22843111.780   120041490.059          50.000                                                  
E 2  27225420.600   143070520.930          50.000    27225425.840   106838360.266          50.000  
E15  23692586.180   124505341.449          50.000    23692591.740    92974753.711          50.000  
E27  24329712.460   127853477.020          50.000    24329716.660    95474987.199          50.000  
E30  22662407.140   119091722.840          50.000    22662411.100    88932117.109          50.000  
> 2020  6 10 17 49 18.0000000  0 13       0.000000000000
G 2  22885930.680   120266372.813          50.000                                                  
G 6  21491624.100   112939188.813          50.000    21491626.880    84337704.215          50.000  
G12  23654878.900   124307216.164          50.000                                                  
G13  24273183.920   127556458.176          50.000                                                  
G15  24581180.960   129174760.504          50.000                                                  
G17  21688839.440   113975578.781          50.000                                                  
G19  20239514.520   106359366.145          50.000                                                  
G24  21520487.740   113090871.176          50.000    21520489.680    84450973.332          50.000  
G28  22843442.220   120043226.547          50.000                                                  
E 2  27225815.980   143072598.695          50.000    27225821.220   106839911.844          50.000  
E15  23692253.100   124503591.098          50.000    23692258.660    92973446.633          50.000  
E27  24329416.260   127851920.406          50.000    24329420.440    95473824.797          50.000  
E30  22662523.160   119092332.492          50.000    22662527.120    88932572.371          50.000  
> 2020  6 10 17 49 19.0000000  0 13       0.000000000000
G 2  22885340.860   120263273.336          50.000                                                  
G 6  21491211.300   112937019.527          50.000    21491214.080    84336084.293          50.000  
G12  23654361.360   124304496.496          50.000                                                  
G13  24273798.720   127559688.926          50.000                                                  
G15  24581667.100   129177315.168          50.000                                                  
G17  21689254.280   113977758.828          50.000                                                  
G19  20239700.280   106360342.305          50.000                                                  
G24  21520164.700   113089173.594          50.000    21520166.640    84449705.652          50.000  
G28  22843772.680   120044963.172          50.000                                                  
E 2  27226211.400   143074676.609          50.000    27226216.640   106841463.535          50.000  
E15  23691920.100   124501841.156          50.000    23691925.660    92972139.859          50.000  
E27  24329120.060   127850363.887          50.000    24329124.240    95472662.461          50.000  
E30  22662639.220   119092942.375          50.000    22662643.160    88933027.805          50.000  
> 2020  6 10 17 49 20.0000000  0 13       0.000000000000
G 2  22884751.100   120260174.117          50.000                                                  
G 6  21490798.600   112934850.766          50.000    21490801.380    84334464.762          50.000  
G12  23653843.840   124301776.867          50.000                                                  
G13  24274413.500   127562919.660          50.000                                                  
G15  24582153.240   129179869.938          50.000                                                  
G17  21689669.180   113979939.074          50.000                                                  
G19  20239886.120   106361318.941          50.000                                                  
G24  21519841.760   113087476.547          50.000    21519843.720    84448438.375          50.000  
G28  22844103.180   120046699.930          50.000                                                  
E 2  27226606.840   143076754.660          50.000    27226612.080   106843015.324          50.000  
E15  23691587.180   124500091.609          50.000    23691592.720    92970833.379          50.000  
E27  24328823.880   127848807.469          50.000    24328828.060    95471500.199          50.000  
E30  22662755.300   119093552.484          50.000    22662759.260    88933483.406          50.000  
> 2020  6 10 17 49 21.0000000  0 13       0.000000000000
G 2  22884161.380   120257075.152          50.000                                                  
G 6  21490386.000   112932682.543          50.000    21490388.780    84332845.633          50.000  
G12  23653326.320   124299057.277          50.000                                                  
G13  24275028.300   127566150.398          50.000                                                  
G15  24582639.420   129182424.809          50.000                                                  
G17  21690084.100   113982119.531          50.000                                                  
G19  20240072.060   106362296.066          50.000                                                  
G24  21519518.920   113085780.031          50.000    21519520.880    84447171.492          50.000  
G28  22844433.700   120048436.813          50.000                                                  
E 2  27227002.320   143078832.859          50.000    27227007.540   106844567.227          50.000  
E15  23691254.320   124498342.465          50.000    23691259.880    92969527.199          50.000  
E27  24328527.720   127847251.152          50.000    24328531.900    95470338.016          50.000  
E30  22662871.460   119094162.820          50.000    22662875.420    88933939.176          50.000  
> 2020  6 10 17 49 22.0000000  0 13       0.000000000000
G 2  22883571.720   120253976.449          50.000                                                  
G 6  21489973.480   112930514.828          50.000    21489976.280    84331226.883          50.000  
G12  23652808.800   124296337.715          50.000                                                  
G13  24275643.080   127569381.133          50.000                                                  
G15  24583125.620   129184979.766          50.000                                                  
G17  21690499.060   113984300.184          50.000                                                  
G19  20240258.100   106363273.668          50.000                                                  
G24  21519196.180   113084084.047          50.000    21519198.140    84445905.008          50.000  
G28  22844764.240   120050173.816          50.000                                                  
E 2  27227397.800   143080911.195          50.000    27227403.040   106846119.230          50.000  
E15  23690921.540   124496593.711          50.000    23690927.100    92968221.316          50.000  
E27  24328231.580   127845694.922          50.000    24328235.760    95469175.898          50.000  
E30  22662987.640   119094773.359          50.000    22662991.600    88934395.098          50.000  
> 2020  6 10 17 49 23.0000000  0 13       0.000000000000
G 2  22882982.100   120250878.004          50.000                                                  
G 6  21489561.080   112928347.652          50.000    21489563.880    84329608.531          50.000  
G12  23652291.280   124293618.188          50.000                                                  
G13  24276257.880   127572611.855          50.000                                                  
G15  24583611.820   129187534.813          50.000                                                  
G17  21690914.080   113986481.051          50.000                                                  
G19  20240444.220   106364251.742          50.000                                                  
G24  21518873.560   113082388.613          50.000    21518875.500    84444638.938          50.000  
G28  22845094.800   120051910.965          50.000                                                  
E 2  27227793.320   143082989.688          50.000    27227798.560   106847671.352          50.000  
E15  23690588.840   124494845.371          50.000    23690594.400    92966915.738          50.000  
E27  24327935.460   127844138.813          50.000    24327939.640    95468013.871          50.000  
E30  22663103.860   119095384.152          50.000    22663107.820    88934851.211          50.000  
> 2020  6 10 17 49 24.0000000  0 13       0.000000000000
G 2  22882392.540   120247779.805          50.000                                                  
G 6  21489148.780   112926180.996          50.000    21489151.580    84327990.574          50.000  
G12  23651773.780   124290898.707          50.000                                                  
G13  24276872.660   127575842.566          50.000                                                  
G15  24584098.060   129190089.961          50.000                                                  
G17  21691329.120   113988662.121          50.000                                                  
G19  20240630.440   106365230.305          50.000                                                  
G24  21518551.020   113080693.684          50.000    21518552.980    84443373.238          50.000  
G28  22845425.400   120053648.242          50.000                                                  
E 2  27228188.880   143085068.309          50.000    27228194.120   106849223.566          50.000  
E15  23690256.220   124493097.422          50.000    23690261.760    92965610.453          50.000  
E27  24327639.360   127842582.797          50.000    24327643.540    95466851.910          50.000  
E30  22663220.140   119095995.148          50.000    22663224.100    88935307.473          50.000  
> 2020  6 10 17 49 25.0000000  0 13       0.000000000000
G 2  22881803.020   120244681.871          50.000                                                  
G 6  21488736.580   112924014.879          50.000    21488739.380    84326373.016          50.000  
G12  23651256.280   124288179.262          50.000                                                  
G13  24277487.440   127579073.273          50.000                                                  
G15  24584584.300   129192645.203          50.000                                                  
G17  21691744.200   113990843.395          50.000                                                  
G19  20240816.740   106366209.344          50.000                                                  
G24  21518228.580   113078999.277          50.000    21518230.540    84442107.934          50.000  
G28  22845756.020   120055385.652          50.000                                                  
E 2  27228584.460   143087147.063          50.000    27228589.680   106850775.883          50.000  
E15  23689923.680   124491349.871          50.000    23689929.220    92964305.461          50.000  
E27  24327343.280   127841026.887          50.000    24327347.460    95465690.031          50.000  
E30  22663336.440   119096606.379          50.000    22663340.400    88935763.910          50.000  
> 2020  6 10 17 49 26.0000000  0 13       0.000000000000
G 2  22881213.540   120241584.191          50.000                                                  
G 6  21488324.480   112921849.270          50.000    21488327.280    84324755.836          50.000  
G12  23650738.800   124285459.848          50.000                                                  
G13  24278102.220   127582303.965          50.000                                                  
G15  24585070.560   129195200.539          50.000                                                  
G17  21692159.320   113993024.875          50.000                                                  
G19  20241003.140   106367188.867          50.000                                                  
G24  21517906.260   113077305.434          50.000    21517908.220    84440843.043          50.000  
G28  22846086.660   120057123.195          50.000                                                  
E 2  27228980.060   143089225.961          50.000    27228985.280   106852328.309          50.000  
E15  23689591.200   124489602.719          50.000    23689596.740    92963000.773          50.000  
E27  24327047.220   127839471.070          50.000    24327051.400    95464528.219          50.000  
E30  22663452.800   119097217.824          50.000    22663456.760    88936220.508          50.000  
> 2020  6 10 17 49 27.0000000  0 13       0.000000000000
G 2  22880624.120   120238486.781          50.000                                                  
G 6  21487912.480   112919684.203          50.000    21487915.280    84323139.063          50.000  
G12  23650221.320   124282740.477          50.000                                                  
G13  24278717.000   127585534.656          50.000                                                  
G15  24585556.840   129197755.969          50.000                                                  
G17  21692574.480   113995206.555          50.000                                                  
G19  20241189.620   106368168.871          50.000                                                  
G24  21517584.020   113075612.098          50.000    21517585.980    84439578.539          50.000  
G28  22846417.340   120058860.867          50.000                                                  
E 2  27229375.680   143091305.008          50.000    27229380.920   106853880.844          50.000  
E15  23689258.800   124487855.973          50.000    23689264.360    92961696.387          50.000  
E27  24326751.180   127837915.367          50.000    24326755.360    95463366.496          50.000  
E30  22663569.200   119097829.496          50.000    22663573.160    88936677.277          50.000  
> 2020  6 10 17 49 28.0000000  0 13       0.000000000000
G 2  22880034.760   120235389.621          50.000                                                  
G 6  21487500.580   112917519.645          50.000    21487503.360    84321522.672          50.000  
G12  23649703.840   124280021.145          50.000                                                  
G13  24279331.780   127588765.340          50.000                                                  
G15  24586043.140   129200311.496          50.000                                                  
G17  21692989.680   113997388.441          50.000                                                  
G19  20241376.200   106369149.348          50.000                                                  
G24  21517261.880   113073919.293          50.000    21517263.860    84438314.426          50.000  
G28  22846748.020   120060598.656          50.000                                                  
E 2  27229771.340   143093384.188          50.000    27229776.580   106855433.477          50.000  
E15  23688926.480   124486109.629          50.000    23688932.040    92960392.297          50.000  
E27  24326455.160   127836359.750          50.000    24326459.340    95462204.836          50.000  
E30  22663685.640   119098441.387          50.000    22663689.600    88937134.207          50.000  
> 2020  6 10 17 49 29.0000000  0 13       0.000000000000
G 2  22879445.440   120232292.727          50.000                                                  
G 6  21487088.780   112915355.637          50.000    21487091.580    84319906.688          50.000  
G12  23649186.380   124277301.836          50.000                                                  
G13  24279946.560   127591996.004          50.000                                                  
G15  24586529.460   129202867.121          50.000                                                  
G17  21693404.920   113999570.531          50.000                                                  
G19  20241562.860   106370130.301          50.000                                                  
G24  21516939.860   113072227.016          50.000    21516941.820    84437050.711          50.000  
G28  22847078.740   120062336.598          50.000                                                  
E 2  27230167.020   143095463.516          50.000    27230172.260   106856986.219          50.000  
E15  23688594.240   124484363.672          50.000    23688599.780    92959088.500          50.000  
E27  24326159.140   127834804.246          50.000    24326163.340    95461043.258          50.000  
E30  22663802.120   119099053.508          50.000    22663806.080    88937591.313          50.000  
> 2020  6 10 17 49 30.0000000  0 13       0.000000000000
G 2  22878856.160   120229196.082          50.000                                                  
G 6  21486677.080   112913192.148          50.000    21486679.880    84318291.094          50.000  
G12  23648668.920   124274582.563          50.000                                                  
G13  24280561.320   127595226.660          50.000                                                  
G15  24587015.800   129205422.828          50.000                                                  
G17  21693820.200   114001752.832          50.000                                                  
G19  20241749.620   106371111.742          50.000                                                  
G24  21516617.940   113070535.297          50.000    21516619.900    84435787.414          50.000  
G28  22847409.480   120064074.656          50.000                                                  
E 2  27230562.740   143097542.984          50.000    27230567.960   106858539.070          50.000  
E15  23688262.080   124482618.121          50.000    23688267.620    92957785.008          50.000  
E27  24325863.160   127833248.824          50.000    24325867.340    95459881.742          50.000  
E30  22663918.640   119099665.840          50.000    22663922.600    88938048.574          50.000  
> 2020  6 10 17 49 31.0000000  0 13       0.000000000000
G 2  22878266.940   120226099.699          50.000                                                  
G 6  21486265.480   112911029.176          50.000    21486268.280    84316675.887          50.000  
G12  23648151.460   124271863.332          50.000                                                  
G13  24281176.100   127598457.320          50.000                                                  
G15  24587502.160   129207978.645          50.000                                                  
G17  21694235.500   114003935.324          50.000                                                  
G19  20241936.480   106372093.660          50.000                                                  
G24  21516296.120   113068844.109          50.000    21516298.080    84434524.512          50.000  
G28  22847740.240   120065812.836          50.000                                                  
E 2  27230958.460   143099622.590          50.000    27230963.700   106860092.020          50.000  
E15  23687929.980   124480872.973          50.000    23687935.520    92956481.813          50.000  
E27  24325567.200   127831693.527          50.000    24325571.380    95458720.316          50.000  
E30  22664035.200   119100278.398          50.000    22664039.160    88938506.004          50.000  
> 2020  6 10 17 49 32.0000000  0 13       0.000000000000
G 2  22877677.760   120223003.570          50.000                                                  
G 6  21485853.980   112908866.730          50.000    21485856.780    84315061.070          50.000  
G12  23647634.020   124269144.121          50.000                                                  
G13  24281790.880   127601687.969          50.000                                                  
G15  24587988.540   129210534.547          50.000                                                  
G17  21694650.860   114006118.016          50.000                                                  
G19  20242123.420   106373076.051          50.000                                                  
G24  21515974.380   113067153.449          50.000    21515976.360    84433262.000          50.000  
G28  22848071.040   120067551.160          50.000                                                  
E 2  27231354.220   143101702.332          50.000    27231359.460   106861645.074          50.000  
E15  23687597.960   124479128.207          50.000    23687603.500    92955178.906          50.000  
E27  24325271.240   127830138.316          50.000    24325275.440    95457558.961          50.000  
E30  22664151.820   119100891.188          50.000    22664155.780    88938963.605          50.000  
> 2020  6 10 17 49 33.0000000  0 13       0.000000000000
G 2  22877088.640   120219907.715          50.000                                                  
G 6  21485442.580   112906704.824          50.000    21485445.380    84313446.656          50.000  
G12  23647116.580   124266424.961          50.000                                                  
G13  24282405.640   127604918.598          50.000                                                  
G15  24588474.920   129213090.535          50.000                                                  
G17  21695066.260   114008300.922          50.000                                                  
G19  20242310.460   106374058.926          50.000                                                  
G24  21515652.780   113065463.340          50.000    21515654.740    84431999.902          50.000  
G28  22848401.860   120069289.625          50.000                                                  
E 2  27231750.020   143103782.207          50.000    27231755.260   106863198.227          50.000  
E15  23687266.020   124477383.855          50.000    23687271.560    92953876.305          50.000  
E27  24324975.320   127828583.211          50.000    24324979.500    95456397.680          50.000  
E30  22664268.460   119101504.195          50.000    22664272.420    88939421.371          50.000  
> 2020  6 10 17 49 34.0000000  0 13       0.000000000000
G 2  22876499.560   120216812.102          50.000                                                  
G 6  21485031.280   112904543.441          50.000    21485034.080    84311832.633          50.000  
G12  23646599.140   124263705.840          50.000                                                  
G13  24283020.400   127608149.223          50.000                                                  
G15  24588961.320   129215646.625          50.000                                                  
G17  21695481.680   114010484.035          50.000                                                  
G19  20242497.580   106375042.289          50.000                                                  
G24  21515331.260   113063773.766          50.000    21515333.220    84430738.207          50.000  
G28  22848732.700   120071028.203          50.000                                                  
E 2  27232145.840   143105862.238          50.000    27232151.060   106864751.496          50.000  
E15  23686934.160   124475639.906          50.000    23686939.700    92952574.004          50.000  
E27  24324679.420   127827028.203          50.000    24324683.600    95455236.473          50.000  
E30  22664385.160   119102117.426          50.000    22664389.120    88939879.305          50.000  
> 2020  6 10 17 49 35.0000000  0 13       0.000000000000
G 2  22875910.520   120213716.750          50.000                                                  
G 6  21484620.080   112902382.582          50.000    21484622.880    84310219.004          50.000  
G12  23646081.720   124260986.750          50.000                                                  
G13  24283635.180   127611379.844          50.000                                                  
G15  24589447.760   129218202.813          50.000                                                  
G17  21695897.160   114012667.340          50.000                                                  
G19  20242684.800   106376026.121          50.000                                                  
G24  21515009.840   113062084.742          50.000    21515011.820    84429476.918          50.000  
G28  22849063.560   120072766.926          50.000                                                  
E 2  27232541.680   143107942.418          50.000    27232546.920   106866304.879          50.000  
E15  23686602.360   124473896.352          50.000    23686607.920    92951272.004          50.000  
E27  24324383.520   127825473.305          50.000    24324387.720    95454075.352          50.000  
E30  22664501.900   119102730.883          50.000    22664505.860    88940337.406          50.000  
> 2020  6 10 17 49 36.0000000  0 13       0.000000000000
G 2  22875321.560   120210621.664          50.000                                                  
G 6  21484209.000   112900222.262          50.000    21484211.780    84308605.773          50.000  
G12  23645564.300   124258267.699          50.000                                                  
G13  24284249.940   127614610.449          50.000                                                  
G15  24589934.200   129220759.090          50.000                                                  
G17  21696312.660   114014850.859          50.000                                                  
G19  20242872.120   106377010.441          50.000                                                  
G24  21514688.540   113060396.238          50.000    21514690.500    84428216.020          50.000  
G28  22849394.460   120074505.785          50.000                                                  
E 2  27232937.540   143110022.723          50.000    27232942.780   106867858.352          50.000  
E15  23686270.660   124472153.199          50.000    23686276.200    92949970.301          50.000  
E27  24324087.660   127823918.504          50.000    24324091.840    95452914.297          50.000  
E30  22664618.680   119103344.559          50.000    22664622.640    88940795.668          50.000  
> 2020  6 10 17 49 37.0000000  0 13       0.000000000000
G 2  22874732.620   120207526.836          50.000                                                  
G 6  21483798.000   112898062.457          50.000    21483800.780    84306992.930          50.000  
G12  23645046.880   124255548.691          50.000                                                  
G13  24284864.700   127617841.039          50.000                                                  
G15  24590420.660   129223315.461          50.000                                                  
G17  21696728.220   114017034.582          50.000                                                  
G19  20243059.520   106377995.238          50.000                                                  
G24  21514367.320   113058708.266          50.000    21514369.300    84426955.520          50.000  
G28  22849725.380   120076244.762          50.000                                                  
E 2  27233333.440   143112103.188          50.000    27233338.680   106869411.945          50.000  
E15  23685939.020   124470410.445          50.000    23685944.560    92948668.895          50.000  
E27  24323791.800   127822363.809          50.000    24323796.000    95451753.324          50.000  
E30  22664735.500   119103958.453          50.000    22664739.460    88941254.098          50.000  
> 2020  6 10 17 49 38.0000000  0 13       0.000000000000
G 2  22874143.740   120204432.270          50.000                                                  
G 6  21483387.100   112895903.180          50.000    21483389.880    84305380.480          50.000  
G12  23644529.480   124252829.711          50.000                                                  
G13  24285479.460   127621071.621          50.000                                                  
G15  24590907.140   129225871.918          50.000                                                  
G17  21697143.800   114019218.508          50.000                                                  
G19  20243247.000   106378980.516          50.000                                                  
G24  21514046.220   113057020.855          50.000    21514048.180    84425695.434          50.000  
G28  22850056.320   120077983.875          50.000                                                  
E 2  27233729.380   143114183.777          50.000    27233734.600   106870965.633          50.000  
E15  23685607.460   124468668.086          50.000    23685613.000    92947367.781          50.000  
E27  24323495.980   127820809.199          50.000    24323500.160    95450592.418          50.000  
E30  22664852.360   119104572.586          50.000    22664856.320    88941712.703          50.000  
> 2020  6 10 17 49 39.0000000  0 13       0.000000000000
G 2  22873554.920   120201337.949          50.000                                                  
G 6  21482976.300   112893744.434          50.000    21482979.100    84303768.430          50.000  
G12  23644012.080   124250110.762          50.000                                                  
G13  24286094.220   127624302.203          50.000                                                  
G15  24591393.640   129228428.469          50.000                                                  
G17  21697559.420   114021402.633          50.000                                                  
G19  20243434.580   106379966.273          50.000                                                  
G24  21513725.220   113055333.977          50.000    21513727.180    84424435.750          50.000  
G28  22850387.280   120079723.121          50.000                                                  
E 2  27234125.320   143116264.508          50.000    27234130.560   106872519.426          50.000  
E15  23685275.980   124466926.129          50.000    23685281.520    92946066.969          50.000  
E27  24323200.160   127819254.699          50.000    24323204.340    95449431.590          50.000  
E30  22664969.260   119105186.922          50.000    22664973.220    88942171.465          50.000  
> 2020  6 10 17 49 40.0000000  0 13       0.000000000000
G 2  22872966.140   120198243.906          50.000                                                  
G 6  21482565.600   112891586.207          50.000    21482568.400    84302156.762          50.000  
G12  23643494.680   124247391.863          50.000                                                  
G13  24286708.980   127627532.773          50.000                                                  
G15  24591880.140   129230985.113          50.000                                                  
G17  21697975.100   114023586.957          50.000                                                  
G19  20243622.260   106380952.504          50.000                                                  
G24  21513404.320   113053647.625          50.000    21513406.280    84423176.457          50.000  
G28  22850718.280   120081462.477          50.000                                                  
E 2  27234521.300   143118345.371          50.000    27234526.540   106874073.316          50.000  
E15  23684944.560   124465184.570          50.000    23684950.120    92944766.457          50.000  
E27  24322904.360   127817700.293          50.000    24322908.560    95448270.836          50.000  
E30  22665086.220   119105801.496          50.000    22665090.180    88942630.398          50.000  
> 2020  6 10 17 49 41.0000000  0 13       0.000000000000
G 2  22872377.400   120195150.113          50.000                                                  
G 6  21482155.000   112889428.523          50.000    21482157.800    84300545.504          50.000  
G12  23642977.300   124244672.988          50.000                                                  
G13  24287323.740   127630763.320          50.000                                                  
G15  24592366.680   129233541.855          50.000                                                  
G17  21698390.800   114025771.488          50.000                                                  
G19  20243810.020   106381939.207          50.000                                                  
G24  21513083.500   113051961.797          50.000    21513085.480    84421917.555          50.000  
G28  22851049.300   120083201.973          50.000                                                  
E 2  27234917.300   143120426.379          50.000    27234922.540   106875627.313          50.000  
E15  23684613.240   124463443.406          50.000    23684618.780    92943466.242          50.000  
E27  24322608.600   127816146.000          50.000    24322612.780    95447110.160          50.000  
E30  22665203.200   119106416.293          50.000    22665207.160    88943089.500          50.000  
> 2020  6 10 17 49 42.0000000  0 13       0.000000000000
G 2  22871788.720   120192056.594          50.000                                                  
G 6  21481744.520   112887271.367          50.000    21481747.300    84298934.637          50.000  
G12  23642459.920   124241954.156          50.000                                                  
G13  24287938.480   127633993.871          50.000                                                  
G15  24592853.220   129236098.672          50.000                                                  
G17  21698806.540   114027956.227          50.000                                                  
G19  20243997.880   106382926.406          50.000                                                  
G24  21512762.800   113050276.500          50.000    21512764.780    84420659.051          50.000  
G28  22851380.340   120084941.617          50.000                                                  
E 2  27235313.340   143122507.543          50.000    27235318.560   106877181.430          50.000  
E15  23684281.980   124461702.652          50.000    23684287.520    92942166.328          50.000  
E27  24322312.840   127814591.809          50.000    24322317.020    95445949.563          50.000  
E30  22665320.240   119107031.305          50.000    22665324.200    88943548.762          50.000  
> 2020  6 10 17 49 43.0000000  0 13       0.000000000000
G 2  22871200.100   120188963.324          50.000                                                  
G 6  21481334.120   112885114.734          50.000    21481336.920    84297324.164          50.000  
G12  23641942.540   124239235.363          50.000                                                  
G13  24288553.240   127637224.410          50.000                                                  
G15  24593339.800   129238655.598          50.000                                                  
G17  21699222.320   114030141.168          50.000                                                  
G19  20244185.820   106383914.070          50.000                                                  
G24  21512442.200   113048591.746          50.000    21512444.180    84419400.957          50.000  
G28  22851711.400   120086681.379          50.000                                                  
E 2  27235709.380   143124588.836          50.000    27235714.620   106878735.641          50.000  
E15  23683950.800   124459962.297          50.000    23683956.340    92940866.711          50.000  
E27  24322017.100   127813037.711          50.000    24322021.300    95444789.035          50.000  
E30  22665437.320   119107646.543          50.000    22665441.280    88944008.191          50.000  
> 2020  6 10 17 49 44.0000000  0 13       0.000000000000
G 2  22870611.520   120185870.313          50.000                                                  
G 6  21480923.820   112882958.621          50.000    21480926.620    84295714.074          50.000  
G12  23641425.180   124236516.598          50.000                                                  
G13  24289167.980   127640454.930          50.000                                                  
G15  24593826.380   129241212.609          50.000                                                  
G17  21699638.140   114032326.309          50.000                                                  
G19  20244373.860   106384902.219          50.000                                                  
G24  21512121.700   113046907.508          50.000    21512123.680    84418143.242          50.000  
G28  22852042.500   120088421.277          50.000                                                  
E 2  27236105.480   143126670.262          50.000    27236110.700   106880289.953          50.000  
E15  23683619.700   124458222.336          50.000    23683625.240    92939567.391          50.000  
E27  24321721.400   127811483.715          50.000    24321725.580    95443628.586          50.000  
E30  22665554.440   119108262.000          50.000    22665558.400    88944467.789          50.000  
> 2020  6 10 17 49 45.0000000  0 13       0.000000000000
G 2  22870022.960   120182777.633          50.000                                                  
G 6  21480513.640   112880803.047          50.000    21480516.440    84294104.383          50.000  
G12  23640907.840   124233797.813          50.000                                                  
G13  24289782.740   127643685.445          50.000                                                  
G15  24594312.980   129243769.688          50.000                                                  
G17  21700053.980   114034511.664          50.000                                                  
G19  20244562.000   106385890.836          50.000                                                  
G24  21511801.320   113045223.832          50.000    21511803.300    84416885.941          50.000  
G28  22852373.600   120090161.281          50.000                                                  
E 2  27236501.580   143128751.832          50.000    27236506.820   106881844.363          50.000  
E15  23683288.680   124456482.773          50.000    23683294.220    92938268.363          50.000  
E27  24321425.700   127809929.816          50.000    24321429.880    95442468.207          50.000  
E30  22665671.600   119108877.691          50.000    22665675.560    88944927.555          50.000  
> 2020  6 10 17 49 46.0000000  0 13       0.000000000000
G 2  22869434.480   120179685.133          50.000                                                  
G 6  21480103.540   112878647.992          50.000    21480106.340    84292495.090          50.000  
G12  23640390.500   124231079.133          50.000                                                  
G13  24290397.480   127646915.949          50.000                                                  
G15  24594799.600   129246326.879          50.000                                                  
G17  21700469.880   114036697.211          50.000                                                  
G19  20244750.220   106386879.953          50.000                                                  
G24  21511481.020   113043540.707          50.000    21511483.000    84415629.063          50.000  
G28  22852704.760   120091901.434          50.000                                                  
E 2  27236897.720   143130833.543          50.000    27236902.960   106883398.887          50.000  
E15  23682957.720   124454743.609          50.000    23682963.260    92936969.637          50.000  
E27  24321130.020   127808376.027          50.000    24321134.200    95441307.910          50.000  
E30  22665788.800   119109493.605          50.000    22665792.760    88945387.488          50.000  
> 2020  6 10 17 49 47.0000000  0 13       0.000000000000
G 2  22868846.060   120176592.914          50.000                                                  
G 6  21479693.540   112876493.477          50.000    21479696.340    84290886.195          50.000  
G12  23639873.140   124228360.488          50.000                                                  
G13  24291012.220   127650146.449          50.000                                                  
G15  24595286.240   129248884.172          50.000                                                  
G17  21700885.820   114038882.965          50.000                                                  
G19  20244938.540   106387869.531          50.000                                                  
G24  21511160.840   113041858.109          50.000    21511162.820    84414372.574          50.000  
G28  22853035.920   120093641.715          50.000                                                  
E 2  27237293.880   143132915.402          50.000    27237299.120   106884953.523          50.000  
E15  23682626.840   124453004.855          50.000    23682632.380    92935671.219          50.000  
E27  24320834.360   127806822.336          50.000    24320838.540    95440147.688          50.000  
E30  22665906.040   119110109.734          50.000    22665910.000    88945847.590          50.000  
> 2020  6 10 17 49 48.0000000  0 13       0.000000000000
G 2  22868257.660   120173500.938          50.000                                                  
G 6  21479283.660   112874339.484          50.000    21479286.460    84289277.691          50.000  
G12  23639355.820   124225641.887          50.000                                                  
G13  24291626.960   127653376.938          50.000                                                  
G15  24595772.880   129251441.547          50.000                                                  
G17  21701301.800   114041068.914          50.000                                                  
G19  20245126.940   106388859.598          50.000                                                  
G24  21510840.760   113040176.047          50.000    21510842.740    84413116.484          50.000  
G28  22853367.100   120095382.133          50.000                                                  
E 2  27237690.080   143134997.398          50.000    27237695.320   106886508.262          50.000  
E15  23682296.040   124451266.500          50.000    23682301.580    92934373.098          50.000  
E27  24320538.720   127805268.746          50.000    24320542.900    95438987.539          50.000  
E30  22666023.340   119110726.094          50.000    22666027.300    88946307.855          50.000  
> 2020  6 10 17 49 49.0000000  0 13       0.000000000000
G 2  22867669.340   120170409.227          50.000                                                  
G 6  21478873.860   112872186.020          50.000    21478876.660    84287669.582          50.000  
G12  23638838.480   124222923.324          50.000                                                  
G13  24292241.700   127656607.418          50.000                                                  
G15  24596259.560   129253999.016          50.000                                                  
G17  21701717.800   114043255.066          50.000                                                  
G19  20245315.420   106389850.152          50.000                                                  
G24  21510520.760   113038494.523          50.000    21510522.740    84411860.801          50.000  
G28  22853698.320   120097122.656          50.000                                                  
E 2  27238086.300   143137079.527          50.000    27238091.540   106888063.098          50.000  
E15  23681965.320   124449528.531          50.000    23681970.860    92933075.262          50.000  
E27  24320243.100   127803715.258          50.000    24320247.280    95437827.469          50.000  
E30  22666140.660   119111342.668          50.000    22666144.620    88946768.285          50.000  
> 2020  6 10 17 49 50.0000000  0 13       0.000000000000
G 2  22867081.040   120167317.781          50.000                                                  
G 6  21478464.180   112870033.086          50.000    21478466.980    84286061.871          50.000  
G12  23638321.160   124220204.801          50.000                                                  
G13  24292856.440   127659837.883          50.000                                                  
G15  24596746.240   129256556.578          50.000                                                  
G17  21702133.860   114045441.426          50.000                                                  
G19  20245504.020   106390841.176          50.000                                                  
G24  21510200.900   113036813.559          50.000    21510202.880    84410605.531          50.000  
G28  22854029.560   120098863.332          50.000                                                  
E 2  27238482.540   143139161.805          50.000    27238487.780   106889618.043          50.000  
E15  23681634.680   124447790.977          50.000    23681640.220    92931777.742          50.000  
E27  24319947.500   127802161.883          50.000    24319951.680    95436667.480          50.000  
E30  22666258.040   119111959.465          50.000    22666262.000    88947228.879          50.000  
> 2020  6 10 17 49 51.0000000  0 13       0.000000000000
G 2  22866492.820   120164226.590          50.000                                                  
G 6  21478054.580   112867880.688          50.000    21478057.380    84284454.555          50.000  
G12  23637803.860   124217486.313          50.000                                                  
G13  24293471.180   127663068.355          50.000                                                  
G15  24597232.960   129259114.230          50.000                                                  
G17  21702549.940   114047627.988          50.000                                                  
G19  20245692.680   106391832.660          50.000                                                  
G24  21509881.120   113035133.129          50.000    21509883.100    84409350.660          50.000  
G28  22854360.820   120100604.141          50.000                                                  
E 2  27238878.820   143141244.238          50.000    27238884.060   106891173.109          50.000  
E15  23681304.100   124446053.824          50.000    23681309.640    92930480.516          50.000  
E27  24319651.920   127800608.590          50.000    24319656.100    95435507.555          50.000  
E30  22666375.460   119112576.496          50.000    22666379.420    88947689.652          50.000  
> 2020  6 10 17 49 52.0000000  0 13       0.000000000000
G 2  22865904.620   120161135.656          50.000                                                  
G 6  21477645.100   112865728.813          50.000    21477647.900    84282847.633          50.000  
G12  23637286.560   124214767.867          50.000                                                  
G13  24294085.920   127666298.793          50.000                                                  
G15  24597719.680   129261671.980          50.000                                                  
G17  21702966.060   114049814.750          50.000                                                  
G19  20245881.460   106392824.633          50.000                                                  
G24  21509561.440   113033453.223          50.000    21509563.420    84408096.184          50.000  
G28  22854692.120   120102345.094          50.000                                                  
E 2  27239275.120   143143326.801          50.000    27239280.360   106892728.266          50.000  
E15  23680973.620   124444317.066          50.000    23680979.160    92929183.590          50.000  
E27  24319356.360   127799055.406          50.000    24319360.540    95434347.711          50.000  
E30  22666492.920   119113193.746          50.000    22666496.880    88948150.582          50.000  
> 2020  6 10 17 49 53.0000000  0 13       0.000000000000
G 2  22865316.480   120158044.984          50.000                                                  
G 6  21477235.700   112863577.461          50.000    21477238.520    84281241.105          50.000  
G12  23636769.260   124212049.445          50.000                                                  
G13  24294700.640   127669529.219          50.000                                                  
G15  24598206.420   129264229.820          50.000                                                  
G17  21703382.240   114052001.715          50.000                                                  
G19  20246070.320   106393817.102          50.000                                                  
G24  21509241.860   113031773.852          50.000    21509243.840    84406842.105          50.000  
G28  22855023.420   120104086.156          50.000                                                  
E 2  27239671.440   143145409.500          50.000    27239676.680   106894283.531          50.000  
E15  23680643.200   124442580.711          50.000    23680648.740    92927886.961          50.000  
E27  24319060.820   127797502.332          50.000    24319065.000    95433187.949          50.000  
E30  22666610.420   119113811.219          50.000    22666614.380    88948611.684          50.000  
> 2020  6 10 17 49 54.0000000  0 13       0.000000000000
G 2  22864728.400   120154954.574          50.000                                                  
G 6  21476826.420   112861426.648          50.000    21476829.220    84279634.977          50.000  
G12  23636251.960   124209331.063          50.000                                                  
G13  24295315.380   127672759.637          50.000                                                  
G15  24598693.180   129266787.750          50.000                                                  
G17  21703798.440   114054188.887          50.000                                                  
G19  20246259.260   106394810.047          50.000                                                  
G24  21508922.400   113030095.035          50.000    21508924.380    84405588.438          50.000  
G28  22855354.760   120105827.375          50.000                                                  
E 2  27240067.780   143147492.348          50.000    27240073.020   106895838.902          50.000  
E15  23680312.840   124440844.754          50.000    23680318.400    92926590.633          50.000  
E27  24318765.300   127795949.355          50.000    24318769.480    95432028.258          50.000  
E30  22666727.960   119114428.922          50.000    22666731.920    88949072.957          50.000  
> 2020  6 10 17 49 55.0000000  0 13       0.000000000000
G 2  22864140.360   120151864.434          50.000                                                  
G 6  21476417.240   112859276.363          50.000    21476420.040    84278029.242          50.000  
G12  23635734.680   124206612.719          50.000                                                  
G13  24295930.100   127675990.047          50.000                                                  
G15  24599179.960   129269345.766          50.000                                                  
G17  21704214.680   114056376.254          50.000                                                  
G19  20246448.300   106395803.453          50.000                                                  
G24  21508603.020   113028416.719          50.000    21508605.000    84404335.148          50.000  
G28  22855686.140   120107568.707          50.000                                                  
E 2  27240464.160   143149575.328          50.000    27240469.400   106897394.375          50.000  
E15  23679982.580   124439109.199          50.000    23679988.120    92925294.602          50.000  
E27  24318469.800   127794396.480          50.000    24318473.980    95430868.648          50.000  
E30  22666845.540   119115046.840          50.000    22666849.500    88949534.391          50.000  
> 2020  6 10 17 49 56.0000000  0 13       0.000000000000
G 2  22863552.380   120148774.543          50.000                                                  
G 6  21476008.140   112857126.605          50.000    21476010.960    84276423.898          50.000  
G12  23635217.400   124203894.406          50.000                                                  
G13  24296544.820   127679220.453          50.000                                                  
G15  24599666.740   129271903.867          50.000                                                  
G17  21704630.960   114058563.832          50.000                                                  
G19  20246637.440   106396797.352          50.000                                                  
G24  21508283.760   113026738.961          50.000    21508285.740    84403082.273          50.000  
G28  22856017.520   120109310.168          50.000                                                  
E 2  27240860.580   143151658.449          50.000    27240865.820   106898949.949          50.000  
E15  23679652.400   124437374.039          50.000    23679657.940    92923998.867          50.000  
E27  24318174.300   127792843.703          50.000    24318178.500    95429709.105          50.000  
E30  22666963.180   119115664.980          50.000    22666967.140    88949995.988          50.000  
> 2020  6 10 17 49 57.0000000  0 13       0.000000000000
G 2  22862964.440   120145684.910          50.000                                                  
G 6  21475599.160   112854977.387          50.000    21475601.960    84274818.949          50.000  
G12  23634700.120   124201176.133          50.000                                                  
G13  24297159.540   127682450.836          50.000                                                  
G15  24600153.560   129274462.070          50.000                                                  
G17  21705047.280   114060751.617          50.000                                                  
G19  20246826.660   106397791.727          50.000                                                  
G24  21507964.600   113025061.766          50.000    21507966.580    84401829.809          50.000  
G28  22856348.940   120111051.781          50.000                                                  
E 2  27241257.000   143153741.727          50.000    27241262.240   106900505.645          50.000  
E15  23679322.280   124435639.289          50.000    23679327.820    92922703.438          50.000  
E27  24317878.840   127791291.035          50.000    24317883.020    95428549.648          50.000  
E30  22667080.840   119116283.355          50.000    22667084.800    88950457.762          50.000  
> 2020  6 10 17 49 58.0000000  0 13       0.000000000000
G 2  22862376.540   120142595.555          50.000                                                  
G 6  21475190.280   112852828.695          50.000    21475193.080    84273214.402          50.000  
G12  23634182.860   124198457.898          50.000                                                  
G13  24297774.260   127685681.215          50.000                                                  
G15  24600640.380   129277020.363          50.000                                                  
G17  21705463.640   114062939.605          50.000                                                  
G19  20247015.980   106398786.574          50.000                                                  
G24  21507645.540   113023385.094          50.000    21507647.520    84400577.750          50.000  
G28  22856680.380   120112793.496          50.000                                                  
E 2  27241653.460   143155825.121          50.000    27241658.700   106902061.426          50.000  
E15  23678992.240   124433904.930          50.000    23678997.780    92921408.297          50.000  
E27  24317583.400   127789738.461          50.000    24317587.580    95427390.258          50.000  
E30  22667198.560   119116901.938          50.000    22667202.520    88950919.688          50.000  
> 2020  6 10 17 49 59.0000000  0 13       0.000000000000
G 2  22861788.700   120139506.453          50.000                                                  
G 6  21474781.500   112850680.539          50.000    21474784.300    84271610.262          50.000  
G12  23633665.600   124195739.703          50.000                                                  
G13  24298388.980   127688911.590          50.000                                                  
G15  24601127.220   129279578.742          50.000                                                  
G17  21705880.040   114065127.797          50.000                                                  
G19  20247205.380   106399781.902          50.000                                                  
G24  21507326.580   113021708.957          50.000    21507328.560    84399326.086          50.000  
G28  22857011.840   120114535.371          50.000                                                  
E 2  27242049.960   143157908.672          50.000    27242055.200   106903617.324          50.000  
E15  23678662.280   124432170.980          50.000    23678667.820    92920113.465          50.000  
E27  24317287.980   127788185.992          50.000    24317292.160    95426230.945          50.000  
E30  22667316.320   119117520.754          50.000    22667320.280    88951381.793          50.000  
> 2020  6 10 17 50  0.0000000  0 13       0.000000000000
G 2  22861200.920   120136417.602          50.000                                                  
G 6  21474372.800   112848532.887          50.000    21474375.620    84270006.496          50.000  
G12  23633148.340   124193021.535          50.000                                                  
G13  24299003.700   127692141.949          50.000                                                  
G15  24601614.080   129282137.207          50.000                                                  
G17  21706296.480   114067316.184          50.000                                                  
G19  20247394.860   106400777.703          50.000                                                  
G24  21507007.720   113020033.348          50.000    21507009.700    84398074.820          50.000  
G28  22857343.340   120116277.359          50.000                                                  
E 2  27242446.460   143159992.359          50.000    27242451.700   106905173.324          50.000  
E15  23678332.400   124430437.422          50.000    23678337.940    92918818.930          50.000  
E27  24316992.560   127786633.625          50.000    24316996.760    95425071.711          50.000  
E30  22667434.120   119118139.793          50.000    22667438.080    88951844.059          50.000  
> 2020  6 10 17 50  1.0000000  0 13       0.000000000000
G 2  22860613.180   120133329.027          50.000                                                  
G 6  21473964.220   112846385.785          50.000    21473967.040    84268403.141          50.000  
G12  23632631.100   124190303.414          50.000                                                  
G13  24299618.420   127695372.293          50.000                                                  
G15  24602100.960   129284695.770          50.000                                                  
G17  21706712.960   114069504.770          50.000                                                  
G19  20247584.460   106401773.984          50.000                                                  
G24  21506688.960   113018358.289          50.000    21506690.940    84396823.965          50.000  
G28  22857674.840   120118019.453          50.000                                                  
E 2  27242843.000   143162076.195          50.000    27242848.240   106906729.434          50.000  
E15  23678002.580   124428704.270          50.000    23678008.120    92917524.691          50.000  
E27  24316697.180   127785081.363          50.000    24316701.360    95423912.555          50.000  
E30  22667551.960   119118759.055          50.000    22667555.920    88952306.496          50.000  
> 2020  6 10 17 50  2.0000000  0 13       0.000000000000
G 2  22860025.500   120130240.703          50.000                                                  
G 6  21473555.740   112844239.203          50.000    21473558.560    84266800.180          50.000  
G12  23632113.860   124187585.320          50.000                                                  
G13  24300233.120   127698602.613          50.000                                                  
G15  24602587.860   129287254.426          50.000                                                  
G17  21707129.460   114071693.559          50.000                                                  
G19  20247774.140   106402770.746          50.000                                                  
G24  21506370.300   113016683.770          50.000    21506372.300    84395573.516          50.000  
G28  22858006.380   120119761.707          50.000                                                  
E 2  27243239.580   143164160.160          50.000    27243244.820   106908285.641          50.000  
E15  23677672.860   124426971.516          50.000    23677678.400    92916230.754          50.000  
E27  24316401.820   127783529.191          50.000    24316406.000    95422753.469          50.000  
E30  22667669.840   119119378.539          50.000    22667673.800    88952769.098          50.000  
> 2020  6 10 17 50  3.0000000  0 13       0.000000000000
G 2  22859437.840   120127152.641          50.000                                                  
G 6  21473147.360   112842093.156          50.000    21473150.180    84265197.609          50.000  
G12  23631596.640   124184867.266          50.000                                                  
G13  24300847.840   127701832.938          50.000                                                  
G15  24603074.760   129289813.164          50.000                                                  
G17  21707546.020   114073882.555          50.000                                                  
G19  20247963.900   106403767.988          50.000                                                  
G24  21506051.760   113015009.789          50.000    21506053.760    84394323.461          50.000  
G28  22858337.940   120121504.094          50.000                                                  
E 2  27243636.160   143166244.262          50.000    27243641.400   106909841.949          50.000  
E15  23677343.200   124425239.160          50.000    23677348.740    92914937.113          50.000  
E27  24316106.460   127781977.125          50.000    24316110.640    95421594.457          50.000  
E30  22667787.760   119119998.254          50.000    22667791.720    88953231.871          50.000  
> 2020  6 10 17 50  4.0000000  0 13       0.000000000000
G 2  22858850.260   120124064.840          50.000                                                  
G 6  21472739.080   112839947.641          50.000    21472741.900    84263595.438          50.000  
G12  23631079.420   124182149.254          50.000                                                  
G13  24301462.540   127705063.246          50.000                                                  
G15  24603561.700   129292371.996          50.000                                                  
G17  21707962.600   114076071.750          50.000                                                  
G19  20248153.760   106404765.715          50.000                                                  
G24  21505733.320   113013336.348          50.000    21505735.300    84393073.813          50.000  
G28  22858669.540   120123246.605          50.000                                                  
E 2  27244032.780   143168328.527          50.000    27244038.020   106911398.379          50.000  
E15  23677013.620   124423507.215          50.000    23677019.160    92913643.777          50.000  
E27  24315811.140   127780425.172          50.000    24315815.320    95420435.531          50.000  
E30  22667905.740   119120618.180          50.000    22667909.700    88953694.809          50.000  
> 2020  6 10 17 50  5.0000000  0 13       0.000000000000
G 2  22858262.720   120120977.305          50.000                                                  
G 6  21472330.900   112837802.656          50.000    21472333.720    84261993.664          50.000  
G12  23630562.200   124179431.277          50.000                                                  
G13  24302077.240   127708293.527          50.000                                                  
G15  24604048.640   129294930.922          50.000                                                  
G17  21708379.240   114078261.145          50.000                                                  
G19  20248343.700   106405763.898          50.000                                                  
G24  21505414.960   113011663.418          50.000    21505416.960    84391824.547          50.000  
G28  22859001.160   120124989.250          50.000                                                  
E 2  27244429.440   143170412.914          50.000    27244434.680   106912954.906          50.000  
E15  23676684.120   124421775.668          50.000    23676689.660    92912350.738          50.000  
E27  24315515.820   127778873.320          50.000    24315520.000    95419276.680          50.000  
E30  22668023.740   119121238.344          50.000    22668027.700    88954157.914          50.000  
> 2020  6 10 17 50  6.0000000  0 13       0.000000000000
G 2  22857675.220   120117890.027          50.000                                                  
G 6  21471922.820   112835658.199          50.000    21471925.640    84260392.285          50.000  
G12  23630045.000   124176713.324          50.000                                                  
G13  24302691.940   127711523.813          50.000                                                  
G15  24604535.620   129297489.941          50.000                                                  
G17  21708795.900   114080450.738          50.000                                                  
G19  20248533.760   106406762.582          50.000                                                  
G24  21505096.720   113009991.051          50.000    21505098.720    84390575.703          50.000  
G28  22859332.800   120126732.039          50.000                                                  
E 2  27244826.100   143172497.453          50.000    27244831.340   106914511.539          50.000  
E15  23676354.680   124420044.516          50.000    23676360.220    92911058.000          50.000  
E27  24315220.540   127777321.570          50.000    24315224.720    95418117.910          50.000  
E30  22668141.800   119121858.742          50.000    22668145.760    88954621.199          50.000  
> 2020  6 10 17 50  7.0000000  0 13       0.000000000000
G 2  22857087.780   120114803.004          50.000                                                  
G 6  21471514.860   112833514.262          50.000    21471517.660    84258791.293          50.000  
G12  23629527.780   124173995.422          50.000                                                  
G13  24303306.640   127714754.078          50.000                                                  
G15  24605022.600   129300049.043          50.000                                                  
G17  21709212.600   114082640.535          50.000                                                  
G19  20248723.880   106407761.730          50.000                                                  
G24  21504778.580   113008319.199          50.000    21504780.580    84389327.242          50.000  
G28  22859664.460   120128474.934          50.000                                                  
E 2  27245222.800   143174582.109          50.000    27245228.040   106916068.266          50.000  
E15  23676025.340   124418313.762          50.000    23676030.880    92909765.555          50.000  
E27  24314925.280   127775769.914          50.000    24314929.460    95416959.207          50.000  
E30  22668259.900   119122479.340          50.000    22668263.860    88955084.633          50.000  
> 2020  6 10 17 50  8.0000000  0 13       0.000000000000
G 2  22856500.400   120111716.266          50.000                                                  
G 6  21471106.980   112831370.867          50.000    21471109.780    84257190.711          50.000  
G12  23629010.600   124171277.559          50.000                                                  
G13  24303921.340   127717984.336          50.000                                                  
G15  24605509.600   129302608.234          50.000                                                  
G17  21709629.360   114084830.535          50.000                                                  
G19  20248914.100   106408761.363          50.000                                                  
G24  21504460.540   113006647.922          50.000    21504462.540    84388079.211          50.000  
G28  22859996.140   120130217.977          50.000                                                  
E 2  27245619.540   143176666.926          50.000    27245624.780   106917625.105          50.000  
E15  23675696.060   124416583.410          50.000    23675701.600    92908473.406          50.000  
E27  24314630.020   127774218.363          50.000    24314634.200    95415800.582          50.000  
E30  22668378.040   119123100.168          50.000    22668382.000    88955548.238          50.000  
> 2020  6 10 17 50  9.0000000  0 13       0.000000000000
G 2  22855913.060   120108629.773          50.000                                                  
G 6  21470699.200   112829228.000          50.000    21470702.020    84255590.520          50.000  
G12  23628493.400   124168559.734          50.000                                                  
G13  24304536.040   127721214.586          50.000                                                  
G15  24605996.600   129305167.520          50.000                                                  
G17  21710046.140   114087020.734          50.000                                                  
G19  20249104.420   106409761.469          50.000                                                  
G24  21504142.620   113004977.160          50.000    21504144.600    84386831.566          50.000  
G28  22860327.860   120131961.148          50.000                                                  
E 2  27246016.280   143178751.879          50.000    27246021.520   106919182.051          50.000  
E15  23675366.860   124414853.461          50.000    23675372.400    92907181.566          50.000  
E27  24314334.780   127772666.906          50.000    24314338.960    95414642.027          50.000  
E30  22668496.220   119123721.211          50.000    22668500.180    88956012.004          50.000  
> 2020  6 10 17 50 10.0000000  0 13       0.000000000000
G 2  22855325.760   120105543.547          50.000                                                  
G 6  21470291.520   112827085.676          50.000    21470294.340    84253990.730          50.000  
G12  23627976.220   124165841.941          50.000                                                  
G13  24305150.740   127724444.797          50.000                                                  
G15  24606483.640   129307726.887          50.000                                                  
G17  21710462.960   114089211.145          50.000                                                  
G19  20249294.820   106410762.047          50.000                                                  
G24  21503824.780   113003306.941          50.000    21503826.760    84385584.324          50.000  
G28  22860659.600   120133704.461          50.000                                                  
E 2  27246413.060   143180836.988          50.000    27246418.300   106920739.113          50.000  
E15  23675037.740   124413123.918          50.000    23675043.280    92905890.027          50.000  
E27  24314039.580   127771115.570          50.000    24314043.760    95413483.563          50.000  
E30  22668614.460   119124342.500          50.000    22668618.400    88956475.957          50.000  
> 2020  6 10 17 50 11.0000000  0 13       0.000000000000
G 2  22854738.520   120102457.582          50.000                                                  
G 6  21469883.960   112824943.867          50.000    21469886.760    84252391.332          50.000  
G12  23627459.060   124163124.188          50.000                                                  
G13  24305765.420   127727674.996          50.000                                                  
G15  24606970.680   129310286.348          50.000                                                  
G17  21710879.820   114091401.762          50.000                                                  
G19  20249485.320   106411763.109          50.000                                                  
G24  21503507.040   113001637.238          50.000    21503509.040    84384337.473          50.000  
G28  22860991.360   120135447.898          50.000                                                  
E 2  27246809.880   143182922.215          50.000    27246815.120   106922296.262          50.000  
E15  23674708.700   124411394.770          50.000    23674714.220    92904598.781          50.000  
E27  24313744.380   127769564.328          50.000    24313748.560    95412325.168          50.000  
E30  22668732.720   119124964.004          50.000    22668736.680    88956940.066          50.000  
> 2020  6 10 17 50 12.0000000  0 13       0.000000000000
G 2  22854151.340   120099371.887          50.000                                                  
G 6  21469476.480   112822802.590          50.000    21469479.300    84250792.324          50.000  
G12  23626941.900   124160406.473          50.000                                                  
G13  24306380.100   127730905.188          50.000                                                  
G15  24607457.760   129312845.879          50.000                                                  
G17  21711296.700   114093592.563          50.000                                                  
G19  20249675.900   106412764.641          50.000                                                  
G24  21503189.420   112999968.086          50.000    21503191.400    84383091.027          50.000  
G28  22861323.160   120137191.449          50.000                                                  
E 2  27247206.700   143185007.598          50.000    27247211.960   106923853.527          50.000  
E15  23674379.720   124409666.020          50.000    23674385.260    92903307.828          50.000  
E27  24313449.200   127768013.180          50.000    24313453.380    95411166.844          50.000  
E30  22668851.020   119125585.727          50.000    22668854.980    88957404.340          50.000  
> 2020  6 10 17 50 13.0000000  0 13       0.000000000000
G 2  22853564.200   120096286.453          50.000                                                  
G 6  21469069.120   112820661.852          50.000    21469071.920    84249193.723          50.000  
G12  23626424.740   124157688.793          50.000                                                  
G13  24306994.780   127734135.371          50.000                                                  
G15  24607944.840   129315405.516          50.000                                                  
G17  21711713.640   114095783.570          50.000                                                  
G19  20249866.580   106413766.660          50.000                                                  
G24  21502871.880   112998299.445          50.000    21502873.880    84381844.965          50.000  
G28  22861654.960   120138935.148          50.000                                                  
E 2  27247603.580   143187093.117          50.000    27247608.820   106925410.895          50.000  
E15  23674050.820   124407937.688          50.000    23674056.360    92902017.191          50.000  
E27  24313154.060   127766462.152          50.000    24313158.240    95410008.609          50.000  
E30  22668969.380   119126207.680          50.000    22668973.340    88957868.785          50.000  
> 2020  6 10 17 50 14.0000000  0 13       0.000000000000
G 2  22852977.100   120093201.285          50.000                                                  
G 6  21468661.840   112818521.637          50.000    21468664.660    84247595.516          50.000  
G12  23625907.580   124154971.156          50.000                                                  
G13  24307609.460   127737365.535          50.000                                                  
G15  24608431.940   129317965.242          50.000                                                  
G17  21712130.620   114097974.785          50.000                                                  
G19  20250057.360   106414769.152          50.000                                                  
G24  21502554.460   112996631.379          50.000    21502556.440    84380599.332          50.000  
G28  22861986.800   120140678.973          50.000                                                  
E 2  27248000.460   143189178.770          50.000    27248005.700   106926968.363          50.000  
E15  23673722.020   124406209.738          50.000    23673727.540    92900726.844          50.000  
E27  24312858.920   127764911.207          50.000    24312863.100    95408850.438          50.000  
E30  22669087.780   119126829.848          50.000    22669091.740    88958333.391          50.000  
> 2020  6 10 17 50 15.0000000  0 13       0.000000000000
G 2  22852390.060   120090116.371          50.000                                                  
G 6  21468254.680   112816381.957          50.000    21468257.480    84245997.703          50.000  
G12  23625390.440   124152253.555          50.000                                                  
G13  24308224.140   127740595.699          50.000                                                  
G15  24608919.060   129320525.059          50.000                                                  
G17  21712547.620   114100166.195          50.000                                                  
G19  20250248.200   106415772.117          50.000                                                  
G24  21502237.140   112994963.832          50.000    21502239.120    84379354.086          50.000  
G28  22862318.680   120142422.930          50.000                                                  
E 2  27248397.380   143191264.570          50.000    27248402.620   106928525.941          50.000  
E15  23673393.280   124404482.195          50.000    23673398.800    92899436.797          50.000  
E27  24312563.820   127763360.387          50.000    24312567.980    95407692.355          50.000  
E30  22669206.220   119127452.246          50.000    22669210.180    88958798.172          50.000  
> 2020  6 10 17 50 16.0000000  0 13       0.000000000000
G 2  22851803.080   120087031.738          50.000                                                  
G 6  21467847.600   112814242.813          50.000    21467850.420    84244400.293          50.000  
G12  23624873.300   124149535.996          50.000                                                  
G13  24308838.820   127743825.848          50.000                                                  
G15  24609406.180   129323084.957          50.000                                                  
G17  21712964.680   114102357.805          50.000                                                  
G19  20250439.160   106416775.563          50.000                                                  
G24  21501919.920   112993296.828          50.000    21501921.900    84378109.250          50.000  
G28  22862650.560   120144167.020          50.000                                                  
E 2  27248794.320   143193350.516          50.000    27248799.560   106930083.625          50.000  
E15  23673064.600   124402755.059          50.000    23673070.140    92898147.051          50.000  
E27  24312268.720   127761809.656          50.000    24312272.900    95406534.348          50.000  
E30  22669324.700   119128074.875          50.000    22669328.660    88959263.121          50.000  
> 2020  6 10 17 50 17.0000000  0 13       0.000000000000
G 2  22851216.140   120083947.352          50.000                                                  
G 6  21467440.640   112812104.195          50.000    21467443.440    84242803.273          50.000  
G12  23624356.180   124146818.465          50.000                                                  
G13  24309453.500   127747055.973          50.000                                                  
G15  24609893.340   129325644.949          50.000                                                  
G17  21713381.760   114104549.613          50.000                                                  
G19  20250630.200   106417779.484          50.000                                                  
G24  21501602.800   112991630.359          50.000    21501604.780    84376864.805          50.000  
G28  22862982.480   120145911.238          50.000                                                  
E 2  27249191.280   143195436.602          50.000    27249196.520   106931641.418          50.000  
E15  23672736.020   124401028.316          50.000    23672741.560    92896857.602          50.000  
E27  24311973.640   127760259.035          50.000    24311977.820    95405376.418          50.000  
E30  22669443.220   119128697.730          50.000    22669447.180    88959728.238          50.000  
> 2020  6 10 17 50 18.0000000  0 13       0.000000000000
G 2  22850629.240   120080863.234          50.000                                                  
G 6  21467033.780   112809966.109          50.000    21467036.580    84241206.652          50.000  
G12  23623839.060   124144100.984          50.000                                                  
G13  24310068.160   127750286.094          50.000                                                  
G15  24610380.500   129328205.027          50.000                                                  
G17  21713798.900   114106741.625          50.000                                                  
G19  20250821.320   106418783.891          50.000                                                  
G24  21501285.780   112989964.434          50.000    21501287.760    84375620.773          50.000  
G28  22863314.420   120147655.598          50.000                                                  
E 2  27249588.280   143197522.824          50.000    27249593.520   106933199.309          50.000  
E15  23672407.500   124399301.980          50.000    23672413.040    92895568.457          50.000  
E27  24311678.580   127758708.508          50.000    24311682.760    95404218.555          50.000  
E30  22669561.780   119129320.801          50.000    22669565.740    88960193.520          50.000  
> 2020  6 10 17 50 19.0000000  0 13       0.000000000000
G 2  22850042.400   120077779.367          50.000                                                  
G 6  21466627.020   112807828.563          50.000    21466629.820    84239610.434          50.000  
G12  23623321.940   124141383.527          50.000                                                  
G13  24310682.840   127753516.188          50.000                                                  
G15  24610867.680   129330765.191          50.000                                                  
G17  21714216.060   114108933.832          50.000                                                  
G19  20251012.540   106419788.766          50.000                                                  
G24  21500968.860   112988299.043          50.000    21500970.860    84374377.137          50.000  
G28  22863646.380   120149400.078          50.000                                                  
E 2  27249985.300   143199609.188          50.000    27249990.540   106934757.309          50.000  
E15  23672079.080   124397576.047          50.000    23672084.600    92894279.609          50.000  
E27  24311383.560   127757158.090          50.000    24311387.720    95403060.773          50.000  
E30  22669680.400   119129944.090          50.000    22669684.360    88960658.965          50.000  
> 2020  6 10 17 50 20.0000000  0 13       0.000000000000
G 2  22849455.600   120074695.777          50.000                                                  
G 6  21466220.360   112805691.543          50.000    21466223.160    84238014.609          50.000  
G12  23622804.820   124138666.117          50.000                                                  
G13  24311297.500   127756746.273          50.000                                                  
G15  24611354.880   129333325.445          50.000                                                  
G17  21714633.260   114111126.246          50.000                                                  
G19  20251203.860   106420794.117          50.000                                                  
G24  21500652.060   112986634.184          50.000    21500654.040    84373133.902          50.000  
G28  22863978.380   120151144.707          50.000                                                  
E 2  27250382.340   143201695.691          50.000    27250387.600   106936315.414          50.000  
E15  23671750.720   124395850.512          50.000    23671756.240    92892991.066          50.000  
E27  24311088.540   127755607.773          50.000    24311092.720    95401903.074          50.000  
E30  22669799.040   119130567.613          50.000    22669803.000    88961124.582          50.000  
> 2020  6 10 17 50 21.0000000  0 13       0.000000000000
G 2  22848868.880   120071612.457          50.000                                                  
G 6  21465813.780   112803555.051          50.000    21465816.600    84236419.176          50.000  
G12  23622287.720   124135948.738          50.000                                                  
G13  24311912.160   127759976.348          50.000                                                  
G15  24611842.100   129335885.789          50.000                                                  
G17  21715050.500   114113318.863          50.000                                                  
G19  20251395.260   106421799.945          50.000                                                  
G24  21500335.340   112984969.898          50.000    21500337.340    84371891.090          50.000  
G28  22864310.380   120152889.457          50.000                                                  
E 2  27250779.420   143203782.348          50.000    27250784.660   106937873.629          50.000  
E15  23671422.420   124394125.383          50.000    23671427.960    92891702.820          50.000  
E27  24310793.540   127754057.559          50.000    24310797.720    95400745.445          50.000  
E30  22669917.740   119131191.359          50.000    22669921.700    88961590.367          50.000  
> 2020  6 10 17 50 22.0000000  0 13       0.000000000000
G 2  22848282.180   120068529.395          50.000                                                  
G 6  21465407.340   112801419.098          50.000    21465410.140    84234824.148          50.000  
G12  23621770.640   124133231.402          50.000                                                  
G13  24312526.820   127763206.410          50.000                                                  
G15  24612329.340   129338446.219          50.000                                                  
G17  21715467.780   114115511.672          50.000                                                  
G19  20251586.760   106422806.258          50.000                                                  
G24  21500018.740   112983306.125          50.000    21500020.720    84370648.664          50.000  
G28  22864642.420   120154634.340          50.000                                                  
E 2  27251176.520   143205869.129          50.000    27251181.780   106939431.941          50.000  
E15  23671094.220   124392400.652          50.000    23671099.760    92890414.871          50.000  
E27  24310498.560   127752507.445          50.000    24310502.740    95399587.895          50.000  
E30  22670036.480   119131815.328          50.000    22670040.440    88962056.316          50.000  
> 2020  6 10 17 50 23.0000000  0 13       0.000000000000
G 2  22847695.540   120065446.598          50.000                                                  
G 6  21465000.980   112799283.676          50.000    21465003.780    84233229.516          50.000  
G12  23621253.540   124130514.102          50.000                                                  
G13  24313141.480   127766436.445          50.000                                                  
G15  24612816.580   129341006.738          50.000                                                  
G17  21715885.100   114117704.680          50.000                                                  
G19  20251778.340   106423813.027          50.000                                                  
G24  21499702.240   112981642.895          50.000    21499704.220    84369406.641          50.000  
G28  22864974.500   120156379.344          50.000                                                  
E 2  27251573.660   143207956.051          50.000    27251578.900   106940990.355          50.000  
E15  23670766.100   124390676.320          50.000    23670771.620    92889127.223          50.000  
E27  24310203.600   127750957.434          50.000    24310207.780    95398430.422          50.000  
E30  22670155.260   119132439.531          50.000    22670159.220    88962522.441          50.000  
> 2020  6 10 17 50 24.0000000  0 13       0.000000000000
G 2  22847108.960   120062364.059          50.000                                                  
G 6  21464594.720   112797148.770          50.000    21464597.520    84231635.270          50.000  
G12  23620736.460   124127796.840          50.000                                                  
G13  24313756.140   127769666.480          50.000                                                  
G15  24613303.860   129343567.340          50.000                                                  
G17  21716302.440   114119897.887          50.000                                                  
G19  20251970.020   106424820.293          50.000                                                  
G24  21499385.840   112979980.184          50.000    21499387.820    84368165.008          50.000  
G28  22865306.580   120158124.496          50.000                                                  
E 2  27251970.820   143210043.113          50.000    27251976.060   106942548.879          50.000  
E15  23670438.040   124388952.387          50.000    23670443.580    92887839.871          50.000  
E27  24309908.660   127749407.527          50.000    24309912.840    95397273.023          50.000  
E30  22670274.080   119133063.945          50.000    22670278.040    88962988.727          50.000  
> 2020  6 10 17 50 25.0000000  0 13       0.000000000000
G 2  22846522.420   120059281.793          50.000                                                  
G 6  21464188.560   112795014.414          50.000    21464191.360    84230041.434          50.000  
G12  23620219.400   124125079.613          50.000                                                  
G13  24314370.780   127772896.496          50.000                                                  
G15  24613791.140   129346128.039          50.000                                                  
G17  21716719.840   114122091.297          50.000                                                  
G19  20252161.780   106425828.023          50.000                                                  
G24  21499069.540   112978317.992          50.000    21499071.520    84366923.762          50.000  
G28  22865638.700   120159869.781          50.000                                                  
E 2  27252368.000   143212130.328          50.000    27252373.240   106944107.512          50.000  
E15  23670110.060   124387228.859          50.000    23670115.600    92886552.824          50.000  
E27  24309613.740   127747857.723          50.000    24309617.920    95396115.703          50.000  
E30  22670392.940   119133688.586          50.000    22670396.900    88963455.180          50.000  
> 2020  6 10 17 50 26.0000000  0 13       0.000000000000
G 2  22845935.920   120056199.781          50.000                                                  
G 6  21463782.500   112792880.582          50.000    21463785.300    84228447.988          50.000  
G12  23619702.320   124122362.426          50.000                                                  
G13  24314985.440   127776126.496          50.000                                                  
G15  24614278.440   129348688.820          50.000                                                  
G17  21717137.260   114124284.910          50.000                                                  
G19  20252353.640   106426836.238          50.000                                                  
G24  21498753.320   112976656.344          50.000    21498755.320    84365682.922          50.000  
G28  22865970.840   120161615.199          50.000                                                  
E 2  27252765.200   143214217.684          50.000    27252770.440   106945666.250          50.000  
E15  23669782.160   124385505.730          50.000    23669787.700    92885266.074          50.000  
E27  24309318.840   127746308.023          50.000    24309323.020    95394958.461          50.000  
E30  22670511.860   119134313.465          50.000    22670515.820    88963921.809          50.000  
> 2020  6 10 17 50 27.0000000  0 13       0.000000000000
G 2  22845349.480   120053118.035          50.000                                                  
G 6  21463376.540   112790747.285          50.000    21463379.360    84226854.945          50.000  
G12  23619185.280   124119645.273          50.000                                                  
G13  24315600.080   127779356.477          50.000                                                  
G15  24614765.760   129351249.691          50.000                                                  
G17  21717554.740   114126478.719          50.000                                                  
G19  20252545.580   106427844.922          50.000                                                  
G24  21498437.220   112974995.230          50.000    21498439.220    84364442.480          50.000  
G28  22866303.000   120163360.742          50.000                                                  
E 2  27253162.440   143216305.180          50.000    27253167.680   106947225.094          50.000  
E15  23669454.340   124383783.008          50.000    23669459.860    92883979.625          50.000  
E27  24309023.960   127744758.426          50.000    24309028.140    95393801.293          50.000  
E30  22670630.820   119134938.555          50.000    22670634.760    88964388.598          50.000  
> 2020  6 10 17 50 28.0000000  0 13       0.000000000000
G 2  22844763.100   120050036.559          50.000                                                  
G 6  21462970.700   112788614.516          50.000    21462973.500    84225262.293          50.000  
G12  23618668.220   124116928.168          50.000                                                  
G13  24316214.720   127782586.441          50.000                                                  
G15  24615253.100   129353810.648          50.000                                                  
G17  21717972.240   114128672.730          50.000                                                  
G19  20252737.620   106428854.082          50.000                                                  
G24  21498121.240   112973334.672          50.000    21498123.220    84363202.457          50.000  
G28  22866635.200   120165106.426          50.000                                                  
E 2  27253559.700   143218392.813          50.000    27253564.960   106948784.039          50.000  
E15  23669126.580   124382060.684          50.000    23669132.120    92882693.473          50.000  
E27  24308729.120   127743208.941          50.000    24308733.280    95392644.211          50.000  
E30  22670749.800   119135563.879          50.000    22670753.760    88964855.559          50.000  
> 2020  6 10 17 50 29.0000000  0 13       0.000000000000
G 2  22844176.760   120046955.340          50.000                                                  
G 6  21462564.940   112786482.285          50.000    21462567.740    84223670.047          50.000  
G12  23618151.180   124114211.102          50.000                                                  
G13  24316829.360   127785816.387          50.000                                                  
G15  24615740.440   129356371.707          50.000                                                  
G17  21718389.780   114130866.949          50.000                                                  
G19  20252929.740   106429863.715          50.000                                                  
G24  21497805.340   112971674.664          50.000    21497807.320    84361962.840          50.000  
G28  22866967.420   120166852.230          50.000                                                  
E 2  27253957.000   143220480.586          50.000    27253962.240   106950343.090          50.000  
E15  23668798.920   124380338.773          50.000    23668804.440    92881407.633          50.000  
E27  24308434.280   127741659.551          50.000    24308438.440    95391487.199          50.000  
E30  22670868.840   119136189.422          50.000    22670872.800    88965322.688          50.000  
> 2020  6 10 17 50 30.0000000  0 13       0.000000000000
G 2  22843590.480   120043874.398          50.000                                                  
G 6  21462159.300   112784350.582          50.000    21462162.100    84222078.191          50.000  
G12  23617634.140   124111494.066          50.000                                                  
G13  24317444.000   127789046.324          50.000                                                  
G15  24616227.820   129358932.836          50.000                                                  
G17  21718807.380   114133061.367          50.000                                                  
G19  20253121.960   106430873.832          50.000                                                  
G24  21497489.560   112970015.180          50.000    21497491.540    84360723.613          50.000  
G28  22867299.660   120168598.176          50.000                                                  
E 2  27254354.320   143222568.508          50.000    27254359.560   106951902.254          50.000  
E15  23668471.320   124378617.250          50.000    23668476.860    92880122.082          50.000  
E27  24308139.460   127740110.262          50.000    24308143.620    95390330.262          50.000  
E30  22670987.920   119136815.188          50.000    22670991.880    88965789.980          50.000  
> 2020  6 10 17 50 31.0000000  0 13       0.000000000000
G 2  22843004.240   120040793.727          50.000                                                  
G 6  21461753.740   112782219.414          50.000    21461756.540    84220486.734          50.000  
G12  23617117.120   124108777.074          50.000                                                  
G13  24318058.640   127792276.246          50.000                                                  
G15  24616715.200   129361494.055          50.000                                                  
G17  21719225.000   114135255.988          50.000                                                  
G19  20253314.280   106431884.430          50.000                                                  
G24  21497173.860   112968356.227          50.000    21497175.840    84359484.785          50.000  
G28  22867631.920   120170344.242          50.000                                                  
E 2  27254751.660   143224656.570          50.000    27254756.900   106953461.520          50.000  
E15  23668143.800   124376896.133          50.000    23668149.340    92878836.832          50.000  
E27  24307844.660   127738561.078          50.000    24307848.820    95389173.406          50.000  
E30  22671107.040   119137441.184          50.000    22671111.000    88966257.445          50.000  
> 2020  6 10 17 50 32.0000000  0 13       0.000000000000
G 2  22842418.060   120037713.305          50.000                                                  
G 6  21461348.300   112780088.770          50.000    21461351.100    84218895.672          50.000  
G12  23616600.100   124106060.117          50.000                                                  
G13  24318673.260   127795506.148          50.000                                                  
G15  24617202.600   129364055.359          50.000                                                  
G17  21719642.660   114137450.805          50.000                                                  
G19  20253506.680   106432895.488          50.000                                                  
G24  21496858.280   112966697.789          50.000    21496860.260    84358246.344          50.000  
G28  22867964.220   120172090.438          50.000                                                  
E 2  27255149.040   143226744.766          50.000    27255154.280   106955020.887          50.000  
E15  23667816.360   124375175.410          50.000    23667821.900    92877551.879          50.000  
E27  24307549.860   127737011.992          50.000    24307554.040    95388016.625          50.000  
E30  22671226.200   119138067.391          50.000    22671230.160    88966725.070          50.000  
> 2020  6 10 17 50 33.0000000  0 13       0.000000000000
G 2  22841831.920   120034633.160          50.000                                                  
G 6  21460942.940   112777958.672          50.000    21460945.760    84217305.016          50.000  
G12  23616083.080   124103343.191          50.000                                                  
G13  24319287.880   127798736.039          50.000                                                  
G15  24617690.020   129366616.762          50.000                                                  
G17  21720060.360   114139645.828          50.000                                                  
G19  20253699.160   106433907.027          50.000                                                  
G24  21496542.800   112965039.926          50.000    21496544.780    84357008.332          50.000  
G28  22868296.540   120173836.793          50.000                                                  
E 2  27255546.420   143228833.090          50.000    27255551.680   106956580.352          50.000  
E15  23667489.000   124373455.094          50.000    23667494.520    92876267.227          50.000  
E27  24307255.100   127735463.012          50.000    24307259.280    95386859.918          50.000  
E30  22671345.420   119138693.836          50.000    22671349.380    88967192.867          50.000  
> 2020  6 10 17 50 34.0000000  0 13       0.000000000000
G 2  22841245.840   120031553.277          50.000                                                  
G 6  21460537.700   112775829.098          50.000    21460540.500    84215714.754          50.000  
G12  23615566.080   124100626.309          50.000                                                  
G13  24319902.520   127801965.910          50.000                                                  
G15  24618177.460   129369178.242          50.000                                                  
G17  21720478.100   114141841.043          50.000                                                  
G19  20253891.740   106434919.051          50.000                                                  
G24  21496227.400   112963382.578          50.000    21496229.400    84355770.699          50.000  
G28  22868628.880   120175583.270          50.000                                                  
E 2  27255943.860   143230921.578          50.000    27255949.100   106958139.934          50.000  
E15  23667161.700   124371735.184          50.000    23667167.240    92874982.883          50.000  
E27  24306960.360   127733914.133          50.000    24306964.540    95385703.289          50.000  
E30  22671464.660   119139320.504          50.000    22671468.620    88967660.832          50.000  
> 2020  6 10 17 50 35.0000000  0 13       0.000000000000
G 2  22840659.800   120028473.672          50.000                                                  
G 6  21460132.560   112773700.066          50.000    21460135.360    84214124.891          50.000  
G12  23615049.080   124097909.461          50.000                                                  
G13  24320517.140   127805195.754          50.000                                                  
G15  24618664.900   129371739.820          50.000                                                  
G17  21720895.860   114144036.461          50.000                                                  
G19  20254084.420   106435931.527          50.000                                                  
G24  21495912.140   112961725.789          50.000    21495914.120    84354533.492          50.000  
G28  22868961.240   120177329.852          50.000                                                  
E 2  27256341.300   143233010.195          50.000    27256346.540   106959699.617          50.000  
E15  23666834.500   124370015.668          50.000    23666840.020    92873698.828          50.000  
E27  24306665.640   127732365.363          50.000    24306669.820    95384546.738          50.000  
E30  22671583.960   119139947.383          50.000    22671587.920    88968128.957          50.000  
> 2020  6 10 17 50 36.0000000  0 13       0.000000000000
G 2  22840073.820   120025394.297          50.000                                                  
G 6  21459727.520   112771571.555          50.000    21459730.320    84212535.422          50.000  
G12  23614532.080   124095192.637          50.000                                                  
G13  24321131.760   127808425.598          50.000                                                  
G15  24619152.380   129374301.469          50.000                                                  
G17  21721313.680   114146232.070          50.000                                                  
G19  20254277.180   106436944.492          50.000                                                  
G24  21495596.960   112960069.527          50.000    21495598.940    84353296.672          50.000  
G28  22869293.640   120179076.598          50.000                                                  
E 2  27256738.780   143235098.949          50.000    27256744.020   106961259.398          50.000  
E15  23666507.360   124368296.555          50.000    23666512.880    92872415.078          50.000  
E27  24306370.940   127730816.699          50.000    24306375.120    95383390.273          50.000  
E30  22671703.300   119140574.500          50.000    22671707.240    88968597.262          50.000  
> 2020  6 10 17 50 37.0000000  0 13       0.000000000000
G 2  22839487.880   120022315.207          50.000                                                  
G 6  21459322.580   112769443.590          50.000    21459325.380    84210946.359          50.000  
G12  23614015.080   124092475.863          50.000                                                  
G13  24321746.360   127811655.418          50.000                                                  
G15  24619639.860   129376863.223          50.000                                                  
G17  21721731.520   114148427.883          50.000                                                  
G19  20254470.020   106437957.938          50.000                                                  
G24  21495281.880   112958413.824          50.000    21495283.860    84352060.273          50.000  
G28  22869626.060   120180823.449          50.000                                                  
E 2  27257136.280   143237187.852          50.000    27257141.540   106962819.297          50.000  
E15  23666180.300   124366577.848          50.000    23666185.820    92871131.629          50.000  
E27  24306076.260   127729268.129          50.000    24306080.440    95382233.875          50.000  
E30  22671822.680   119141201.840          50.000    22671826.620    88969065.727          50.000  
> 2020  6 10 17 50 38.0000000  0 13       0.000000000000
G 2  22838902.000   120019236.387          50.000                                                  
G 6  21458917.740   112767316.160          50.000    21458920.540    84209357.691          50.000  
G12  23613498.120   124089759.129          50.000                                                  
G13  24322360.980   127814885.234          50.000                                                  
G15  24620127.360   129379425.055          50.000                                                  
G17  21722149.400   114150623.883          50.000                                                  
G19  20254662.960   106438971.855          50.000                                                  
G24  21494966.920   112956758.668          50.000    21494968.900    84350824.277          50.000  
G28  22869958.500   120182570.449          50.000                                                  
E 2  27257533.820   143239276.902          50.000    27257539.060   106964379.301          50.000  
E15  23665853.320   124364859.543          50.000    23665858.840    92869848.477          50.000  
E27  24305781.600   127727719.668          50.000    24305785.760    95381077.555          50.000  
E30  22671942.100   119141829.406          50.000    22671946.040    88969534.363          50.000  
> 2020  6 10 17 50 39.0000000  0 13       0.000000000000
G 2  22838316.160   120016157.813          50.000                                                  
G 6  21458513.000   112765189.238          50.000    21458515.800    84207769.410          50.000  
G12  23612981.140   124087042.426          50.000                                                  
G13  24322975.580   127818115.027          50.000                                                  
G15  24620614.880   129381986.980          50.000                                                  
G17  21722567.340   114152820.098          50.000                                                  
G19  20254856.000   106439986.250          50.000                                                  
G24  21494652.060   112955104.051          50.000    21494654.040    84349588.688          50.000  
G28  22870290.960   120184317.590          50.000                                                  
E 2  27257931.380   143241366.082          50.000    27257936.620   106965939.398          50.000  
E15  23665526.400   124363141.637          50.000    23665531.940    92868565.629          50.000  
E27  24305486.960   127726171.305          50.000    24305491.120    95379921.309          50.000  
E30  22672061.560   119142457.188          50.000    22672065.520    88970003.164          50.000  
> 2020  6 10 17 50 40.0000000  0 13       0.000000000000
G 2  22837730.380   120013079.512          50.000                                                  
G 6  21458108.360   112763062.867          50.000    21458111.160    84206181.535          50.000  
G12  23612464.180   124084325.773          50.000                                                  
G13  24323590.200   127821344.797          50.000                                                  
G15  24621102.400   129384548.977          50.000                                                  
G17  21722985.300   114155016.508          50.000                                                  
G19  20255049.120   106441001.117          50.000                                                  
G24  21494337.300   112953449.965          50.000    21494339.280    84348353.496          50.000  
G28  22870623.460   120186064.840          50.000                                                  
E 2  27258328.960   143243455.395          50.000    27258334.200   106967499.602          50.000  
E15  23665199.580   124361424.137          50.000    23665205.100    92867283.078          50.000  
E27  24305192.320   127724623.051          50.000    24305196.500    95378765.148          50.000  
E30  22672181.060   119143085.203          50.000    22672185.020    88970472.137          50.000  
> 2020  6 10 17 50 41.0000000  0 13       0.000000000000
G 2  22837144.640   120010001.633          50.000                                                  
G 6  21457703.820   112760937.078          50.000    21457706.620    84204594.063          50.000  
G12  23611947.220   124081609.156          50.000                                                  
G13  24324204.820   127824574.453          50.000                                                  
G15  24621589.980   129387110.926          50.000                                                  
G17  21723403.300   114157213.117          50.000                                                  
G19  20255242.340   106442016.461          50.000                                                  
G24  21494022.620   112951796.508          50.000    21494024.600    84347118.766          50.000  
G28  22870955.980   120187812.238          50.000                                                  
E 2  27258726.580   143245544.859          50.000    27258731.820   106969059.902          50.000  
E15  23664872.800   124359707.105          50.000    23664878.320    92866000.922          50.000  
E27  24304897.720   127723074.902          50.000    24304901.900    95377609.063          50.000  
E30  22672300.600   119143713.477          50.000    22672304.560    88970941.320          50.000  
> 2020  6 10 17 50 42.0000000  0 13       0.000000000000
G 2  22836558.940   120006923.855          50.000                                                  
G 6  21457299.380   112758811.777          50.000    21457302.200    84203006.992          50.000  
G12  23611430.260   124078892.578          50.000                                                  
G13  24324819.420   127827804.203          50.000                                                  
G15  24622077.560   129389673.105          50.000                                                  
G17  21723821.340   114159409.938          50.000                                                  
G19  20255435.640   106443032.289          50.000                                                  
G24  21493708.060   112950143.508          50.000    21493710.040    84345884.383          50.000  
G28  22871288.520   120189559.766          50.000                                                  
E 2  27259124.220   143247634.469          50.000    27259129.460   106970620.328          50.000  
E15  23664546.120   124357990.410          50.000    23664551.640    92864718.977          50.000  
E27  24304603.140   127721526.859          50.000    24304607.300    95376453.059          50.000  
E30  22672420.200   119144341.945          50.000    22672424.140    88971410.629          50.000  
> 2020  6 10 17 50 43.0000000  0 13       0.000000000000
G 2  22835973.320   120003846.355          50.000                                                  
G 6  21456895.060   112756687.023          50.000    21456897.860    84201420.324          50.000  
G12  23610913.320   124076176.035          50.000                                                  
G13  24325434.000   127831033.930          50.000                                                  
G15  24622565.140   129392235.375          50.000                                                  
G17  21724239.420   114161606.961          50.000                                                  
G19  20255629.040   106444048.598          50.000                                                  
G24  21493393.600   112948491.051          50.000    21493395.580    84344650.406          50.000  
G28  22871621.080   120191307.430          50.000                                                  
E 2  27259521.880   143249724.219          50.000    27259527.120   106972180.855          50.000  
E15  23664219.520   124356274.125          50.000    23664225.040    92863437.336          50.000  
E27  24304308.580   127719978.922          50.000    24304312.740    95375297.133          50.000  
E30  22672539.840   119144970.633          50.000    22672543.780    88971880.105          50.000  
> 2020  6 10 17 50 44.0000000  0 13       0.000000000000
G 2  22835387.740   120000769.125          50.000                                                  
G 6  21456490.820   112754562.793          50.000    21456493.640    84199834.051          50.000  
G12  23610396.380   124073459.539          50.000                                                  
G13  24326048.600   127834263.633          50.000                                                  
G15  24623052.720   129394797.727          50.000                                                  
G17  21724657.520   114163804.176          50.000                                                  
G19  20255822.520   106445065.383          50.000                                                  
G24  21493079.240   112946839.129          50.000    21493081.240    84343416.832          50.000  
G28  22871953.680   120193055.223          50.000                                                  
E 2  27259919.560   143251814.105          50.000    27259924.820   106973741.488          50.000  
E15  23663893.000   124354558.234          50.000    23663898.520    92862155.988          50.000  
E27  24304014.020   127718431.086          50.000    24304018.200    95374141.281          50.000  
E30  22672659.500   119145599.547          50.000    22672663.460    88972349.750          50.000  
> 2020  6 10 17 50 45.0000000  0 13       0.000000000000
G 2  22834802.200   119997692.160          50.000                                                  
G 6  21456086.700   112752439.090          50.000    21456089.500    84198248.172          50.000  
G12  23609879.460   124070743.074          50.000                                                  
G13  24326663.180   127837493.324          50.000                                                  
G15  24623540.340   129397360.160          50.000                                                  
G17  21725075.680   114166001.594          50.000                                                  
G19  20256016.100   106446082.637          50.000                                                  
G24  21492765.000   112945187.727          50.000    21492766.980    84342183.645          50.000  
G28  22872286.280   120194803.145          50.000                                                  
E 2  27260317.280   143253904.141          50.000    27260322.540   106975302.227          50.000  
E15  23663566.560   124352842.742          50.000    23663572.060    92860874.941          50.000  
E27  24303719.500   127716883.352          50.000    24303723.660    95372985.508          50.000  
E30  22672779.220   119146228.691          50.000    22672783.180    88972819.566          50.000  
> 2020  6 10 17 50 46.0000000  0 13       0.000000000000
G 2  22834216.720   119994615.457          50.000                                                  
G 6  21455682.660   112750315.922          50.000    21455685.480    84196662.691          50.000  
G12  23609362.540   124068026.652          50.000                                                  
G13  24327277.760   127840722.996          50.000                                                  
G15  24624027.980   129399922.676          50.000                                                  
G17  21725493.880   114168199.207          50.000                                                  
G19  20256209.760   106447100.359          50.000                                                  
G24  21492450.840   112943536.875          50.000    21492452.820    84340950.863          50.000  
G28  22872618.940   120196551.211          50.000                                                  
E 2  27260715.040   143255994.320          50.000    27260720.280   106976863.074          50.000  
E15  23663240.180   124351127.660          50.000    23663245.700    92859594.199          50.000  
E27  24303425.000   127715335.723          50.000    24303429.160    95371829.813          50.000  
E30  22672898.980   119146858.059          50.000    22672902.940    88973289.551          50.000  
> 2020  6 10 17 50 47.0000000  0 13       0.000000000000
G 2  22833631.300   119991539.031          50.000                                                  
G 6  21455278.740   112748193.301          50.000    21455281.540    84195077.617          50.000  
G12  23608845.620   124065310.266          50.000                                                  
G13  24327892.340   127843952.641          50.000                                                  
G15  24624515.620   129402485.285          50.000                                                  
G17  21725912.100   114170397.031          50.000                                                  
G19  20256403.520   106448118.566          50.000                                                  
G24  21492136.800   112941886.566          50.000    21492138.780    84339718.496          50.000  
G28  22872951.600   120198299.406          50.000                                                  
E 2  27261112.800   143258084.637          50.000    27261118.060   106978424.027          50.000  
E15  23662913.880   124349412.980          50.000    23662919.400    92858313.758          50.000  
E27  24303130.500   127713788.199          50.000    24303134.680    95370674.195          50.000  
E30  22673018.800   119147487.656          50.000    22673022.740    88973759.703          50.000  
> 2020  6 10 17 50 48.0000000  0 13       0.000000000000
G 2  22833045.920   119988462.871          50.000                                                  
G 6  21454874.920   112746071.207          50.000    21454877.720    84193492.941          50.000  
G12  23608328.700   124062593.918          50.000                                                  
G13  24328506.920   127847182.270          50.000                                                  
G15  24625003.280   129405047.973          50.000                                                  
G17  21726330.360   114172595.035          50.000                                                  
G19  20256597.360   106449137.242          50.000                                                  
G24  21491822.860   112940236.797          50.000    21491824.840    84338486.523          50.000  
G28  22873284.300   120200047.723          50.000                                                  
E 2  27261510.600   143260175.090          50.000    27261515.840   106979985.078          50.000  
E15  23662587.660   124347698.699          50.000    23662593.180    92857033.617          50.000  
E27  24302836.040   127712240.773          50.000    24302840.200    95369518.652          50.000  
E30  22673138.640   119148117.469          50.000    22673142.600    88974230.020          50.000  
> 2020  6 10 17 50 49.0000000  0 13       0.000000000000
G 2  22832460.580   119985386.973          50.000                                                  
G 6  21454471.200   112743949.648          50.000    21454474.000    84191908.664          50.000  
G12  23607811.800   124059877.609          50.000                                                  
G13  24329121.500   127850411.891          50.000                                                  
G15  24625490.960   129407610.750          50.000                                                  
G17  21726748.660   114174793.246          50.000                                                  
G19  20256791.300   106450156.402          50.000                                                  
G24  21491509.020   112938587.574          50.000    21491511.000    84337254.965          50.000  
G28  22873617.020   120201796.184          50.000                                                  
E 2  27261908.420   143262265.676          50.000    27261913.680   106981546.234          50.000  
E15  23662261.520   124345984.820          50.000    23662267.040    92855753.773          50.000  
E27  24302541.580   127710693.457          50.000    24302545.760    95368363.188          50.000  
E30  22673258.540   119148747.516          50.000    22673262.480    88974700.508          50.000  
> 2020  6 10 17 50 50.0000000  0 13       0.000000000000
G 2  22831875.300   119982311.340          50.000                                                  
G 6  21454067.580   112741828.621          50.000    21454070.380    84190324.781          50.000  
G12  23607294.920   124057161.336          50.000                                                  
G13  24329736.060   127853641.480          50.000                                                  
G15  24625978.660   129410173.621          50.000                                                  
G17  21727167.000   114176991.645          50.000                                                  
G19  20256985.320   106451176.023          50.000                                                  
G24  21491195.280   112936938.898          50.000    21491197.260    84336023.813          50.000  
G28  22873949.760   120203544.781          50.000                                                  
E 2  27262306.280   143264356.418          50.000    27262311.520   106983107.504          50.000  
E15  23661935.460   124344271.344          50.000    23661940.960    92854474.230          50.000  
E27  24302247.160   127709146.242          50.000    24302251.340    95367207.801          50.000  
E30  22673378.460   119149377.777          50.000    22673382.420    88975171.160          50.000  
> 2020  6 10 17 50 51.0000000  0 13       0.000000000000
G 2  22831290.080   119979235.965          50.000                                                  
G 6  21453664.060   112739708.129          50.000    21453666.860    84188741.297          50.000  
G12  23606778.040   124054445.105          50.000                                                  
G13  24330350.640   127856871.059          50.000                                                  
G15  24626466.360   129412736.574          50.000                                                  
G17  21727585.380   114179190.254          50.000                                                  
G19  20257179.440   106452196.129          50.000                                                  
G24  21490881.640   112935290.770          50.000    21490883.620    84334793.066          50.000  
G28  22874282.520   120205293.508          50.000                                                  
E 2  27262704.160   143266447.309          50.000    27262709.400   106984668.883          50.000  
E15  23661609.460   124342558.281          50.000    23661614.980    92853194.996          50.000  
E27  24301952.760   127707599.133          50.000    24301956.920    95366052.496          50.000  
E30  22673498.440   119150008.277          50.000    22673502.400    88975641.988          50.000  
> 2020  6 10 17 50 52.0000000  0 13       0.000000000000
G 2  22830704.900   119976160.875          50.000                                                  
G 6  21453260.640   112737588.160          50.000    21453263.440    84187158.203          50.000  
G12  23606261.160   124051728.906          50.000                                                  
G13  24330965.200   127860100.617          50.000                                                  
G15  24626954.100   129415299.605          50.000                                                  
G17  21728003.800   114181389.051          50.000                                                  
G19  20257373.640   106453216.695          50.000                                                  
G24  21490568.120   112933643.195          50.000    21490570.100    84333562.734          50.000  
G28  22874615.320   120207042.371          50.000                                                  
E 2  27263102.060   143268538.320          50.000    27263107.300   106986230.352          50.000  
E15  23661283.560   124340845.609          50.000    23661289.060    92851916.055          50.000  
E27  24301658.360   127706052.133          50.000    24301662.540    95364897.270          50.000  
E30  22673618.460   119150638.988          50.000    22673622.420    88976112.973          50.000  
> 2020  6 10 17 50 53.0000000  0 13       0.000000000000
G 2  22830119.780   119973086.031          50.000                                                  
G 6  21452857.320   112735468.734          50.000    21452860.120    84185575.520          50.000  
G12  23605744.280   124049012.750          50.000                                                  
G13  24331579.760   127863330.164          50.000                                                  
G15  24627441.840   129417862.723          50.000                                                  
G17  21728422.260   114183588.043          50.000                                                  
G19  20257567.940   106454237.738          50.000                                                  
G24  21490254.700   112931996.141          50.000    21490256.680    84332332.797          50.000  
G28  22874948.140   120208791.367          50.000                                                  
E 2  27263500.000   143270629.484          50.000    27263505.240   106987791.938          50.000  
E15  23660957.720   124339133.336          50.000    23660963.220    92850637.410          50.000  
E27  24301364.000   127704505.227          50.000    24301368.160    95363742.113          50.000  
E30  22673738.520   119151269.934          50.000    22673742.480    88976584.137          50.000  
> 2020  6 10 17 50 54.0000000  0 13       0.000000000000
G 2  22829534.700   119970011.457          50.000                                                  
G 6  21452454.100   112733349.844          50.000    21452456.900    84183993.230          50.000  
G12  23605227.420   124046296.637          50.000                                                  
G13  24332194.300   127866559.680          50.000                                                  
G15  24627929.600   129420425.922          50.000                                                  
G17  21728840.740   114185787.234          50.000                                                  
G19  20257762.320   106455259.254          50.000                                                  
G24  21489941.380   112930349.625          50.000    21489943.360    84331103.254          50.000  
G28  22875280.980   120210540.492          50.000                                                  
E 2  27263897.960   143272720.781          50.000    27263903.200   106989353.617          50.000  
E15  23660631.960   124337421.469          50.000    23660637.460    92849359.070          50.000  
E27  24301069.640   127702958.430          50.000    24301073.820    95362587.035          50.000  
E30  22673858.620   119151901.098          50.000    22673862.580    88977055.461          50.000  
> 2020  6 10 17 50 55.0000000  0 13       0.000000000000
G 2  22828949.680   119966937.145          50.000                                                  
G 6  21452051.000   112731231.484          50.000    21452053.800    84182411.344          50.000  
G12  23604710.560   124043580.555          50.000                                                  
G13  24332808.860   127869789.199          50.000                                                  
G15  24628417.360   129422989.211          50.000                                                  
G17  21729259.280   114187986.633          50.000                                                  
G19  20257956.800   106456281.246          50.000                                                  
G24  21489628.160   112928703.664          50.000    21489630.140    84329874.129          50.000  
G28  22875613.860   120212289.754          50.000                                                  
E 2  27264295.940   143274812.219          50.000    27264301.180   106990915.406          50.000  
E15  23660306.260   124335710.000          50.000    23660311.780    92848081.023          50.000  
E27  24300775.320   127701411.727          50.000    24300779.480    95361432.035          50.000  
E30  22673978.780   119152532.484          50.000    22673982.720    88977526.949          50.000  
> 2020  6 10 17 50 56.0000000  0 13       0.000000000000
G 2  22828364.700   119963863.121          50.000                                                  
G 6  21451647.980   112729113.684          50.000    21451650.780    84180829.871          50.000  
G12  23604193.700   124040864.508          50.000                                                  
G13  24333423.420   127873018.703          50.000                                                  
G15  24628905.160   129425552.637          50.000                                                  
G17  21729677.840   114190186.230          50.000                                                  
G19  20258151.360   106457303.734          50.000                                                  
G24  21489315.040   112927058.227          50.000    21489317.020    84328645.391          50.000  
G28  22875946.760   120214039.172          50.000                                                  
E 2  27264693.960   143276903.805          50.000    27264699.200   106992477.305          50.000  
E15  23659980.660   124333998.949          50.000    23659986.180    92846803.293          50.000  
E27  24300481.000   127699865.141          50.000    24300485.180    95360277.117          50.000  
E30  22674098.960   119153164.109          50.000    22674102.920    88977998.617          50.000  
> 2020  6 10 17 50 57.0000000  0 13       0.000000000000
G 2  22827779.780   119960789.352          50.000                                                  
G 6  21451245.080   112726996.395          50.000    21451247.880    84179248.781          50.000  
G12  23603676.860   124038148.504          50.000                                                  
G13  24334037.960   127876248.180          50.000                                                  
G15  24629392.960   129428116.090          50.000                                                  
G17  21730096.440   114192386.023          50.000                                                  
G19  20258346.020   106458326.676          50.000                                                  
G24  21489002.020   112925413.336          50.000    21489004.000    84327417.066          50.000  
G28  22876279.680   120215788.707          50.000                                                  
E 2  27265092.000   143278995.531          50.000    27265097.240   106994039.309          50.000  
E15  23659655.140   124332288.285          50.000    23659660.640    92845525.852          50.000  
E27  24300186.720   127698318.648          50.000    24300190.880    95359122.270          50.000  
E30  22674219.200   119153795.949          50.000    22674223.140    88978470.449          50.000  
> 2020  6 10 17 50 58.0000000  0 13       0.000000000000
G 2  22827194.900   119957715.828          50.000                                                  
G 6  21450842.260   112724879.633          50.000    21450845.060    84177668.090          50.000  
G12  23603160.040   124035432.531          50.000                                                  
G13  24334652.500   127879477.637          50.000                                                  
G15  24629880.780   129430679.625          50.000                                                  
G17  21730515.080   114194585.996          50.000                                                  
G19  20258540.780   106459350.082          50.000                                                  
G24  21488689.120   112923768.980          50.000    21488691.080    84326189.141          50.000  
G28  22876612.620   120217538.359          50.000                                                  
E 2  27265490.060   143281087.387          50.000    27265495.300   106995601.410          50.000  
E15  23659329.680   124330578.035          50.000    23659335.200    92844248.719          50.000  
E27  24299892.460   127696772.273          50.000    24299896.620    95357967.512          50.000  
E30  22674339.480   119154428.012          50.000    22674343.420    88978942.441          50.000  
> 2020  6 10 17 50 59.0000000  0 13       0.000000000000
G 2  22826610.080   119954642.598          50.000                                                  
G 6  21450439.560   112722763.418          50.000    21450442.360    84176087.805          50.000  
G12  23602643.200   124032716.598          50.000                                                  
G13  24335267.040   127882707.066          50.000                                                  
G15  24630368.620   129433243.238          50.000                                                  
G17  21730933.760   114196786.180          50.000                                                  
G19  20258735.620   106460373.977          50.000                                                  
G24  21488376.300   112922125.184          50.000    21488378.280    84324961.637          50.000  
G28  22876945.600   120219288.145          50.000                                                  
E 2  27265888.160   143283179.398          50.000    27265893.400   106997163.625          50.000  
E15  23659004.300   124328868.184          50.000    23659009.820    92842971.883          50.000  
E27  24299598.200   127695226.004          50.000    24299602.360    95356812.828          50.000  
E30  22674459.800   119155060.316          50.000    22674463.740    88979414.621          50.000  
> 2020  6 10 17 51  0.0000000  0 13       0.000000000000
G 2  22826025.320   119951569.625          50.000                                                  
G 6  21450036.960   112720647.734          50.000    21450039.760    84174507.914          50.000  
G12  23602126.380   124030000.707          50.000                                                  
G13  24335881.580   127885936.477          50.000                                                  
G15  24630856.480   129435806.934          50.000                                                  
G17  21731352.480   114198986.551          50.000                                                  
G19  20258930.540   106461398.324          50.000                                                  
G24  21488063.600   112920481.906          50.000    21488065.580    84323734.520          50.000  
G28  22877278.600   120221038.070          50.000                                                  
E 2  27266286.280   143285271.555          50.000    27266291.520   106998725.953          50.000  
E15  23658679.000   124327158.734          50.000    23658684.520    92841695.348          50.000  
E27  24299303.980   127693679.824          50.000    24299308.140    95355658.215          50.000  
E30  22674580.160   119155692.832          50.000    22674584.100    88979886.953          50.000  
> 2020  6 10 17 51  1.0000000  0 13       0.000000000000
G 2  22825440.600   119948496.906          50.000                                                  
G 6  21449634.460   112718532.578          50.000    21449637.260    84172928.422          50.000  
G12  23601609.580   124027284.855          50.000                                                  
G13  24336496.120   127889165.887          50.000                                                  
G15  24631344.360   129438370.730          50.000                                                  
G17  21731771.240   114201187.129          50.000                                                  
G19  20259125.560   106462423.152          50.000                                                  
G24  21487751.000   112918839.168          50.000    21487752.960    84322507.805          50.000  
G28  22877611.620   120222788.113          50.000                                                  
E 2  27266684.420   143287363.832          50.000    27266689.660   107000288.367          50.000  
E15  23658353.780   124325449.688          50.000    23658359.280    92840419.113          50.000  
E27  24299009.760   127692133.758          50.000    24299013.920    95354503.688          50.000  
E30  22674700.560   119156325.570          50.000    22674704.500    88980359.453          50.000  
> 2020  6 10 17 51  2.0000000  0 13       0.000000000000
G 2  22824855.920   119945424.469          50.000                                                  
G 6  21449232.060   112716417.973          50.000    21449234.860    84171349.340          50.000  
G12  23601092.780   124024569.035          50.000                                                  
G13  24337110.640   127892395.270          50.000                                                  
G15  24631832.240   129440934.594          50.000                                                  
G17  21732190.020   114203387.902          50.000                                                  
G19  20259320.660   106463448.457          50.000                                                  
G24  21487438.500   112917196.965          50.000    21487440.460    84321281.492          50.000  
G28  22877944.680   120224538.297          50.000                                                  
E 2  27267082.600   143289456.262          50.000    27267087.840   107001850.898          50.000  
E15  23658028.640   124323741.039          50.000    23658034.140    92839143.180          50.000  
E27  24298715.580   127690587.793          50.000    24298719.740    95353349.238          50.000  
E30  22674821.020   119156958.539          50.000    22674824.960    88980832.129          50.000  
> 2020  6 10 17 51  3.0000000  0 13       0.000000000000
G 2  22824271.320   119942352.297          50.000                                                  
G 6  21448829.760   112714303.891          50.000    21448832.560    84169770.648          50.000  
G12  23600575.980   124021853.258          50.000                                                  
G13  24337725.180   127895624.625          50.000                                                  
G15  24632320.140   129443498.539          50.000                                                  
G17  21732608.860   114205588.871          50.000                                                  
G19  20259515.860   106464474.230          50.000                                                  
G24  21487126.100   112915555.320          50.000    21487128.060    84320055.590          50.000  
G28  22878277.740   120226288.609          50.000                                                  
E 2  27267480.800   143291548.820          50.000    27267486.040   107003413.527          50.000  
E15  23657703.560   124322032.789          50.000    23657709.060    92837867.543          50.000  
E27  24298421.400   127689041.926          50.000    24298425.560    95352194.859          50.000  
E30  22674941.500   119157591.723          50.000    22674945.440    88981304.965          50.000  
> 2020  6 10 17 51  4.0000000  0 13       0.000000000000
G 2  22823686.740   119939280.395          50.000                                                  
G 6  21448427.560   112712190.352          50.000    21448430.360    84168192.359          50.000  
G12  23600059.180   124019137.516          50.000                                                  
G13  24338339.700   127898853.965          50.000                                                  
G15  24632808.060   129446062.566          50.000                                                  
G17  21733027.720   114207790.035          50.000                                                  
G19  20259711.160   106465500.504          50.000                                                  
G24  21486813.800   112913914.215          50.000    21486815.780    84318830.098          50.000  
G28  22878610.840   120228039.051          50.000                                                  
E 2  27267879.020   143293641.520          50.000    27267884.260   107004976.262          50.000  
E15  23657378.560   124320324.941          50.000    23657384.080    92836592.207          50.000  
E27  24298127.260   127687496.168          50.000    24298131.420    95351040.566          50.000  
E30  22675062.040   119158225.141          50.000    22675065.980    88981777.973          50.000  
> 2020  6 10 17 51  5.0000000  0 13       0.000000000000
G 2  22823102.240   119936208.762          50.000                                                  
G 6  21448025.480   112710077.352          50.000    21448028.260    84166614.477          50.000  
G12  23599542.400   124016421.813          50.000                                                  
G13  24338954.220   127902083.285          50.000                                                  
G15  24633296.000   129448626.680          50.000                                                  
G17  21733446.640   114209991.406          50.000                                                  
G19  20259906.540   106466527.230          50.000                                                  
G24  21486501.620   112912273.676          50.000    21486503.580    84317605.023          50.000  
G28  22878943.960   120229789.633          50.000                                                  
E 2  27268277.280   143295734.375          50.000    27268282.520   107006539.113          50.000  
E15  23657053.660   124318617.512          50.000    23657059.160    92835317.184          50.000  
E27  24297833.120   127685950.516          50.000    24297837.280    95349886.352          50.000  
E30  22675182.620   119158858.793          50.000    22675186.560    88982251.160          50.000  
> 2020  6 10 17 51  6.0000000  0 13       0.000000000000
G 2  22822517.760   119933137.395          50.000                                                  
G 6  21447623.480   112707964.879          50.000    21447626.280    84165036.988          50.000  
G12  23599025.620   124013706.148          50.000                                                  
G13  24339568.740   127905312.598          50.000                                                  
G15  24633783.940   129451190.875          50.000                                                  
G17  21733865.580   114212192.961          50.000                                                  
G19  20260102.000   106467554.422          50.000                                                  
G24  21486189.540   112910633.680          50.000    21486191.500    84316380.359          50.000  
G28  22879277.120   120231540.332          50.000                                                  
E 2  27268675.560   143297827.355          50.000    27268680.800   107008102.055          50.000  
E15  23656728.820   124316910.473          50.000    23656734.320    92834042.449          50.000  
E27  24297539.020   127684404.965          50.000    24297543.180    95348732.211          50.000  
E30  22675303.240   119159492.652          50.000    22675307.180    88982724.504          50.000  
> 2020  6 10 17 51  7.0000000  0 13       0.000000000000
G 2  22821933.360   119930066.281          50.000                                                  
G 6  21447221.600   112705852.941          50.000    21447224.380    84163459.898          50.000  
G12  23598508.860   124010990.520          50.000                                                  
G13  24340183.240   127908541.895          50.000                                                  
G15  24634271.920   129453755.160          50.000                                                  
G17  21734284.560   114214394.715          50.000                                                  
G19  20260297.560   106468582.105          50.000                                                  
G24  21485877.560   112908994.254          50.000    21485879.520    84315156.113          50.000  
G28  22879610.280   120233291.172          50.000                                                  
E 2  27269073.860   143299920.480          50.000    27269079.100   107009665.109          50.000  
E15  23656404.060   124315203.832          50.000    23656409.560    92832768.020          50.000  
E27  24297244.920   127682859.516          50.000    24297249.080    95347578.148          50.000  
E30  22675423.900   119160126.746          50.000    22675427.840    88983198.020          50.000  
> 2020  6 10 17 51  8.0000000  0 13       0.000000000000
G 2  22821348.980   119926995.449          50.000                                                  
G 6  21446819.800   112703741.543          50.000    21446822.600    84161883.211          50.000  
G12  23597992.100   124008274.930          50.000                                                  
G13  24340797.760   127911771.176          50.000                                                  
G15  24634759.900   129456319.531          50.000                                                  
G17  21734703.580   114216596.672          50.000                                                  
G19  20260493.220   106469610.258          50.000                                                  
G24  21485565.700   112907355.371          50.000    21485567.660    84313932.277          50.000  
G28  22879943.480   120235042.141          50.000                                                  
E 2  27269472.200   143302013.758          50.000    27269477.440   107011228.273          50.000  
E15  23656079.360   124313497.602          50.000    23656084.860    92831493.891          50.000  
E27  24296950.860   127681314.184          50.000    24296955.020    95346424.168          50.000  
E30  22675544.600   119160761.066          50.000    22675548.540    88983671.703          50.000  
> 2020  6 10 17 51  9.0000000  0 13       0.000000000000
G 2  22820764.680   119923924.883          50.000                                                  
G 6  21446418.120   112701630.680          50.000    21446420.900    84160306.922          50.000  
G12  23597475.340   124005559.383          50.000                                                  
G13  24341412.260   127915000.426          50.000                                                  
G15  24635247.900   129458883.980          50.000                                                  
G17  21735122.620   114218798.824          50.000                                                  
G19  20260688.960   106470638.863          50.000                                                  
G24  21485253.920   112905716.992          50.000    21485255.880    84312708.820          50.000  
G28  22880276.700   120236793.246          50.000                                                  
E 2  27269870.560   143304107.156          50.000    27269875.800   107012791.531          50.000  
E15  23655754.760   124311791.770          50.000    23655760.260    92830220.059          50.000  
E27  24296656.800   127679768.934          50.000    24296660.960    95345270.258          50.000  
E30  22675665.360   119161395.605          50.000    22675669.300    88984145.551          50.000  
> 2020  6 10 17 51 10.0000000  0 13       0.000000000000
G 2  22820180.420   119920854.586          50.000                                                  
G 6  21446016.540   112699520.352          50.000    21446019.320    84158731.031          50.000  
G12  23596958.600   124002843.879          50.000                                                  
G13  24342026.760   127918229.660          50.000                                                  
G15  24635735.920   129461448.516          50.000                                                  
G17  21735541.720   114221001.176          50.000                                                  
G19  20260884.780   106471667.977          50.000                                                  
G24  21484942.260   112904079.160          50.000    21484944.220    84311485.770          50.000  
G28  22880609.960   120238544.480          50.000                                                  
E 2  27270268.960   143306200.707          50.000    27270274.180   107014354.902          50.000  
E15  23655430.220   124310086.352          50.000    23655435.720    92828946.539          50.000  
E27  24296362.780   127678223.809          50.000    24296366.940    95344116.434          50.000  
E30  22675786.140   119162030.379          50.000    22675790.080    88984619.574          50.000  
> 2020  6 10 17 51 11.0000000  0 13       0.000000000000
G 2  22819596.200   119917784.566          50.000                                                  
G 6  21445615.060   112697410.563          50.000    21445617.840    84157155.547          50.000  
G12  23596441.860   124000128.398          50.000                                                  
G13  24342641.260   127921458.867          50.000                                                  
G15  24636223.940   129464013.133          50.000                                                  
G17  21735960.860   114223203.727          50.000                                                  
G19  20261080.700   106472697.543          50.000                                                  
G24  21484630.680   112902441.840          50.000    21484632.640    84310263.098          50.000  
G28  22880943.240   120240295.855          50.000                                                  
E 2  27270667.360   143308294.391          50.000    27270672.600   107015918.371          50.000  
E15  23655105.760   124308381.328          50.000    23655111.260    92827673.313          50.000  
E27  24296068.760   127676678.773          50.000    24296072.920    95342962.680          50.000  
E30  22675906.980   119162665.375          50.000    22675910.920    88985093.766          50.000  
> 2020  6 10 17 51 12.0000000  0 13       0.000000000000
G 2  22819012.060   119914714.805          50.000                                                  
G 6  21445213.680   112695301.309          50.000    21445216.460    84155580.461          50.000  
G12  23595925.120   123997412.961          50.000                                                  
G13  24343255.760   127924688.070          50.000                                                  
G15  24636711.980   129466577.832          50.000                                                  
G17  21736380.020   114225406.469          50.000                                                  
G19  20261276.720   106473727.582          50.000                                                  
G24  21484319.220   112900805.078          50.000    21484321.180    84309040.848          50.000  
G28  22881276.540   120242047.363          50.000                                                  
E 2  27271065.820   143310388.230          50.000    27271071.040   107017481.957          50.000  
E15  23654781.380   124306676.711          50.000    23654786.880    92826400.391          50.000  
E27  24295774.780   127675133.848          50.000    24295778.920    95341809.008          50.000  
E30  22676027.860   119163300.594          50.000    22676031.800    88985568.121          50.000  
> 2020  6 10 17 51 13.0000000  0 13       0.000000000000
G 2  22818427.940   119911645.301          50.000                                                  
G 6  21444812.400   112693192.582          50.000    21444815.180    84154005.770          50.000  
G12  23595408.400   123994697.563          50.000                                                  
G13  24343870.260   127927917.246          50.000                                                  
G15  24637200.040   129469142.613          50.000                                                  
G17  21736799.220   114227609.402          50.000                                                  
G19  20261472.820   106474758.098          50.000                                                  
G24  21484007.860   112899168.871          50.000    21484009.800    84307819.012          50.000  
G28  22881609.860   120243798.980          50.000                                                  
E 2  27271464.280   143312482.207          50.000    27271469.520   107019045.648          50.000  
E15  23654457.080   124304972.496          50.000    23654462.580    92825127.770          50.000  
E27  24295480.800   127673589.027          50.000    24295484.960    95340655.410          50.000  
E30  22676148.780   119163936.039          50.000    22676152.720    88986042.648          50.000  
> 2020  6 10 17 51 14.0000000  0 13       0.000000000000
G 2  22817843.880   119908576.074          50.000                                                  
G 6  21444411.220   112691084.398          50.000    21444414.000    84152431.480          50.000  
G12  23594891.680   123991982.203          50.000                                                  
G13  24344484.740   127931146.402          50.000                                                  
G15  24637688.120   129471707.473          50.000                                                  
G17  21737218.480   114229812.559          50.000                                                  
G19  20261669.000   106475789.078          50.000                                                  
G24  21483696.600   112897533.234          50.000    21483698.560    84306597.598          50.000  
G28  22881943.200   120245550.754          50.000                                                  
E 2  27271862.780   143314576.301          50.000    27271868.000   107020609.422          50.000  
E15  23654132.860   124303268.680          50.000    23654138.360    92823855.441          50.000  
E27  24295186.860   127672044.305          50.000    24295191.000    95339501.891          50.000  
E30  22676269.740   119164571.707          50.000    22676273.680    88986517.340          50.000  
> 2020  6 10 17 51 15.0000000  0 13       0.000000000000
G 2  22817259.880   119905507.121          50.000                                                  
G 6  21444010.160   112688976.754          50.000    21444012.920    84150857.594          50.000  
G12  23594374.960   123989266.883          50.000                                                  
G13  24345099.220   127934375.527          50.000                                                  
G15  24638176.220   129474272.418          50.000                                                  
G17  21737637.740   114232015.879          50.000                                                  
G19  20261865.280   106476820.551          50.000                                                  
G24  21483385.460   112895898.137          50.000    21483387.400    84305376.590          50.000  
G28  22882276.580   120247302.660          50.000                                                  
E 2  27272261.300   143316670.563          50.000    27272266.520   107022173.324          50.000  
E15  23653808.700   124301565.266          50.000    23653814.200    92822583.422          50.000  
E27  24294892.920   127670499.695          50.000    24294897.080    95338348.453          50.000  
E30  22676390.740   119165207.594          50.000    22676394.680    88986992.195          50.000  
> 2020  6 10 17 51 16.0000000  0 13       0.000000000000
G 2  22816675.920   119902438.426          50.000                                                  
G 6  21443609.180   112686869.641          50.000    21443611.960    84149284.109          50.000  
G12  23593858.260   123986551.609          50.000                                                  
G13  24345713.700   127937604.637          50.000                                                  
G15  24638664.320   129476837.441          50.000                                                  
G17  21738057.080   114234219.430          50.000                                                  
G19  20262061.660   106477852.480          50.000                                                  
G24  21483074.400   112894263.574          50.000    21483076.360    84304155.980          50.000  
G28  22882609.980   120249054.691          50.000                                                  
E 2  27272659.840   143318764.953          50.000    27272665.080   107023737.320          50.000  
E15  23653484.640   124299862.258          50.000    23653490.120    92821311.699          50.000  
E27  24294599.020   127668955.188          50.000    24294603.160    95337195.094          50.000  
E30  22676511.800   119165843.727          50.000    22676515.720    88987467.230          50.000  
> 2020  6 10 17 51 17.0000000  0 13       0.000000000000
G 2  22816092.020   119899370.004          50.000                                                  
G 6  21443208.320   112684763.070          50.000    21443211.080    84147711.023          50.000  
G12  23593341.580   123983836.367          50.000                                                  
G13  24346328.180   127940833.723          50.000                                                  
G15  24639152.460   129479402.555          50.000                                                  
G17  21738476.420   114236423.145          50.000                                                  
G19  20262258.120   106478884.863          50.000                                                  
G24  21482763.460   112892629.527          50.000    21482765.400    84302935.754          50.000  
G28  22882943.400   120250806.852          50.000                                                  
E 2  27273058.420   143320859.484          50.000    27273063.660   107025301.422          50.000  
E15  23653160.640   124298159.660          50.000    23653166.120    92820040.281          50.000  
E27  24294305.120   127667410.789          50.000    24294309.260    95336041.813          50.000  
E30  22676632.900   119166480.074          50.000    22676636.820    88987942.430          50.000  
> 2020  6 10 17 51 18.0000000  0 13       0.000000000000
G 2  22815508.180   119896301.852          50.000                                                  
G 6  21442807.540   112682657.035          50.000    21442810.320    84146138.344          50.000  
G12  23592824.880   123981121.168          50.000                                                  
G13  24346942.640   127944062.793          50.000                                                  
G15  24639640.580   129481967.738          50.000                                                  
G17  21738895.820   114238627.082          50.000                                                  
G19  20262454.660   106479917.754          50.000                                                  
G24  21482452.600   112890996.023          50.000    21482454.560    84301715.938          50.000  
G28  22883276.860   120252559.164          50.000                                                  
E 2  27273457.020   143322954.156          50.000    27273462.260   107026865.629          50.000  
E15  23652836.720   124296457.457          50.000    23652842.200    92818769.164          50.000  
E27  24294011.260   127665866.492          50.000    24294015.400    95334888.609          50.000  
E30  22676754.020   119167116.645          50.000    22676757.960    88988417.797          50.000  
> 2020  6 10 17 51 19.0000000  0 13       0.000000000000
G 2  22814924.360   119893233.969          50.000                                                  
G 6  21442406.880   112680551.543          50.000    21442409.660    84144566.066          50.000  
G12  23592308.200   123978406.004          50.000                                                  
G13  24347557.120   127947291.836          50.000                                                  
G15  24640128.740   129484533.012          50.000                                                  
G17  21739315.240   114240831.195          50.000                                                  
G19  20262651.300   106480951.113          50.000                                                  
G24  21482141.860   112889363.047          50.000    21482143.800    84300496.512          50.000  
G28  22883610.340   120254311.594          50.000                                                  
E 2  27273855.660   143325048.988          50.000    27273860.880   107028429.953          50.000  
E15  23652512.880   124294755.668          50.000    23652518.360    92817498.348          50.000  
E27  24293717.400   127664322.301          50.000    24293721.540    95333735.480          50.000  
E30  22676875.200   119167753.449          50.000    22676879.140    88988893.336          50.000  
> 2020  6 10 17 51 20.0000000  0 13       0.000000000000
G 2  22814340.620   119890166.355          50.000                                                  
G 6  21442006.320   112678446.578          50.000    21442009.080    84142994.184          50.000  
G12  23591791.540   123975690.879          50.000                                                  
G13  24348171.580   127950520.863          50.000                                                  
G15  24640616.920   129487098.379          50.000                                                  
G17  21739734.720   114243035.512          50.000                                                  
G19  20262848.040   106481984.945          50.000                                                  
G24  21481831.220   112887730.625          50.000    21481833.160    84299277.500          50.000  
G28  22883943.840   120256064.156          50.000                                                  
E 2  27274254.320   143327143.941          50.000    27274259.540   107029994.367          50.000  
E15  23652189.120   124293054.270          50.000    23652194.600    92816227.824          50.000  
E27  24293423.580   127662778.207          50.000    24293427.720    95332582.426          50.000  
E30  22676996.420   119168390.465          50.000    22677000.360    88989369.031          50.000  
> 2020  6 10 17 51 21.0000000  0 13       0.000000000000
G 2  22813756.920   119887099.004          50.000                                                  
G 6  21441605.860   112676342.145          50.000    21441608.620    84141422.695          50.000  
G12  23591274.860   123972975.793          50.000                                                  
G13  24348786.040   127953749.871          50.000                                                  
G15  24641105.100   129489663.824          50.000                                                  
G17  21740154.220   114245240.027          50.000                                                  
G19  20263044.860   106483019.246          50.000                                                  
G24  21481520.680   112886098.730          50.000    21481522.620    84298058.883          50.000  
G28  22884277.360   120257816.848          50.000                                                  
E 2  27274653.000   143329239.043          50.000    27274658.220   107031558.895          50.000  
E15  23651865.420   124291353.273          50.000    23651870.920    92814957.602          50.000  
E27  24293129.760   127661234.223          50.000    24293133.900    95331429.453          50.000  
E30  22677117.700   119169027.719          50.000    22677121.620    88989844.902          50.000  
> 2020  6 10 17 51 22.0000000  0 13       0.000000000000
G 2  22813173.280   119884031.922          50.000                                                  
G 6  21441205.500   112674238.262          50.000    21441208.260    84139851.621          50.000  
G12  23590758.200   123970260.750          50.000                                                  
G13  24349400.480   127956978.848          50.000                                                  
G15  24641593.300   129492229.344          50.000                                                  
G17  21740573.760   114247444.742          50.000                                                  
G19  20263241.780   106484054.043          50.000                                                  
G24  21481210.240   112884467.395          50.000    21481212.200    84296840.684          50.000  
G28  22884610.920   120259569.676          50.000                                                  
E 2  27275051.700   143331334.277          50.000    27275056.940   107033123.516          50.000  
E15  23651541.820   124289652.691          50.000    23651547.300    92813687.688          50.000  
E27  24292835.980   127659690.359          50.000    24292840.120    95330276.566          50.000  
E30  22677239.000   119169665.199          50.000    22677242.920    88990320.941          50.000  
> 2020  6 10 17 51 23.0000000  0 13       0.000000000000
G 2  22812589.680   119880965.109          50.000                                                  
G 6  21440805.240   112672134.906          50.000    21440808.000    84138280.938          50.000  
G12  23590241.560   123967545.742          50.000                                                  
G13  24350014.940   127960207.809          50.000                                                  
G15  24642081.520   129494794.953          50.000                                                  
G17  21740993.340   114249649.648          50.000                                                  
G19  20263438.760   106485089.281          50.000                                                  
G24  21480899.920   112882836.590          50.000    21480901.860    84295622.879          50.000  
G28  22884944.500   120261322.629          50.000                                                  
E 2  27275450.440   143333429.656          50.000    27275455.680   107034688.250          50.000  
E15  23651218.280   124287952.504          50.000    23651223.760    92812418.070          50.000  
E27  24292542.200   127658146.590          50.000    24292546.340    95329123.754          50.000  
E30  22677360.340   119170302.902          50.000    22677364.280    88990797.148          50.000  
> 2020  6 10 17 51 24.0000000  0 13       0.000000000000
G 2  22812006.120   119877898.566          50.000                                                  
G 6  21440405.100   112670032.090          50.000    21440407.860    84136710.656          50.000  
G12  23589724.920   123964830.773          50.000                                                  
G13  24350629.380   127963436.742          50.000                                                  
G15  24642569.760   129497360.637          50.000                                                  
G17  21741412.960   114251854.766          50.000                                                  
G19  20263635.860   106486125.008          50.000                                                  
G24  21480589.680   112881206.348          50.000    21480591.620    84294405.496          50.000  
G28  22885278.100   120263075.719          50.000                                                  
E 2  27275849.220   143335525.176          50.000    27275854.440   107036253.086          50.000  
E15  23650894.820   124286252.727          50.000    23650900.300    92811148.758          50.000  
E27  24292248.460   127656602.930          50.000    24292252.600    95327971.023          50.000  
E30  22677481.740   119170940.832          50.000    22677485.660    88991273.531          50.000  
> 2020  6 10 17 51 25.0000000  0 13       0.000000000000
G 2  22811422.640   119874832.289          50.000                                                  
G 6  21440005.040   112667929.809          50.000    21440007.800    84135140.777          50.000  
G12  23589208.280   123962115.852          50.000                                                  
G13  24351243.820   127966665.656          50.000                                                  
G15  24643058.000   129499926.406          50.000                                                  
G17  21741832.620   114254060.063          50.000                                                  
G19  20263833.040   106487161.223          50.000                                                  
G24  21480279.560   112879576.660          50.000    21480281.500    84293188.527          50.000  
G28  22885611.720   120264828.941          50.000                                                  
E 2  27276248.000   143337620.832          50.000    27276253.220   107037818.020          50.000  
E15  23650571.440   124284553.340          50.000    23650576.920    92809879.738          50.000  
E27  24291954.720   127655059.363          50.000    24291958.860    95326818.359          50.000  
E30  22677603.180   119171578.977          50.000    22677607.100    88991750.063          50.000  
> 2020  6 10 17 51 26.0000000  0 13       0.000000000000
G 2  22810839.180   119871766.285          50.000                                                  
G 6  21439605.100   112665828.066          50.000    21439607.840    84133571.293          50.000  
G12  23588691.640   123959400.949          50.000                                                  
G13  24351858.260   127969894.563          50.000                                                  
G15  24643546.280   129502492.258          50.000                                                  
G17  21742252.300   114256265.563          50.000                                                  
G19  20264030.320   106488197.887          50.000                                                  
G24  21479969.540   112877947.508          50.000    21479971.480    84291971.953          50.000  
G28  22885945.380   120266582.297          50.000                                                  
E 2  27276646.820   143339716.637          50.000    27276652.040   107039383.074          50.000  
E15  23650248.140   124282854.375          50.000    23650253.620    92808611.031          50.000  
E27  24291661.000   127653515.906          50.000    24291665.140    95325665.781          50.000  
E30  22677724.660   119172217.359          50.000    22677728.580    88992226.777          50.000  
> 2020  6 10 17 51 27.0000000  0 13       0.000000000000
G 2  22810255.800   119868700.551          50.000                                                  
G 6  21439205.240   112663726.855          50.000    21439208.000    84132002.211          50.000  
G12  23588175.020   123956686.098          50.000                                                  
G13  24352472.700   127973123.438          50.000                                                  
G15  24644034.560   129505058.195          50.000                                                  
G17  21742672.040   114258471.242          50.000                                                  
G19  20264227.680   106489235.043          50.000                                                  
G24  21479659.640   112876318.910          50.000    21479661.580    84290755.793          50.000  
G28  22886279.060   120268335.785          50.000                                                  
E 2  27277045.660   143341812.582          50.000    27277050.880   107040948.227          50.000  
E15  23649924.900   124281155.809          50.000    23649930.380    92807342.621          50.000  
E27  24291367.320   127651972.559          50.000    24291371.460    95324513.281          50.000  
E30  22677846.180   119172855.969          50.000    22677850.100    88992703.664          50.000  
> 2020  6 10 17 51 28.0000000  0 13       0.000000000000
G 2  22809672.460   119865635.078          50.000                                                  
G 6  21438805.500   112661626.191          50.000    21438808.260    84130433.535          50.000  
G12  23587658.420   123953971.277          50.000                                                  
G13  24353087.120   127976352.289          50.000                                                  
G15  24644522.840   129507624.199          50.000                                                  
G17  21743091.800   114260677.148          50.000                                                  
G19  20264425.140   106490272.656          50.000                                                  
G24  21479349.820   112874690.867          50.000    21479351.760    84289540.047          50.000  
G28  22886612.760   120270089.402          50.000                                                  
E 2  27277444.540   143343908.664          50.000    27277449.760   107042513.484          50.000  
E15  23649601.760   124279457.637          50.000    23649607.240    92806074.508          50.000  
E27  24291073.640   127650429.305          50.000    24291077.780    95323360.855          50.000  
E30  22677967.740   119173494.789          50.000    22677971.660    88993180.707          50.000  
> 2020  6 10 17 51 29.0000000  0 13       0.000000000000
G 2  22809089.160   119862569.887          50.000                                                  
G 6  21438405.860   112659526.059          50.000    21438408.620    84128865.254          50.000  
G12  23587141.800   123951256.500          50.000                                                  
G13  24353701.540   127979581.105          50.000                                                  
G15  24645011.160   129510190.285          50.000                                                  
G17  21743511.600   114262883.207          50.000                                                  
G19  20264622.680   106491310.758          50.000                                                  
G24  21479040.120   112873063.367          50.000    21479042.060    84288324.711          50.000  
G28  22886946.480   120271843.148          50.000                                                  
E 2  27277843.440   143346004.887          50.000    27277848.660   107044078.844          50.000  
E15  23649278.680   124277759.863          50.000    23649284.160    92804806.695          50.000  
E27  24290780.000   127648886.156          50.000    24290784.140    95322208.504          50.000  
E30  22678089.360   119174133.844          50.000    22678093.280    88993657.922          50.000  
> 2020  6 10 17 51 30.0000000  0 13       0.000000000000
G 2  22808505.920   119859504.961          50.000                                                  
G 6  21438006.320   112657426.469          50.000    21438009.080    84127297.383          50.000  
G12  23586625.200   123948541.770          50.000                                                  
G13  24354315.980   127982809.918          50.000                                                  
G15  24645499.480   129512756.457          50.000                                                  
G17  21743931.440   114265089.492          50.000                                                  
G19  20264820.300   106492349.316          50.000                                                  
G24  21478730.520   112871436.395          50.000    21478732.460    84287109.766          50.000  
G28  22887280.240   120273597.047          50.000                                                  
E 2  27278242.360   143348101.250          50.000    27278247.580   107045644.313          50.000  
E15  23648955.680   124276062.508          50.000    23648961.160    92803539.191          50.000  
E27  24290486.360   127647343.125          50.000    24290490.500    95321056.242          50.000  
E30  22678211.000   119174773.133          50.000    22678214.920    88994135.316          50.000  
> 2020  6 10 17 51 31.0000000  0 13       0.000000000000
G 2  22807922.740   119856440.313          50.000                                                  
G 6  21437606.880   112655327.418          50.000    21437609.640    84125729.910          50.000  
G12  23586108.620   123945827.063          50.000                                                  
G13  24354930.380   127986038.703          50.000                                                  
G15  24645987.820   129515322.699          50.000                                                  
G17  21744351.320   114267295.977          50.000                                                  
G19  20265018.020   106493388.336          50.000                                                  
G24  21478421.020   112869809.965          50.000    21478422.960    84285895.223          50.000  
G28  22887614.020   120275351.063          50.000                                                  
E 2  27278641.300   143350197.762          50.000    27278646.540   107047209.891          50.000  
E15  23648632.760   124274365.551          50.000    23648638.240    92802271.980          50.000  
E27  24290192.760   127645800.195          50.000    24290196.900    95319904.055          50.000  
E30  22678332.700   119175412.641          50.000    22678336.620    88994612.867          50.000  
