     3.03           OBSERVATION DATA    M: Mixed            RINEX VERSION / TYPE
sbp2rinex v2.2 (RTKL                    20210504 171524 UTC PGM / RUN BY / DATE 
log: 2020-05-28-US-MTV-2.sbp                                COMMENT             
format: Swift Navigation SBP, option: CONVBASE,EPHALL,OBSALLCOMMENT             
                                                            MARKER NAME         
                                                            MARKER NUMBER       
                                                            MARKER TYPE         
                                                            OBSERVER / AGENCY   
                                                            REC # / TYPE / VERS 
                                                            ANT # / TYPE        
 -2736159.6361 -4313231.3075  3806905.8593                  APPROX POSITION XYZ 
        0.0000        0.0000        0.0000                  ANTENNA: DELTA H/E/N
G    6 C1C L1C S1C C5I L5I S5I                              SYS / # / OBS TYPES 
E    6 C1B L1B S1B C5I L5I S5I                              SYS / # / OBS TYPES 
  2020     5    28    21    23    5.0000000     GPS         TIME OF FIRST OBS   
  2020     5    28    22     1   42.0000000     GPS         TIME OF LAST OBS    
G                                                           SYS / PHASE SHIFT   
E                                                           SYS / PHASE SHIFT   
  0                                                         GLONASS SLOT / FRQ #
 C1C    0.000 C1P    0.000 C2C    0.000 C2P    0.000        GLONASS COD/PHS/BIS 
                                                            END OF HEADER       
> 2020  5 28 21 23  5.0000000  0  9       0.000000000000
G 2  21189626.820   111352257.934          50.000                                                  
G 5  22702411.980   119301878.262          50.000                                                  
G 6  22753105.600   119568321.422          50.000    22753108.520    89288030.926          50.000  
G12  20082097.020   105532137.977          50.000                                                  
G19  24452970.860   128501199.395          50.000                                                  
G24  23460564.020   123286015.859          50.000    23460567.960    92064223.105          50.000  
G25  21057061.740   110655545.215          50.000    21057064.040    82632386.594          50.000  
G29  23079392.400   121282997.629          50.000                                                  
E27  23712466.840   124609830.066          50.000    23712471.100    93052783.457          50.000  
> 2020  5 28 21 23  6.0000000  0  9       0.000000000000
G 2  21189897.920   111353682.551          50.000                                                  
G 5  22701861.080   119298983.207          50.000                                                  
G 6  22753674.680   119571311.906          50.000    22753677.600    89290264.078          50.000  
G12  20082047.440   105531877.430          50.000                                                  
G19  24453508.600   128504025.160          50.000                                                  
G24  23461151.620   123289103.684          50.000    23461155.560    92066528.949          50.000  
G25  21056676.200   110653519.180          50.000    21056678.500    82630873.648          50.000  
G29  23078964.980   121280751.582          50.000                                                  
E27  23712277.580   124608835.555          50.000    23712281.840    93052040.801          50.000  
> 2020  5 28 21 23  7.0000000  0  9       0.000000000000
G 2  21190169.080   111355107.547          50.000                                                  
G 5  22701310.220   119296088.453          50.000                                                  
G 6  22754243.800   119574302.617          50.000    22754246.700    89292497.402          50.000  
G12  20081997.960   105531617.414          50.000                                                  
G19  24454046.320   128506850.949          50.000                                                  
G24  23461739.240   123292191.645          50.000    23461743.180    92068834.891          50.000  
G25  21056290.720   110651493.555          50.000    21056293.020    82629361.004          50.000  
G29  23078537.600   121278505.656          50.000                                                  
E27  23712088.400   124607841.418          50.000    23712092.660    93051298.430          50.000  
> 2020  5 28 21 23  8.0000000  0  9       0.000000000000
G 2  21190440.320   111356532.914          50.000                                                  
G 5  22700759.420   119293193.984          50.000                                                  
G 6  22754812.940   119577293.555          50.000    22754815.860    89294730.891          50.000  
G12  20081948.580   105531357.934          50.000                                                  
G19  24454584.060   128509676.746          50.000                                                  
G24  23462326.880   123295279.719          50.000    23462330.820    92071140.918          50.000  
G25  21055905.340   110649468.340          50.000    21055907.640    82627848.672          50.000  
G29  23078110.240   121276259.859          50.000                                                  
E27  23711899.300   124606847.664          50.000    23711903.560    93050556.340          50.000  
> 2020  5 28 21 23  9.0000000  0  9       0.000000000000
G 2  21190711.620   111357958.652          50.000                                                  
G 5  22700208.680   119290299.813          50.000                                                  
G 6  22755382.140   119580284.723          50.000    22755385.060    89296964.559          50.000  
G12  20081899.300   105531098.992          50.000                                                  
G19  24455121.780   128512502.551          50.000                                                  
G24  23462914.540   123298367.914          50.000    23462918.480    92073447.035          50.000  
G25  21055520.040   110647443.539          50.000    21055522.340    82626336.645          50.000  
G29  23077682.900   121274014.184          50.000                                                  
E27  23711710.260   124605854.297          50.000    23711714.520    93049814.539          50.000  
> 2020  5 28 21 23 10.0000000  0  9       0.000000000000
G 2  21190983.000   111359384.773          50.000                                                  
G 5  22699658.000   119287405.938          50.000                                                  
G 6  22755951.400   119583276.125          50.000    22755954.320    89299198.395          50.000  
G12  20081850.140   105530840.590          50.000                                                  
G19  24455659.520   128515328.375          50.000                                                  
G24  23463502.240   123301456.262          50.000    23463506.180    92075753.270          50.000  
G25  21055134.800   110645419.156          50.000    21055137.100    82624824.930          50.000  
G29  23077255.580   121271768.633          50.000                                                  
E27  23711521.320   124604861.324          50.000    23711525.580    93049073.035          50.000  
> 2020  5 28 21 23 11.0000000  0  9       0.000000000000
G 2  21191254.460   111360811.266          50.000                                                  
G 5  22699107.360   119284512.352          50.000                                                  
G 6  22756520.680   119586267.758          50.000    22756523.600    89301432.402          50.000  
G12  20081801.060   105530582.715          50.000                                                  
G19  24456197.260   128518154.203          50.000                                                  
G24  23464089.960   123304544.758          50.000    23464093.900    92078059.609          50.000  
G25  21054749.660   110643395.168          50.000    21054751.960    82623313.512          50.000  
G29  23076828.300   121269523.215          50.000                                                  
E27  23711332.420   124603868.730          50.000    23711336.680    93048331.813          50.000  
> 2020  5 28 21 23 12.0000000  0  9       0.000000000000
G 2  21191525.980   111362238.133          50.000                                                  
G 5  22698556.780   119281619.063          50.000                                                  
G 6  22757090.020   119589259.621          50.000    22757092.940    89303666.586          50.000  
G12  20081752.100   105530325.379          50.000                                                  
G19  24456735.000   128520980.039          50.000                                                  
G24  23464677.700   123307633.383          50.000    23464681.640    92080366.051          50.000  
G25  21054364.580   110641371.609          50.000    21054366.880    82621802.414          50.000  
G29  23076401.020   121267277.910          50.000                                                  
E27  23711143.620   124602876.508          50.000    23711147.880    93047590.867          50.000  
> 2020  5 28 21 23 13.0000000  0  9       0.000000000000
G 2  21191797.580   111363665.371          50.000                                                  
G 5  22698006.260   119278726.066          50.000                                                  
G 6  22757659.400   119592251.707          50.000    22757662.320    89305900.938          50.000  
G12  20081703.220   105530068.570          50.000                                                  
G19  24457272.740   128523805.891          50.000                                                  
G24  23465265.480   123310722.129          50.000    23465269.420    92082672.578          50.000  
G25  21053979.580   110639348.453          50.000    21053981.880    82620291.613          50.000  
G29  23075973.780   121265032.723          50.000                                                  
E27  23710954.880   124601884.680          50.000    23710959.140    93046850.215          50.000  
> 2020  5 28 21 23 14.0000000  0  9       0.000000000000
G 2  21192069.240   111365092.988          50.000                                                  
G 5  22697455.800   119275833.363          50.000                                                  
G 6  22758228.820   119595244.027          50.000    22758231.740    89308135.457          50.000  
G12  20081654.460   105529812.305          50.000                                                  
G19  24457810.500   128526631.746          50.000                                                  
G24  23465853.280   123313811.016          50.000    23465857.220    92084979.215          50.000  
G25  21053594.680   110637325.699          50.000    21053596.980    82618781.117          50.000  
G29  23075546.560   121262787.672          50.000                                                  
E27  23710766.220   124600893.234          50.000    23710770.480    93046109.848          50.000  
> 2020  5 28 21 23 15.0000000  0  9       0.000000000000
G 2  21192340.980   111366520.977          50.000                                                  
G 5  22696905.400   119272940.949          50.000                                                  
G 6  22758798.280   119598236.578          50.000    22758801.200    89310370.156          50.000  
G12  20081605.800   105529556.582          50.000                                                  
G19  24458348.240   128529457.617          50.000                                                  
G24  23466441.100   123316900.035          50.000    23466445.040    92087285.949          50.000  
G25  21053209.840   110635303.363          50.000    21053212.140    82617270.930          50.000  
G29  23075119.360   121260542.738          50.000                                                  
E27  23710577.620   124599902.176          50.000    23710581.880    93045369.770          50.000  
> 2020  5 28 21 23 16.0000000  0  9       0.000000000000
G 2  21192612.800   111367949.340          50.000                                                  
G 5  22696355.040   119270048.828          50.000                                                  
G 6  22759367.780   119601229.367          50.000    22759370.700    89312605.027          50.000  
G12  20081557.240   105529301.391          50.000                                                  
G19  24458885.980   128532283.500          50.000                                                  
G24  23467028.940   123319989.172          50.000    23467032.880    92089592.770          50.000  
G25  21052825.080   110633281.445          50.000    21052827.380    82615761.059          50.000  
G29  23074692.180   121258297.930          50.000                                                  
E27  23710389.100   124598911.504          50.000    23710393.360    93044629.984          50.000  
> 2020  5 28 21 23 17.0000000  0  9       0.000000000000
G 2  21192884.680   111369378.078          50.000                                                  
G 5  22695804.740   119267157.008          50.000                                                  
G 6  22759937.340   119604222.379          50.000    22759940.260    89314840.066          50.000  
G12  20081508.780   105529046.738          50.000                                                  
G19  24459423.740   128535109.395          50.000                                                  
G24  23467616.800   123323078.441          50.000    23467620.760    92091899.688          50.000  
G25  21052440.400   110631259.930          50.000    21052442.700    82614251.484          50.000  
G29  23074265.040   121256053.242          50.000                                                  
E27  23710200.660   124597921.219          50.000    23710204.920    93043890.484          50.000  
> 2020  5 28 21 23 18.0000000  0  9       0.000000000000
G 2  21193156.620   111370807.191          50.000                                                  
G 5  22695254.500   119264265.469          50.000                                                  
G 6  22760506.940   119607215.621          50.000    22760509.860    89317075.281          50.000  
G12  20081460.420   105528792.621          50.000                                                  
G19  24459961.480   128537935.293          50.000                                                  
G24  23468204.700   123326167.840          50.000    23468208.640    92094206.703          50.000  
G25  21052055.800   110629238.832          50.000    21052058.100    82612742.227          50.000  
G29  23073837.900   121253808.684          50.000                                                  
E27  23710012.280   124596931.316          50.000    23710016.540    93043151.273          50.000  
> 2020  5 28 21 23 19.0000000  0  9       0.000000000000
G 2  21193428.640   111372236.676          50.000                                                  
G 5  22694704.320   119261374.230          50.000                                                  
G 6  22761076.580   119610209.102          50.000    22761079.500    89319310.672          50.000  
G12  20081412.160   105528539.043          50.000                                                  
G19  24460499.240   128540761.215          50.000                                                  
G24  23468792.620   123329257.359          50.000    23468796.560    92096513.813          50.000  
G25  21051671.260   110627218.148          50.000    21051673.560    82611233.270          50.000  
G29  23073410.800   121251564.242          50.000                                                  
E27  23709823.980   124595941.801          50.000    23709828.240    93042412.348          50.000  
> 2020  5 28 21 23 20.0000000  0  9       0.000000000000
G 2  21193700.740   111373666.535          50.000                                                  
G 5  22694154.180   119258483.285          50.000                                                  
G 6  22761646.260   119613202.805          50.000    22761649.180    89321546.227          50.000  
G12  20081364.020   105528286.008          50.000                                                  
G19  24461037.000   128543587.141          50.000                                                  
G24  23469380.560   123332346.996          50.000    23469384.500    92098821.008          50.000  
G25  21051286.820   110625197.867          50.000    21051289.120    82609724.621          50.000  
G29  23072983.720   121249319.930          50.000                                                  
E27  23709635.760   124594952.664          50.000    23709640.020    93041673.711          50.000  
> 2020  5 28 21 23 21.0000000  0  9       0.000000000000
G 2  21193972.900   111375096.770          50.000                                                  
G 5  22693604.120   119255592.652          50.000                                                  
G 6  22762215.980   119616196.730          50.000    22762218.900    89323781.949          50.000  
G12  20081315.960   105528033.496          50.000                                                  
G19  24461574.760   128546413.082          50.000                                                  
G24  23469968.520   123335436.781          50.000    23469972.480    92101128.313          50.000  
G25  21050902.460   110623178.000          50.000    21050904.760    82608216.281          50.000  
G29  23072556.660   121247075.738          50.000                                                  
E27  23709447.600   124593963.918          50.000    23709451.860    93040935.359          50.000  
> 2020  5 28 21 23 22.0000000  0  9       0.000000000000
G 2  21194245.140   111376527.371          50.000                                                  
G 5  22693054.100   119252702.301          50.000                                                  
G 6  22762785.760   119619190.887          50.000    22762788.680    89326017.844          50.000  
G12  20081268.020   105527781.527          50.000                                                  
G19  24462112.520   128549239.027          50.000                                                  
G24  23470556.520   123338526.695          50.000    23470560.460    92103435.715          50.000  
G25  21050518.160   110621158.555          50.000    21050520.460    82606708.250          50.000  
G29  23072129.640   121244831.672          50.000                                                  
E27  23709259.520   124592975.547          50.000    23709263.780    93040197.289          50.000  
> 2020  5 28 21 23 23.0000000  0  9       0.000000000000
G 2  21194517.440   111377958.348          50.000                                                  
G 5  22692504.140   119249812.258          50.000                                                  
G 6  22763355.560   119622185.281          50.000    22763358.500    89328253.918          50.000  
G12  20081220.160   105527530.094          50.000                                                  
G19  24462650.280   128552064.988          50.000                                                  
G24  23471144.540   123341616.730          50.000    23471148.480    92105743.207          50.000  
G25  21050133.960   110619139.516          50.000    21050136.260    82605200.527          50.000  
G29  23071702.620   121242587.734          50.000                                                  
E27  23709071.520   124591987.563          50.000    23709075.780    93039459.512          50.000  
> 2020  5 28 21 23 24.0000000  0  9       0.000000000000
G 2  21194789.820   111379389.695          50.000                                                  
G 5  22691954.240   119246922.504          50.000                                                  
G 6  22763925.420   119625179.895          50.000    22763928.360    89330490.156          50.000  
G12  20081172.420   105527279.195          50.000                                                  
G19  24463188.060   128554890.961          50.000                                                  
G24  23471732.580   123344706.895          50.000    23471736.520    92108050.797          50.000  
G25  21049749.820   110617120.891          50.000    21049752.120    82603693.113          50.000  
G29  23071275.640   121240343.922          50.000                                                  
E27  23708883.580   124590999.973          50.000    23708887.840    93038722.023          50.000  
> 2020  5 28 21 23 25.0000000  0  9       0.000000000000
G 2  21195062.260   111380821.410          50.000                                                  
G 5  22691404.400   119244033.047          50.000                                                  
G 6  22764495.320   119628174.746          50.000    22764498.260    89332726.566          50.000  
G12  20081124.780   105527028.828          50.000                                                  
G19  24463725.820   128557716.945          50.000                                                  
G24  23472320.640   123347797.176          50.000    23472324.580    92110358.469          50.000  
G25  21049365.760   110615102.676          50.000    21049368.060    82602186.008          50.000  
G29  23070848.680   121238100.215          50.000                                                  
E27  23708695.720   124590012.762          50.000    23708699.980    93037984.820          50.000  
> 2020  5 28 21 23 26.0000000  0  9       0.000000000000
G 2  21195334.780   111382253.516          50.000                                                  
G 5  22690854.600   119241143.871          50.000                                                  
G 6  22765065.280   119631169.828          50.000    22765068.200    89334963.156          50.000  
G12  20081077.240   105526779.004          50.000                                                  
G19  24464263.580   128560542.938          50.000                                                  
G24  23472908.720   123350887.559          50.000    23472912.660    92112666.223          50.000  
G25  21048981.800   110613084.875          50.000    21048984.100    82600679.207          50.000  
G29  23070421.740   121235856.656          50.000                                                  
E27  23708507.940   124589025.941          50.000    23708512.200    93037247.910          50.000  
> 2020  5 28 21 23 27.0000000  0  9       0.000000000000
G 2  21195607.380   111383685.984          50.000                                                  
G 5  22690304.860   119238255.008          50.000                                                  
G 6  22765635.260   119634165.133          50.000    22765638.180    89337199.906          50.000  
G12  20081029.800   105526529.715          50.000                                                  
G19  24464801.360   128563368.953          50.000                                                  
G24  23473496.820   123353978.094          50.000    23473500.780    92114974.090          50.000  
G25  21048597.900   110611067.500          50.000    21048600.200    82599172.727          50.000  
G29  23069994.840   121233613.215          50.000                                                  
E27  23708320.220   124588039.492          50.000    23708324.480    93036511.277          50.000  
> 2020  5 28 21 23 28.0000000  0  9       0.000000000000
G 2  21195880.040   111385118.836          50.000                                                  
G 5  22689755.180   119235366.426          50.000                                                  
G 6  22766205.300   119637160.664          50.000    22766208.220    89339436.828          50.000  
G12  20080982.460   105526280.961          50.000                                                  
G19  24465339.140   128566194.977          50.000                                                  
G24  23474084.960   123357068.777          50.000    23474088.920    92117282.063          50.000  
G25  21048214.080   110609050.508          50.000    21048216.380    82597666.531          50.000  
G29  23069567.940   121231369.891          50.000                                                  
E27  23708132.580   124587053.438          50.000    23708136.840    93035774.938          50.000  
> 2020  5 28 21 23 29.0000000  0  9       0.000000000000
G 2  21196152.780   111386552.055          50.000                                                  
G 5  22689205.560   119232478.152          50.000                                                  
G 6  22766775.360   119640156.422          50.000    22766778.300    89341673.918          50.000  
G12  20080935.240   105526032.742          50.000                                                  
G19  24465876.920   128569021.012          50.000                                                  
G24  23474673.120   123360159.594          50.000    23474677.080    92119590.137          50.000  
G25  21047830.340   110607033.949          50.000    21047832.640    82596160.660          50.000  
G29  23069141.080   121229126.695          50.000                                                  
E27  23707945.020   124586067.762          50.000    23707949.280    93035038.879          50.000  
> 2020  5 28 21 23 30.0000000  0  9       0.000000000000
G 2  21196425.580   111387985.648          50.000                                                  
G 5  22688656.000   119229590.172          50.000                                                  
G 6  22767345.480   119643152.422          50.000    22767348.420    89343911.188          50.000  
G12  20080888.100   105525785.063          50.000                                                  
G19  24466414.700   128571847.051          50.000                                                  
G24  23475261.320   123363250.547          50.000    23475265.260    92121898.320          50.000  
G25  21047446.680   110605017.797          50.000    21047448.980    82594655.094          50.000  
G29  23068714.240   121226883.633          50.000                                                  
E27  23707757.520   124585082.477          50.000    23707761.780    93034303.113          50.000  
> 2020  5 28 21 23 31.0000000  0  9       0.000000000000
G 2  21196698.460   111389419.625          50.000                                                  
G 5  22688106.480   119226702.469          50.000                                                  
G 6  22767915.660   119646148.641          50.000    22767918.580    89346148.625          50.000  
G12  20080841.080   105525537.922          50.000                                                  
G19  24466952.480   128574673.109          50.000                                                  
G24  23475849.540   123366341.629          50.000    23475853.480    92124206.590          50.000  
G25  21047063.100   110603002.051          50.000    21047065.400    82593149.828          50.000  
G29  23068287.420   121224640.688          50.000                                                  
E27  23707570.100   124584097.578          50.000    23707574.360    93033567.641          50.000  
> 2020  5 28 21 23 32.0000000  0  9       0.000000000000
G 2  21196971.400   111390853.969          50.000                                                  
G 5  22687557.040   119223815.078          50.000                                                  
G 6  22768485.860   119649145.090          50.000    22768488.780    89348386.230          50.000  
G12  20080794.140   105525291.324          50.000                                                  
G19  24467490.260   128577499.176          50.000                                                  
G24  23476437.780   123369432.844          50.000    23476441.720    92126514.965          50.000  
G25  21046679.600   110600986.730          50.000    21046681.880    82591644.883          50.000  
G29  23067860.620   121222397.867          50.000                                                  
E27  23707382.760   124583113.063          50.000    23707387.020    93032832.449          50.000  
> 2020  5 28 21 23 33.0000000  0  9       0.000000000000
G 2  21197244.420   111392288.691          50.000                                                  
G 5  22687007.640   119220927.992          50.000                                                  
G 6  22769056.100   119652141.766          50.000    22769059.040    89350624.008          50.000  
G12  20080747.320   105525045.258          50.000                                                  
G19  24468028.040   128580325.250          50.000                                                  
G24  23477026.040   123372524.191          50.000    23477029.980    92128823.438          50.000  
G25  21046296.160   110598971.813          50.000    21046298.460    82590140.238          50.000  
G29  23067433.840   121220155.164          50.000                                                  
E27  23707195.480   124582128.934          50.000    23707199.740    93032097.547          50.000  
> 2020  5 28 21 23 34.0000000  0  9       0.000000000000
G 2  21197517.500   111393723.781          50.000                                                  
G 5  22686458.300   119218041.188          50.000                                                  
G 6  22769626.400   119655138.664          50.000    22769629.320    89352861.949          50.000  
G12  20080700.600   105524799.734          50.000                                                  
G19  24468565.840   128583151.332          50.000                                                  
G24  23477614.320   123375615.656          50.000    23477618.280    92131131.996          50.000  
G25  21045912.820   110596957.313          50.000    21045915.120    82588635.902          50.000  
G29  23067007.100   121217912.590          50.000                                                  
E27  23707008.280   124581145.188          50.000    23707012.540    93031362.930          50.000  
> 2020  5 28 21 23 35.0000000  0  9       0.000000000000
G 2  21197790.660   111395159.246          50.000                                                  
G 5  22685909.020   119215154.684          50.000                                                  
G 6  22770196.740   119658135.805          50.000    22770199.660    89355100.074          50.000  
G12  20080653.980   105524554.750          50.000                                                  
G19  24469103.620   128585977.426          50.000                                                  
G24  23478202.640   123378707.223          50.000    23478206.580    92133440.633          50.000  
G25  21045529.540   110594943.219          50.000    21045531.840    82587131.871          50.000  
G29  23066580.380   121215670.137          50.000                                                  
E27  23706821.160   124580161.820          50.000    23706825.420    93030628.598          50.000  
> 2020  5 28 21 23 36.0000000  0  9       0.000000000000
G 2  21198063.900   111396595.086          50.000                                                  
G 5  22685359.780   119212268.469          50.000                                                  
G 6  22770767.120   119661133.172          50.000    22770770.040    89357338.367          50.000  
G12  20080607.460   105524310.301          50.000                                                  
G19  24469641.420   128588803.520          50.000                                                  
G24  23478790.960   123381798.891          50.000    23478794.920    92135749.344          50.000  
G25  21045146.360   110592929.543          50.000    21045148.660    82585628.156          50.000  
G29  23066153.660   121213427.809          50.000                                                  
E27  23706634.100   124579178.852          50.000    23706638.360    93029894.563          50.000  
> 2020  5 28 21 23 37.0000000  0  9       0.000000000000
G 2  21198337.200   111398031.301          50.000                                                  
G 5  22684810.620   119209382.559          50.000                                                  
G 6  22771337.540   119664130.766          50.000    22771340.460    89359576.828          50.000  
G12  20080561.040   105524066.375          50.000                                                  
G19  24470179.200   128591629.645          50.000                                                  
G24  23479379.300   123384890.691          50.000    23479383.260    92138058.152          50.000  
G25  21044763.240   110590916.285          50.000    21044765.540    82584124.746          50.000  
G29  23065727.000   121211185.605          50.000                                                  
E27  23706447.120   124578196.258          50.000    23706451.380    93029160.809          50.000  
> 2020  5 28 21 23 38.0000000  0  9       0.000000000000
G 2  21198610.580   111399467.883          50.000                                                  
G 5  22684261.500   119206496.945          50.000                                                  
G 6  22771908.000   119667128.586          50.000    22771910.940    89361815.457          50.000  
G12  20080514.740   105523822.988          50.000                                                  
G19  24470717.000   128594455.770          50.000                                                  
G24  23479967.680   123387982.605          50.000    23479971.640    92140367.051          50.000  
G25  21044380.220   110588903.434          50.000    21044382.520    82582621.645          50.000  
G29  23065300.340   121208943.520          50.000                                                  
E27  23706260.220   124577214.055          50.000    23706264.480    93028427.344          50.000  
> 2020  5 28 21 23 39.0000000  0  9       0.000000000000
G 2  21198884.020   111400904.832          50.000                                                  
G 5  22683712.440   119203611.629          50.000                                                  
G 6  22772478.520   119670126.637          50.000    22772481.440    89364054.262          50.000  
G12  20080468.520   105523580.152          50.000                                                  
G19  24471254.800   128597281.910          50.000                                                  
G24  23480556.080   123391074.645          50.000    23480560.040    92142676.039          50.000  
G25  21043997.260   110586891.004          50.000    21043999.560    82581118.855          50.000  
G29  23064873.700   121206701.570          50.000                                                  
E27  23706073.380   124576232.234          50.000    23706077.640    93027694.168          50.000  
> 2020  5 28 21 23 40.0000000  0 12       0.000000000000
G 2  21199157.540   111402342.152          50.000                                                  
G 5  22683163.440   119200726.613          50.000                                                  
G 6  22773049.080   119673124.906          50.000    22773052.000    89366293.230          50.000  
G12  20080422.420   105523337.852          50.000                                                  
G19  24471792.600   128600108.059          50.000                                                  
G24  23481144.500   123394166.832          50.000    23481148.460    92144985.137          50.000  
G25  21043614.380   110584878.977          50.000    21043616.680    82579616.367          50.000  
G29  23064447.100   121204459.738          50.000                                                  
E13  26056899.760   136929889.855          50.000    26056905.560   102252821.527          50.000  
E15  23100655.360   121394729.719          50.000    23100660.600    90651895.938          50.000  
E27  23705886.620   124575250.801          50.000    23705890.880    93026961.281          50.000  
E30  22959477.680   120652847.328          50.000    22959482.100    90097893.734          50.000  
> 2020  5 28 21 23 41.0000000  0 12       0.000000000000
G 2  21199431.120   111403779.848          50.000                                                  
G 5  22682614.500   119197841.902          50.000                                                  
G 6  22773619.660   119676123.410          50.000    22773622.600    89368532.371          50.000  
G12  20080376.400   105523096.086          50.000                                                  
G19  24472330.400   128602934.223          50.000                                                  
G24  23481732.960   123397259.164          50.000    23481736.920    92147294.344          50.000  
G25  21043231.580   110582867.375          50.000    21043233.880    82578114.199          50.000  
G29  23064020.520   121202218.031          50.000                                                  
E13  26056488.860   136927730.555          50.000    26056494.660   102251209.063          50.000  
E15  23100623.120   121394560.246          50.000    23100628.340    90651769.387          50.000  
E27  23705699.920   124574269.754          50.000    23705704.200    93026228.680          50.000  
E30  22959827.020   120654683.188          50.000    22959831.440    90099264.668          50.000  
> 2020  5 28 21 23 42.0000000  0 12       0.000000000000
G 2  21199704.780   111405217.918          50.000                                                  
G 5  22682065.600   119194957.484          50.000                                                  
G 6  22774190.300   119679122.141          50.000    22774193.240    89370771.680          50.000  
G12  20080330.500   105522854.852          50.000                                                  
G19  24472868.200   128605760.387          50.000                                                  
G24  23482321.420   123400351.598          50.000    23482325.380    92149603.629          50.000  
G25  21042848.880   110580856.176          50.000    21042851.160    82576612.332          50.000  
G29  23063593.960   121199976.441          50.000                                                  
E13  26056078.000   136925571.453          50.000    26056083.800   102249596.746          50.000  
E15  23100590.920   121394391.078          50.000    23100596.160    90651643.059          50.000  
E27  23705513.320   124573289.090          50.000    23705517.580    93025496.363          50.000  
E30  22960176.440   120656519.395          50.000    22960180.860    90100635.859          50.000  
> 2020  5 28 21 23 43.0000000  0 12       0.000000000000
G 2  21199978.500   111406656.363          50.000                                                  
G 5  22681516.780   119192073.359          50.000                                                  
G 6  22774761.000   119682121.098          50.000    22774763.920    89373011.160          50.000  
G12  20080284.700   105522614.156          50.000                                                  
G19  24473406.000   128608586.570          50.000                                                  
G24  23482909.920   123403444.152          50.000    23482913.880    92151913.000          50.000  
G25  21042466.240   110578845.414          50.000    21042468.540    82575110.785          50.000  
G29  23063167.420   121197734.977          50.000                                                  
E13  26055667.180   136923412.563          50.000    26055672.980   102247984.590          50.000  
E15  23100558.780   121394222.219          50.000    23100564.020    90651516.965          50.000  
E27  23705326.780   124572308.820          50.000    23705331.040    93024764.348          50.000  
E30  22960525.940   120658355.965          50.000    22960530.360    90102007.324          50.000  
> 2020  5 28 21 23 44.0000000  0 12       0.000000000000
G 2  21200252.300   111408095.184          50.000                                                  
G 5  22680968.000   119189189.531          50.000                                                  
G 6  22775331.720   119685120.285          50.000    22775334.640    89375250.813          50.000  
G12  20080239.000   105522374.004          50.000                                                  
G19  24473943.820   128611412.766          50.000                                                  
G24  23483498.440   123406536.828          50.000    23483502.400    92154222.465          50.000  
G25  21042083.680   110576835.051          50.000    21042085.980    82573609.543          50.000  
G29  23062740.900   121195493.645          50.000                                                  
E13  26055256.400   136921253.891          50.000    26055262.180   102246372.598          50.000  
E15  23100526.720   121394053.664          50.000    23100531.940    90651391.094          50.000  
E27  23705140.300   124571328.926          50.000    23705144.560    93024032.609          50.000  
E30  22960875.480   120660192.898          50.000    22960879.900    90103379.059          50.000  
> 2020  5 28 21 23 45.0000000  0 12       0.000000000000
G 2  21200526.160   111409534.371          50.000                                                  
G 5  22680419.280   119186306.004          50.000                                                  
G 6  22775902.480   119688119.699          50.000    22775905.420    89377490.633          50.000  
G12  20080193.400   105522134.383          50.000                                                  
G19  24474481.620   128614238.973          50.000                                                  
G24  23484086.980   123409629.621          50.000    23484090.940    92156532.016          50.000  
G25  21041701.200   110574825.102          50.000    21041703.500    82572108.605          50.000  
G29  23062314.420   121193252.430          50.000                                                  
E13  26054845.640   136919095.422          50.000    26054851.440   102244760.754          50.000  
E15  23100494.700   121393885.402          50.000    23100499.920    90651265.445          50.000  
E27  23704953.920   124570349.426          50.000    23704958.180    93023301.160          50.000  
E30  22961225.100   120662030.168          50.000    22961229.520    90104751.043          50.000  
> 2020  5 28 21 23 46.0000000  0 12       0.000000000000
G 2  21200800.100   111410973.926          50.000                                                  
G 5  22679870.620   119183422.762          50.000                                                  
G 6  22776473.300   119691119.340          50.000    22776476.240    89379730.625          50.000  
G12  20080147.900   105521895.305          50.000                                                  
G19  24475019.440   128617065.191          50.000                                                  
G24  23484675.540   123412722.559          50.000    23484679.500    92158841.676          50.000  
G25  21041318.800   110572815.555          50.000    21041321.080    82570607.973          50.000  
G29  23061887.960   121191011.348          50.000                                                  
E13  26054434.940   136916937.160          50.000    26054440.740   102243149.066          50.000  
E15  23100462.740   121393717.445          50.000    23100467.960    90651140.023          50.000  
E27  23704767.600   124569370.305          50.000    23704771.860    93022570.000          50.000  
E30  22961574.800   120663867.801          50.000    22961579.220    90106123.301          50.000  
> 2020  5 28 21 23 47.0000000  0 12       0.000000000000
G 2  21201074.120   111412413.855          50.000                                                  
G 5  22679322.020   119180539.820          50.000                                                  
G 6  22777044.160   119694119.203          50.000    22777047.080    89381970.781          50.000  
G12  20080102.520   105521656.758          50.000                                                  
G19  24475557.260   128619891.422          50.000                                                  
G24  23485264.140   123415815.648          50.000    23485268.100    92161151.449          50.000  
G25  21040936.460   110570806.434          50.000    21040938.760    82569107.656          50.000  
G29  23061461.500   121188770.379          50.000                                                  
E13  26054024.280   136914779.109          50.000    26054030.080   102241537.535          50.000  
E15  23100430.820   121393549.785          50.000    23100436.060    90651014.820          50.000  
E27  23704581.340   124568391.570          50.000    23704585.600    93021839.129          50.000  
E30  22961924.560   120665705.785          50.000    22961928.980    90107495.820          50.000  
> 2020  5 28 21 23 48.0000000  0 12       0.000000000000
G 2  21201348.200   111413854.160          50.000                                                  
G 5  22678773.460   119177657.184          50.000                                                  
G 6  22777615.060   119697119.305          50.000    22777618.000    89384211.113          50.000  
G12  20080057.220   105521418.750          50.000                                                  
G19  24476095.060   128622717.648          50.000                                                  
G24  23485852.760   123418908.863          50.000    23485856.720    92163461.316          50.000  
G25  21040554.220   110568797.719          50.000    21040556.520    82567607.641          50.000  
G29  23061035.080   121186529.543          50.000                                                  
E13  26053613.660   136912621.266          50.000    26053619.440   102239926.160          50.000  
E15  23100398.980   121393382.434          50.000    23100404.220    90650889.852          50.000  
E27  23704395.180   124567413.230          50.000    23704399.440    93021108.547          50.000  
E30  22962274.380   120667544.133          50.000    22962278.800    90108868.613          50.000  
> 2020  5 28 21 23 49.0000000  0 12       0.000000000000
G 2  21201622.340   111415294.832          50.000                                                  
G 5  22678224.980   119174774.844          50.000                                                  
G 6  22778186.000   119700119.629          50.000    22778188.940    89386451.613          50.000  
G12  20080012.040   105521181.281          50.000                                                  
G19  24476632.880   128625543.898          50.000                                                  
G24  23486441.400   123422002.191          50.000    23486445.360    92165771.270          50.000  
G25  21040172.060   110566789.430          50.000    21040174.360    82566107.945          50.000  
G29  23060608.700   121184288.824          50.000                                                  
E13  26053203.080   136910463.637          50.000    26053208.860   102238314.945          50.000  
E15  23100367.200   121393215.387          50.000    23100372.420    90650765.109          50.000  
E27  23704209.080   124566435.266          50.000    23704213.340    93020378.250          50.000  
E30  22962624.280   120669382.824          50.000    22962628.700    90110241.664          50.000  
> 2020  5 28 21 23 50.0000000  0 12       0.000000000000
G 2  21201896.560   111416735.871          50.000                                                  
G 5  22677676.540   119171892.797          50.000                                                  
G 6  22778756.980   119703120.176          50.000    22778759.920    89388692.281          50.000  
G12  20079966.940   105520944.352          50.000                                                  
G19  24477170.700   128628370.148          50.000                                                  
G24  23487030.080   123425095.652          50.000    23487034.040    92168081.316          50.000  
G25  21039789.960   110564781.543          50.000    21039792.260    82564608.551          50.000  
G29  23060182.320   121182048.234          50.000                                                  
E13  26052792.520   136908306.227          50.000    26052798.320   102236703.891          50.000  
E15  23100335.460   121393048.637          50.000    23100340.700    90650640.586          50.000  
E27  23704023.040   124565457.688          50.000    23704027.300    93019648.242          50.000  
E30  22962974.240   120671221.879          50.000    22962978.660    90111614.980          50.000  
> 2020  5 28 21 23 51.0000000  0 12       0.000000000000
G 2  21202170.860   111418177.281          50.000                                                  
G 5  22677128.160   119169011.070          50.000                                                  
G 6  22779328.020   119706120.953          50.000    22779330.960    89390933.121          50.000  
G12  20079921.960   105520707.957          50.000                                                  
G19  24477708.520   128631196.418          50.000                                                  
G24  23487618.760   123428189.250          50.000    23487622.720    92170391.469          50.000  
G25  21039407.960   110562774.074          50.000    21039410.260    82563109.469          50.000  
G29  23059755.980   121179807.762          50.000                                                  
E13  26052382.020   136906149.008          50.000    26052387.820   102235092.984          50.000  
E15  23100303.800   121392882.195          50.000    23100309.020    90650516.297          50.000  
E27  23703837.100   124564480.504          50.000    23703841.360    93018918.523          50.000  
E30  22963324.260   120673061.285          50.000    22963328.680    90112988.563          50.000  
> 2020  5 28 21 23 52.0000000  0 12       0.000000000000
G 2  21202445.220   111419619.066          50.000                                                  
G 5  22676579.840   119166129.645          50.000                                                  
G 6  22779899.100   119709121.953          50.000    22779902.020    89393174.129          50.000  
G12  20079877.080   105520472.094          50.000                                                  
G19  24478246.360   128634022.695          50.000                                                  
G24  23488207.480   123431282.965          50.000    23488211.440    92172701.711          50.000  
G25  21039026.040   110560767.027          50.000    21039028.320    82561610.699          50.000  
G29  23059329.660   121177567.418          50.000                                                  
E13  26051971.560   136903992.012          50.000    26051977.360   102233482.238          50.000  
E15  23100272.180   121392716.051          50.000    23100277.400    90650392.227          50.000  
E27  23703651.220   124563503.699          50.000    23703655.480    93018189.094          50.000  
E30  22963674.360   120674901.051          50.000    22963678.780    90114362.414          50.000  
> 2020  5 28 21 23 53.0000000  0 12       0.000000000000
G 2  21202719.660   111421061.227          50.000                                                  
G 5  22676031.580   119163248.512          50.000                                                  
G 6  22780470.200   119712123.184          50.000    22780473.140    89395415.305          50.000  
G12  20079832.300   105520236.773          50.000                                                  
G19  24478784.180   128636848.980          50.000                                                  
G24  23488796.220   123434376.820          50.000    23488800.180    92175012.055          50.000  
G25  21038644.180   110558760.379          50.000    21038646.480    82560112.230          50.000  
G29  23058903.340   121175327.191          50.000                                                  
E13  26051561.140   136901835.215          50.000    26051566.920   102231871.648          50.000  
E15  23100240.620   121392550.215          50.000    23100245.860    90650268.391          50.000  
E27  23703465.420   124562527.289          50.000    23703469.680    93017459.957          50.000  
E30  22964024.520   120676741.160          50.000    22964028.940    90115736.520          50.000  
> 2020  5 28 21 23 54.0000000  0 12       0.000000000000
G 2  21202994.160   111422503.762          50.000                                                  
G 5  22675483.380   119160367.676          50.000                                                  
G 6  22781041.360   119715124.637          50.000    22781044.300    89397656.648          50.000  
G12  20079787.620   105520001.992          50.000                                                  
G19  24479322.000   128639675.270          50.000                                                  
G24  23489384.980   123437470.797          50.000    23489388.940    92177322.488          50.000  
G25  21038262.400   110556754.160          50.000    21038264.700    82558614.078          50.000  
G29  23058477.080   121173087.094          50.000                                                  
E13  26051150.740   136899678.625          50.000    26051156.540   102230261.207          50.000  
E15  23100209.120   121392384.668          50.000    23100214.340    90650144.766          50.000  
E27  23703279.680   124561551.246          50.000    23703283.940    93016731.094          50.000  
E30  22964374.760   120678581.633          50.000    22964379.180    90117110.898          50.000  
> 2020  5 28 21 23 55.0000000  0 12       0.000000000000
G 2  21203268.740   111423946.668          50.000                                                  
G 5  22674935.220   119157487.148          50.000                                                  
G 6  22781612.560   119718126.324          50.000    22781615.500    89399898.164          50.000  
G12  20079743.040   105519767.742          50.000                                                  
G19  24479859.840   128642501.586          50.000                                                  
G24  23489973.780   123440564.867          50.000    23489977.740    92179632.996          50.000  
G25  21037880.720   110554748.352          50.000    21037883.000    82557116.234          50.000  
G29  23058050.820   121170847.117          50.000                                                  
E13  26050740.400   136897522.266          50.000    26050746.200   102228650.941          50.000  
E15  23100177.680   121392219.434          50.000    23100182.900    90650021.379          50.000  
E27  23703094.020   124560575.609          50.000    23703098.280    93016002.531          50.000  
E30  22964725.060   120680422.465          50.000    22964729.480    90118485.547          50.000  
> 2020  5 28 21 23 56.0000000  0 12       0.000000000000
G 2  21203543.380   111425389.934          50.000                                                  
G 5  22674387.140   119154606.922          50.000                                                  
G 6  22782183.820   119721128.227          50.000    22782186.740    89402139.844          50.000  
G12  20079698.580   105519534.035          50.000                                                  
G19  24480397.660   128645327.906          50.000                                                  
G24  23490562.580   123443659.078          50.000    23490566.540    92181943.605          50.000  
G25  21037499.100   110552742.965          50.000    21037501.400    82555618.703          50.000  
G29  23057624.580   121168607.270          50.000                                                  
E13  26050330.100   136895366.098          50.000    26050335.900   102227040.816          50.000  
E15  23100146.280   121392054.492          50.000    23100151.520    90649898.207          50.000  
E27  23702908.440   124559600.352          50.000    23702912.700    93015274.254          50.000  
E30  22965075.420   120682263.637          50.000    22965079.840    90119860.445          50.000  
> 2020  5 28 21 23 57.0000000  0 12       0.000000000000
G 2  21203818.100   111426833.578          50.000                                                  
G 5  22673839.100   119151726.992          50.000                                                  
G 6  22782755.100   119724130.359          50.000    22782758.040    89404381.695          50.000  
G12  20079654.200   105519300.867          50.000                                                  
G19  24480935.500   128648154.242          50.000                                                  
G24  23491151.420   123446753.402          50.000    23491155.380    92184254.301          50.000  
G25  21037117.560   110550737.988          50.000    21037119.860    82554121.484          50.000  
G29  23057198.380   121166367.547          50.000                                                  
E13  26049919.840   136893210.145          50.000    26049925.620   102225430.852          50.000  
E15  23100114.960   121391889.867          50.000    23100120.200    90649775.270          50.000  
E27  23702722.920   124558625.480          50.000    23702727.180    93014546.270          50.000  
E30  22965425.840   120684105.176          50.000    22965430.280    90121235.621          50.000  
> 2020  5 28 21 23 58.0000000  0 12       0.000000000000
G 2  21204092.880   111428277.590          50.000                                                  
G 5  22673291.120   119148847.340          50.000                                                  
G 6  22783326.440   119727132.719          50.000    22783329.360    89406623.715          50.000  
G12  20079609.940   105519068.242          50.000                                                  
G19  24481473.340   128650980.578          50.000                                                  
G24  23491740.260   123449847.852          50.000    23491744.220    92186565.090          50.000  
G25  21036736.100   110548733.418          50.000    21036738.400    82552624.566          50.000  
G29  23056772.200   121164127.926          50.000                                                  
E13  26049509.600   136891054.391          50.000    26049515.400   102223821.035          50.000  
E15  23100083.680   121391725.527          50.000    23100088.920    90649652.551          50.000  
E27  23702537.480   124557650.992          50.000    23702541.740    93013818.566          50.000  
E30  22965776.340   120685947.070          50.000    22965780.780    90122611.059          50.000  
> 2020  5 28 21 23 59.0000000  0 12       0.000000000000
G 2  21204367.740   111429721.980          50.000                                                  
G 5  22672743.200   119145968.000          50.000                                                  
G 6  22783897.800   119730135.305          50.000    22783900.740    89408865.902          50.000  
G12  20079565.760   105518836.148          50.000                                                  
G19  24482011.180   128653806.938          50.000                                                  
G24  23492329.140   123452942.441          50.000    23492333.120    92188875.980          50.000  
G25  21036354.740   110546729.277          50.000    21036357.020    82551127.969          50.000  
G29  23056346.040   121161888.453          50.000                                                  
E13  26049099.420   136888898.863          50.000    26049105.220   102222211.391          50.000  
E15  23100052.480   121391561.500          50.000    23100057.700    90649530.063          50.000  
E27  23702352.120   124556676.898          50.000    23702356.380    93013091.156          50.000  
E30  22966126.920   120687789.313          50.000    22966131.340    90123986.762          50.000  
> 2020  5 28 21 24  0.0000000  0 12       0.000000000000
G 2  21204642.660   111431166.730          50.000                                                  
G 5  22672195.340   119143088.961          50.000                                                  
G 6  22784469.220   119733138.121          50.000    22784472.160    89411108.266          50.000  
G12  20079521.700   105518604.590          50.000                                                  
G19  24482549.020   128656633.305          50.000                                                  
G24  23492918.060   123456037.148          50.000    23492922.020    92191186.965          50.000  
G25  21035973.440   110544725.555          50.000    21035975.740    82549631.680          50.000  
G29  23055919.900   121159649.098          50.000                                                  
E13  26048689.280   136886743.539          50.000    26048695.060   102220601.898          50.000  
E15  23100021.320   121391397.773          50.000    23100026.540    90649407.801          50.000  
E27  23702166.820   124555703.188          50.000    23702171.080    93012364.035          50.000  
E30  22966477.560   120689631.918          50.000    22966481.980    90125362.730          50.000  
> 2020  5 28 21 24  1.0000000  0 13       0.000000000000
G 2  21204917.660   111432611.887          50.000                                                  
G 5  22671647.560   119140210.113          50.000                                                  
G 6  22785040.680   119736141.172          50.000    22785043.620    89413350.824          50.000  
G12  20079477.740   105518373.598          50.000                                                  
G19  24483086.860   128659459.719          50.000                                                  
G24  23493507.020   123459131.867          50.000    23493510.980    92193497.898          50.000  
G25  21035592.220   110542722.238          50.000    21035594.520    82548135.707          50.000  
G29  23055493.800   121157409.887          50.000                                                  
E13  26048279.180   136884588.441          50.000    26048284.960   102218992.570          50.000  
E15  23099990.220   121391234.359          50.000    23099995.460    90649285.770          50.000  
E21  27705895.040   145595414.684          50.000    27705901.080   108723830.637          50.000  
E27  23701981.620   124554729.836          50.000    23701985.880    93011637.160          50.000  
E30  22966828.240   120691475.027          50.000    22966832.640    90126739.156          50.000  
> 2020  5 28 21 24  2.0000000  0 13       0.000000000000
G 2  21205192.740   111434057.387          50.000                                                  
G 5  22671099.820   119137331.664          50.000                                                  
G 6  22785612.180   119739144.430          50.000    22785615.120    89415593.516          50.000  
G12  20079433.880   105518143.105          50.000                                                  
G19  24483624.720   128662286.094          50.000                                                  
G24  23494095.960   123462226.836          50.000    23494099.940    92195809.074          50.000  
G25  21035211.080   110540719.332          50.000    21035213.380    82546640.035          50.000  
G29  23055067.700   121155170.770          50.000                                                  
E13  26047869.100   136882433.539          50.000    26047874.900   102217383.395          50.000  
E15  23099959.180   121391071.238          50.000    23099964.400    90649163.957          50.000  
E21  27705367.900   145592644.531          50.000    27705373.940   108721762.016          50.000  
E27  23701796.480   124553756.902          50.000    23701800.740    93010910.617          50.000  
E30  22967179.000   120693318.340          50.000    22967183.400    90128115.656          50.000  
> 2020  5 28 21 24  3.0000000  0 13       0.000000000000
G 2  21205467.880   111435503.250          50.000                                                  
G 5  22670552.120   119134453.512          50.000                                                  
G 6  22786183.740   119742147.914          50.000    22786186.660    89417836.379          50.000  
G12  20079390.120   105517913.160          50.000                                                  
G19  24484162.560   128665112.484          50.000                                                  
G24  23494684.940   123465321.934          50.000    23494688.920    92198120.348          50.000  
G25  21034830.020   110538716.844          50.000    21034832.320    82545144.668          50.000  
G29  23054641.640   121152931.785          50.000                                                  
E13  26047459.080   136880278.836          50.000    26047464.880   102215774.367          50.000  
E15  23099928.180   121390908.410          50.000    23099933.420    90649042.367          50.000  
E21  27704840.760   145589874.461          50.000    27704846.820   108719693.461          50.000  
E27  23701611.400   124552784.340          50.000    23701615.660    93010184.359          50.000  
E30  22967529.840   120695161.996          50.000    22967534.240    90129492.414          50.000  
> 2020  5 28 21 24  4.0000000  0 13       0.000000000000
G 2  21205743.100   111436949.488          50.000                                                  
G 5  22670004.480   119131575.660          50.000                                                  
G 6  22786755.320   119745151.625          50.000    22786758.260    89420079.406          50.000  
G12  20079346.480   105517683.746          50.000                                                  
G19  24484700.400   128667938.883          50.000                                                  
G24  23495273.960   123468417.152          50.000    23495277.940    92200431.707          50.000  
G25  21034449.040   110536714.762          50.000    21034451.340    82543649.609          50.000  
G29  23054215.600   121150692.918          50.000                                                  
E13  26047049.100   136878124.355          50.000    26047054.880   102214165.504          50.000  
E15  23099897.260   121390745.883          50.000    23099902.500    90648921.004          50.000  
E21  27704313.660   145587104.484          50.000    27704319.700   108717624.977          50.000  
E27  23701426.400   124551812.184          50.000    23701430.680    93009458.398          50.000  
E30  22967880.740   120697006.016          50.000    22967885.140    90130869.445          50.000  
> 2020  5 28 21 24  5.0000000  0 13       0.000000000000
G 2  21206018.380   111438396.098          50.000                                                  
G 5  22669456.900   119128698.109          50.000                                                  
G 6  22787326.960   119748155.563          50.000    22787329.900    89422322.605          50.000  
G12  20079302.920   105517454.879          50.000                                                  
G19  24485238.260   128670765.297          50.000                                                  
G24  23495862.980   123471512.469          50.000    23495866.960    92202743.145          50.000  
G25  21034068.140   110534713.105          50.000    21034070.440    82542154.867          50.000  
G29  23053789.580   121148454.188          50.000                                                  
E13  26046639.140   136875970.070          50.000    26046644.940   102212556.785          50.000  
E15  23099866.400   121390583.664          50.000    23099871.620    90648799.867          50.000  
E21  27703786.560   145584334.586          50.000    27703792.600   108715556.547          50.000  
E27  23701241.480   124550840.402          50.000    23701245.740    93008732.719          50.000  
E30  22968231.720   120698850.391          50.000    22968236.120    90132246.734          50.000  
> 2020  5 28 21 24  6.0000000  0 13       0.000000000000
G 2  21206293.740   111439843.082          50.000                                                  
G 5  22668909.380   119125820.863          50.000                                                  
G 6  22787898.640   119751159.727          50.000    22787901.560    89424565.973          50.000  
G12  20079259.480   105517226.551          50.000                                                  
G19  24485776.120   128673591.715          50.000                                                  
G24  23496452.020   123474607.926          50.000    23496456.000    92205054.688          50.000  
G25  21033687.320   110532711.852          50.000    21033689.620    82540660.422          50.000  
G29  23053363.600   121146215.570          50.000                                                  
E13  26046229.240   136873816.008          50.000    26046235.040   102210948.234          50.000  
E15  23099835.580   121390421.746          50.000    23099840.820    90648678.953          50.000  
E21  27703259.480   145581564.770          50.000    27703265.520   108713488.176          50.000  
E27  23701056.640   124549869.020          50.000    23701060.900    93008007.336          50.000  
E30  22968582.760   120700695.117          50.000    22968587.160    90133624.289          50.000  
> 2020  5 28 21 24  7.0000000  0 13       0.000000000000
G 2  21206569.160   111441290.438          50.000                                                  
G 5  22668361.920   119122943.914          50.000                                                  
G 6  22788470.360   119754164.117          50.000    22788473.280    89426809.512          50.000  
G12  20079216.120   105516998.754          50.000                                                  
G19  24486313.960   128676418.148          50.000                                                  
G24  23497041.100   123477703.484          50.000    23497045.080    92207366.305          50.000  
G25  21033306.580   110530711.027          50.000    21033308.880    82539166.301          50.000  
G29  23052937.620   121143977.082          50.000                                                  
E13  26045819.380   136871662.148          50.000    26045825.160   102209339.832          50.000  
E15  23099804.820   121390260.133          50.000    23099810.060    90648558.266          50.000  
E21  27702732.420   145578795.066          50.000    27702738.480   108711419.895          50.000  
E27  23700871.860   124548898.020          50.000    23700876.120    93007282.238          50.000  
E30  22968933.860   120702540.207          50.000    22968938.280    90135002.117          50.000  
> 2020  5 28 21 24  8.0000000  0 13       0.000000000000
G 2  21206844.660   111442738.172          50.000                                                  
G 5  22667814.520   119120067.258          50.000                                                  
G 6  22789042.120   119757168.727          50.000    22789045.040    89429053.211          50.000  
G12  20079172.880   105516771.508          50.000                                                  
G19  24486851.820   128679244.598          50.000                                                  
G24  23497630.180   123480799.176          50.000    23497634.160    92209678.020          50.000  
G25  21032925.920   110528710.609          50.000    21032928.200    82537672.480          50.000  
G29  23052511.680   121141738.719          50.000                                                  
E13  26045409.560   136869508.512          50.000    26045415.340   102207731.598          50.000  
E15  23099774.120   121390098.816          50.000    23099779.360    90648437.805          50.000  
E21  27702205.380   145576025.434          50.000    27702211.420   108709351.664          50.000  
E27  23700687.160   124547927.398          50.000    23700691.420    93006557.422          50.000  
E30  22969285.040   120704385.648          50.000    22969289.440    90136380.207          50.000  
> 2020  5 28 21 24  9.0000000  0 13       0.000000000000
G 2  21207120.220   111444186.262          50.000                                                  
G 5  22667267.160   119117190.910          50.000                                                  
G 6  22789613.920   119760173.563          50.000    22789616.860    89431297.082          50.000  
G12  20079129.740   105516544.785          50.000                                                  
G19  24487389.680   128682071.043          50.000                                                  
G24  23498219.300   123483894.992          50.000    23498223.280    92211989.828          50.000  
G25  21032545.340   110526710.613          50.000    21032547.620    82536178.980          50.000  
G29  23052085.760   121139500.477          50.000                                                  
E13  26044999.760   136867355.066          50.000    26045005.560   102206123.508          50.000  
E15  23099743.480   121389937.797          50.000    23099748.720    90648317.563          50.000  
E21  27701678.360   145573255.891          50.000    27701684.400   108707283.500          50.000  
E27  23700502.520   124546957.168          50.000    23700506.800    93005832.898          50.000  
E30  22969636.280   120706231.430          50.000    22969640.680    90137758.547          50.000  
> 2020  5 28 21 24 10.0000000  0 13       0.000000000000
G 2  21207395.860   111445634.730          50.000                                                  
G 5  22666719.860   119114314.855          50.000                                                  
G 6  22790185.760   119763178.625          50.000    22790188.700    89433541.121          50.000  
G12  20079086.700   105516318.605          50.000                                                  
G19  24487927.540   128684897.512          50.000                                                  
G24  23498808.440   123486990.934          50.000    23498812.420    92214301.730          50.000  
G25  21032164.820   110524711.031          50.000    21032167.120    82534685.785          50.000  
G29  23051659.860   121137262.355          50.000                                                  
E13  26044590.020   136865201.832          50.000    26044595.800   102204515.574          50.000  
E15  23099712.900   121389777.078          50.000    23099718.140    90648197.547          50.000  
E21  27701151.340   145570486.461          50.000    27701157.400   108705215.422          50.000  
E27  23700317.980   124545987.328          50.000    23700322.240    93005108.668          50.000  
E30  22969987.600   120708077.578          50.000    22969992.000    90139137.164          50.000  
> 2020  5 28 21 24 11.0000000  0 13       0.000000000000
G 2  21207671.560   111447083.563          50.000                                                  
G 5  22666172.640   119111439.105          50.000                                                  
G 6  22790757.660   119766183.906          50.000    22790760.580    89435785.324          50.000  
G12  20079043.760   105516092.957          50.000                                                  
G19  24488465.400   128687723.988          50.000                                                  
G24  23499397.620   123490087.008          50.000    23499401.600    92216613.730          50.000  
G25  21031784.400   110522711.883          50.000    21031786.680    82533192.914          50.000  
G29  23051233.980   121135024.367          50.000                                                  
E13  26044180.320   136863048.816          50.000    26044186.100   102202907.801          50.000  
E15  23099682.380   121389616.660          50.000    23099687.600    90648077.750          50.000  
E21  27700624.360   145567717.094          50.000    27700630.400   108703147.387          50.000  
E27  23700133.500   124545017.867          50.000    23700137.760    93004384.719          50.000  
E30  22970338.980   120709924.078          50.000    22970343.380    90140516.043          50.000  
> 2020  5 28 21 24 12.0000000  0 13       0.000000000000
G 2  21207947.340   111448532.766          50.000                                                  
G 5  22665625.460   119108563.664          50.000                                                  
G 6  22791329.580   119769189.422          50.000    22791332.520    89438029.699          50.000  
G12  20079000.940   105515867.859          50.000                                                  
G19  24489003.280   128690550.469          50.000                                                  
G24  23499986.800   123493183.195          50.000    23499990.780    92218925.820          50.000  
G25  21031404.060   110520713.125          50.000    21031406.340    82531700.336          50.000  
G29  23050808.140   121132786.492          50.000                                                  
E13  26043770.640   136860896.004          50.000    26043776.440   102201300.188          50.000  
E15  23099651.900   121389456.547          50.000    23099657.140    90647958.188          50.000  
E21  27700097.380   145564947.828          50.000    27700103.420   108701079.430          50.000  
E27  23699949.080   124544048.789          50.000    23699953.340    93003661.059          50.000  
E30  22970690.420   120711770.934          50.000    22970694.820    90141895.188          50.000  
> 2020  5 28 21 24 13.0000000  0 13       0.000000000000
G 2  21208223.180   111449982.344          50.000                                                  
G 5  22665078.340   119105688.516          50.000                                                  
G 6  22791901.560   119772195.148          50.000    22791904.500    89440274.238          50.000  
G12  20078958.200   105515643.289          50.000                                                  
G19  24489541.140   128693376.961          50.000                                                  
G24  23500576.020   123496279.520          50.000    23500580.000    92221238.008          50.000  
G25  21031023.780   110518714.801          50.000    21031026.080    82530208.082          50.000  
G29  23050382.300   121130548.742          50.000                                                  
E13  26043361.020   136858743.402          50.000    26043366.800   102199692.723          50.000  
E15  23099621.500   121389296.734          50.000    23099626.740    90647838.848          50.000  
E21  27699570.420   145562178.641          50.000    27699576.460   108699011.531          50.000  
E27  23699764.740   124543080.105          50.000    23699769.020    93002937.691          50.000  
E30  22971041.940   120713618.152          50.000    22971046.340    90143274.605          50.000  
> 2020  5 28 21 24 14.0000000  0 13       0.000000000000
G 2  21208499.100   111451432.289          50.000                                                  
G 5  22664531.260   119102813.664          50.000                                                  
G 6  22792473.580   119775201.113          50.000    22792476.520    89442518.949          50.000  
G12  20078915.580   105515419.266          50.000                                                  
G19  24490079.020   128696203.469          50.000                                                  
G24  23501165.240   123499375.957          50.000    23501169.240    92223550.277          50.000  
G25  21030643.600   110516716.871          50.000    21030645.880    82528716.121          50.000  
G29  23049956.500   121128311.117          50.000                                                  
E13  26042951.440   136856591.016          50.000    26042957.220   102198085.422          50.000  
E15  23099591.140   121389137.223          50.000    23099596.380    90647719.730          50.000  
E21  27699043.480   145559409.566          50.000    27699049.520   108696943.719          50.000  
E27  23699580.480   124542111.813          50.000    23699584.760    93002214.613          50.000  
E30  22971393.520   120715465.707          50.000    22971397.920    90144654.273          50.000  
> 2020  5 28 21 24 15.0000000  0 13       0.000000000000
G 2  21208775.100   111452882.609          50.000                                                  
G 5  22663984.260   119099939.109          50.000                                                  
G 6  22793045.640   119778207.293          50.000    22793048.580    89444763.820          50.000  
G12  20078873.060   105515195.785          50.000                                                  
G19  24490616.880   128699029.984          50.000                                                  
G24  23501754.500   123502472.520          50.000    23501758.500    92225862.645          50.000  
G25  21030263.480   110514719.367          50.000    21030265.780    82527224.477          50.000  
G29  23049530.720   121126073.617          50.000                                                  
E13  26042541.880   136854438.832          50.000    26042547.660   102196478.273          50.000  
E15  23099560.840   121388978.016          50.000    23099566.080    90647600.840          50.000  
E21  27698516.560   145556640.551          50.000    27698522.600   108694875.949          50.000  
E27  23699396.300   124541143.902          50.000    23699400.560    93001491.824          50.000  
E30  22971745.160   120717313.625          50.000    22971749.560    90146034.211          50.000  
> 2020  5 28 21 24 16.0000000  0 13       0.000000000000
G 2  21209051.140   111454333.297          50.000                                                  
G 5  22663437.320   119097064.867          50.000                                                  
G 6  22793617.740   119781213.703          50.000    22793620.680    89447008.867          50.000  
G12  20078830.620   105514972.832          50.000                                                  
G19  24491154.760   128701856.508          50.000                                                  
G24  23502343.800   123505569.211          50.000    23502347.780    92228175.109          50.000  
G25  21029883.460   110512722.277          50.000    21029885.740    82525733.145          50.000  
G29  23049104.960   121123836.246          50.000                                                  
E13  26042132.380   136852286.863          50.000    26042138.160   102194871.285          50.000  
E15  23099530.600   121388819.105          50.000    23099535.840    90647482.176          50.000  
E21  27697989.640   145553871.652          50.000    27697995.700   108692808.266          50.000  
E27  23699212.180   124540176.379          50.000    23699216.460    93000769.324          50.000  
E30  22972096.880   120719161.891          50.000    22972101.280    90147414.410          50.000  
> 2020  5 28 21 24 17.0000000  0 13       0.000000000000
G 2  21209327.280   111455784.352          50.000                                                  
G 5  22662890.420   119094190.918          50.000                                                  
G 6  22794189.900   119784220.344          50.000    22794192.820    89449254.086          50.000  
G12  20078788.300   105514750.426          50.000                                                  
G19  24491692.640   128704683.047          50.000                                                  
G24  23502933.100   123508666.008          50.000    23502937.080    92230487.648          50.000  
G25  21029503.500   110510725.609          50.000    21029505.780    82524242.129          50.000  
G29  23048679.220   121121598.996          50.000                                                  
E13  26041722.920   136850135.102          50.000    26041728.700   102193264.453          50.000  
E15  23099500.420   121388660.500          50.000    23099505.660    90647363.734          50.000  
E21  27697462.760   145551102.824          50.000    27697468.800   108690740.633          50.000  
E27  23699028.140   124539209.242          50.000    23699032.420    93000047.113          50.000  
E30  22972448.660   120721010.523          50.000    22972453.060    90148794.879          50.000  
> 2020  5 28 21 24 18.0000000  0 13       0.000000000000
G 2  21209603.480   111457235.785          50.000                                                  
G 5  22662343.580   119091317.262          50.000                                                  
G 6  22794762.080   119787227.199          50.000    22794765.020    89451499.461          50.000  
G12  20078746.080   105514528.555          50.000                                                  
G19  24492230.500   128707509.590          50.000                                                  
G24  23503522.420   123511762.902          50.000    23503526.400    92232800.266          50.000  
G25  21029123.620   110508729.371          50.000    21029125.920    82522751.430          50.000  
G29  23048253.520   121119361.871          50.000                                                  
E13  26041313.480   136847983.551          50.000    26041319.260   102191657.773          50.000  
E15  23099470.300   121388502.191          50.000    23099475.540    90647245.520          50.000  
E21  27696935.880   145548334.090          50.000    27696941.920   108688673.074          50.000  
E27  23698844.180   124538242.500          50.000    23698848.440    92999325.191          50.000  
E30  22972800.500   120722859.500          50.000    22972804.920    90150175.605          50.000  
> 2020  5 28 21 24 19.0000000  0 13       0.000000000000
G 2  21209879.760   111458687.590          50.000                                                  
G 5  22661796.800   119088443.910          50.000                                                  
G 6  22795334.320   119790234.285          50.000    22795337.240    89453745.012          50.000  
G12  20078703.980   105514307.227          50.000                                                  
G19  24492768.380   128710336.148          50.000                                                  
G24  23504111.760   123514859.926          50.000    23504115.760    92235112.977          50.000  
G25  21028743.840   110506733.555          50.000    21028746.120    82521261.051          50.000  
G29  23047827.840   121117124.867          50.000                                                  
E13  26040904.100   136845832.207          50.000    26040909.880   102190051.254          50.000  
E15  23099440.240   121388344.191          50.000    23099445.460    90647127.531          50.000  
E21  27696409.020   145545565.453          50.000    27696415.080   108686605.586          50.000  
E27  23698660.300   124537276.141          50.000    23698664.560    92998603.563          50.000  
E30  22973152.420   120724708.836          50.000    22973156.820    90151556.605          50.000  
> 2020  5 28 21 24 20.0000000  0 13       0.000000000000
G 2  21210156.100   111460139.758          50.000                                                  
G 5  22661250.080   119085570.867          50.000                                                  
G 6  22795906.580   119793241.594          50.000    22795909.520    89455990.727          50.000  
G12  20078661.960   105514086.438          50.000                                                  
G19  24493306.260   128713162.719          50.000                                                  
G24  23504701.140   123517957.109          50.000    23504705.120    92237425.805          50.000  
G25  21028364.120   110504738.137          50.000    21028366.420    82519770.965          50.000  
G29  23047402.180   121114887.996          50.000                                                  
E13  26040494.760   136843681.086          50.000    26040500.540   102188444.898          50.000  
E15  23099410.220   121388186.488          50.000    23099415.460    90647009.766          50.000  
E21  27695882.200   145542796.914          50.000    27695888.240   108684538.172          50.000  
E27  23698476.480   124536310.168          50.000    23698480.740    92997882.219          50.000  
E30  22973504.400   120726558.531          50.000    22973508.820    90152937.867          50.000  
> 2020  5 28 21 24 21.0000000  0 13       0.000000000000
G 2  21210432.500   111461592.293          50.000                                                  
G 5  22660703.420   119082698.117          50.000                                                  
G 6  22796478.900   119796249.133          50.000    22796481.840    89458236.613          50.000  
G12  20078620.040   105513866.184          50.000                                                  
G19  24493844.160   128715989.305          50.000                                                  
G24  23505290.540   123521054.430          50.000    23505294.540    92239738.738          50.000  
G25  21027984.500   110502743.137          50.000    21027986.780    82518281.191          50.000  
G29  23046976.540   121112651.242          50.000                                                  
E13  26040085.440   136841530.160          50.000    26040091.220   102186838.688          50.000  
E15  23099380.280   121388029.090          50.000    23099385.500    90646892.227          50.000  
E21  27695355.380   145540028.453          50.000    27695361.420   108682470.816          50.000  
E27  23698292.720   124535344.594          50.000    23698297.000    92997161.172          50.000  
E30  22973856.460   120728408.578          50.000    22973860.860    90154319.398          50.000  
> 2020  5 28 21 24 22.0000000  0 13       0.000000000000
G 2  21210708.980   111463045.188          50.000                                                  
G 5  22660156.800   119079825.676          50.000                                                  
G 6  22797051.260   119799256.883          50.000    22797054.200    89460482.660          50.000  
G12  20078578.240   105513646.473          50.000                                                  
G19  24494382.040   128718815.895          50.000                                                  
G24  23505879.980   123524151.887          50.000    23505883.960    92242051.773          50.000  
G25  21027604.940   110500748.555          50.000    21027607.220    82516791.734          50.000  
G29  23046550.920   121110414.609          50.000                                                  
E13  26039676.180   136839379.449          50.000    26039681.960   102185232.641          50.000  
E15  23099350.380   121387871.988          50.000    23099355.620    90646774.914          50.000  
E21  27694828.560   145537260.078          50.000    27694834.600   108680403.523          50.000  
E27  23698109.060   124534379.391          50.000    23698113.320    92996440.406          50.000  
E30  22974208.580   120730258.973          50.000    22974212.980    90155701.184          50.000  
> 2020  5 28 21 24 23.0000000  0 13       0.000000000000
G 2  21210985.520   111464498.449          50.000                                                  
G 5  22659610.260   119076953.527          50.000                                                  
G 6  22797623.660   119802264.867          50.000    22797626.600    89462728.883          50.000  
G12  20078536.540   105513427.297          50.000                                                  
G19  24494919.920   128721642.492          50.000                                                  
G24  23506469.420   123527249.430          50.000    23506473.400    92244364.871          50.000  
G25  21027225.460   110498754.402          50.000    21027227.760    82515302.594          50.000  
G29  23046125.320   121108178.102          50.000                                                  
E13  26039266.940   136837228.949          50.000    26039272.720   102183626.746          50.000  
E15  23099320.540   121387715.191          50.000    23099325.780    90646657.824          50.000  
E21  27694301.780   145534491.793          50.000    27694307.820   108678336.301          50.000  
E27  23697925.460   124533414.578          50.000    23697929.720    92995719.930          50.000  
E30  22974560.760   120732109.723          50.000    22974565.180    90157083.238          50.000  
> 2020  5 28 21 24 24.0000000  0 13       0.000000000000
G 2  21211262.160   111465952.094          50.000                                                  
G 5  22659063.760   119074081.691          50.000                                                  
G 6  22798196.120   119805273.074          50.000    22798199.060    89464975.270          50.000  
G12  20078494.940   105513208.660          50.000                                                  
G19  24495457.820   128724469.105          50.000                                                  
G24  23507058.880   123530347.070          50.000    23507062.880    92246678.043          50.000  
G25  21026846.060   110496760.648          50.000    21026848.360    82513813.750          50.000  
G29  23045699.760   121105941.723          50.000                                                  
E13  26038857.760   136835078.660          50.000    26038863.540   102182021.012          50.000  
E15  23099290.760   121387558.688          50.000    23099296.000    90646540.957          50.000  
E21  27693775.020   145531723.609          50.000    27693781.060   108676269.152          50.000  
E27  23697741.940   124532450.156          50.000    23697746.200    92994999.742          50.000  
E30  22974913.020   120733960.832          50.000    22974917.420    90158465.559          50.000  
> 2020  5 28 21 24 25.0000000  0 13       0.000000000000
G 2  21211538.840   111467406.105          50.000                                                  
G 5  22658517.340   119071210.160          50.000                                                  
G 6  22798768.600   119808281.504          50.000    22798771.540    89467221.820          50.000  
G12  20078453.440   105512990.570          50.000                                                  
G19  24495995.700   128727295.734          50.000                                                  
G24  23507648.380   123533444.852          50.000    23507652.360    92248991.320          50.000  
G25  21026466.760   110494767.324          50.000    21026469.040    82512325.230          50.000  
G29  23045274.220   121103705.469          50.000                                                  
E13  26038448.620   136832928.578          50.000    26038454.400   102180415.430          50.000  
E15  23099261.040   121387402.496          50.000    23099266.260    90646424.316          50.000  
E21  27693248.260   145528955.508          50.000    27693254.300   108674202.063          50.000  
E27  23697558.480   124531486.125          50.000    23697562.760    92994279.848          50.000  
E30  22975265.340   120735812.289          50.000    22975269.760    90159848.137          50.000  
> 2020  5 28 21 24 26.0000000  0 13       0.000000000000
G 2  21211815.600   111468860.480          50.000                                                  
G 5  22657970.960   119068338.922          50.000                                                  
G 6  22799341.140   119811290.152          50.000    22799344.060    89469468.539          50.000  
G12  20078412.040   105512773.012          50.000                                                  
G19  24496533.600   128730122.371          50.000                                                  
G24  23508237.900   123536542.754          50.000    23508241.880    92251304.684          50.000  
G25  21026087.520   110492774.395          50.000    21026089.800    82510837.004          50.000  
G29  23044848.700   121101469.332          50.000                                                  
E13  26038039.500   136830778.707          50.000    26038045.280   102178810.008          50.000  
E15  23099231.360   121387246.598          50.000    23099236.600    90646307.898          50.000  
E21  27692721.520   145526187.500          50.000    27692727.560   108672135.043          50.000  
E27  23697375.120   124530522.477          50.000    23697379.380    92993560.242          50.000  
E30  22975617.740   120737664.098          50.000    22975622.140    90161230.984          50.000  
> 2020  5 28 21 24 27.0000000  0 13       0.000000000000
G 2  21212092.440   111470315.223          50.000                                                  
G 5  22657424.640   119065467.988          50.000                                                  
G 6  22799913.700   119814299.031          50.000    22799916.640    89471715.426          50.000  
G12  20078370.740   105512555.988          50.000                                                  
G19  24497071.500   128732949.020          50.000                                                  
G24  23508827.420   123539640.773          50.000    23508831.420    92253618.141          50.000  
G25  21025708.360   110490781.891          50.000    21025710.640    82509349.094          50.000  
G29  23044423.200   121099233.324          50.000                                                  
E13  26037630.440   136828629.039          50.000    26037636.220   102177204.738          50.000  
E15  23099201.760   121387090.992          50.000    23099207.000    90646191.699          50.000  
E21  27692194.800   145523419.574          50.000    27692200.840   108670068.090          50.000  
E27  23697191.800   124529559.219          50.000    23697196.080    92992840.926          50.000  
E30  22975970.180   120739516.270          50.000    22975974.600    90162614.098          50.000  
> 2020  5 28 21 24 28.0000000  0 13       0.000000000000
G 2  21212369.340   111471770.340          50.000                                                  
G 5  22656878.380   119062597.348          50.000                                                  
G 6  22800486.320   119817308.125          50.000    22800489.260    89473962.477          50.000  
G12  20078329.540   105512339.516          50.000                                                  
G19  24497609.400   128735775.672          50.000                                                  
G24  23509417.000   123542738.930          50.000    23509420.980    92255931.695          50.000  
G25  21025329.280   110488789.809          50.000    21025331.560    82507861.504          50.000  
G29  23043997.720   121096997.438          50.000                                                  
E13  26037221.400   136826479.590          50.000    26037227.180   102175599.633          50.000  
E15  23099172.200   121386935.699          50.000    23099177.440    90646075.738          50.000  
E21  27691668.100   145520651.742          50.000    27691674.140   108668001.203          50.000  
E27  23697008.580   124528596.336          50.000    23697012.840    92992121.891          50.000  
E30  22976322.720   120741368.789          50.000    22976327.120    90163997.473          50.000  
> 2020  5 28 21 24 29.0000000  0 13       0.000000000000
G 2  21212646.300   111473225.824          50.000                                                  
G 5  22656332.160   119059727.012          50.000                                                  
G 6  22801058.980   119820317.445          50.000    22801061.920    89476209.695          50.000  
G12  20078288.460   105512123.582          50.000                                                  
G19  24498147.300   128738602.336          50.000                                                  
G24  23510006.560   123545837.160          50.000    23510010.560    92258245.305          50.000  
G25  21024950.280   110486798.141          50.000    21024952.560    82506374.219          50.000  
G29  23043572.280   121094761.688          50.000                                                  
E13  26036812.420   136824330.348          50.000    26036818.200   102173994.680          50.000  
E15  23099142.720   121386780.703          50.000    23099147.940    90645959.992          50.000  
E21  27691141.420   145517884.008          50.000    27691147.460   108665934.391          50.000  
E27  23696825.420   124527633.855          50.000    23696829.680    92991403.152          50.000  
E30  22976675.300   120743221.664          50.000    22976679.720    90165381.113          50.000  
> 2020  5 28 21 24 30.0000000  0 13       0.000000000000
G 2  21212923.340   111474681.680          50.000                                                  
G 5  22655786.020   119056856.988          50.000                                                  
G 6  22801631.680   119823326.992          50.000    22801634.620    89478457.082          50.000  
G12  20078247.480   105511908.176          50.000                                                  
G19  24498685.200   128741429.004          50.000                                                  
G24  23510596.160   123548935.520          50.000    23510600.160    92260559.016          50.000  
G25  21024571.360   110484806.902          50.000    21024573.640    82504887.254          50.000  
G29  23043146.840   121092526.043          50.000                                                  
E13  26036403.480   136822181.320          50.000    26036409.260   102172389.887          50.000  
E15  23099113.280   121386626.008          50.000    23099118.500    90645844.473          50.000  
E21  27690614.760   145515116.363          50.000    27690620.800   108663867.641          50.000  
E27  23696642.340   124526671.754          50.000    23696646.600    92990684.703          50.000  
E30  22977027.960   120745074.895          50.000    22977032.360    90166765.016          50.000  
> 2020  5 28 21 24 31.0000000  0 13       0.000000000000
G 2  21213200.460   111476137.906          50.000                                                  
G 5  22655239.940   119053987.266          50.000                                                  
G 6  22802204.420   119826336.762          50.000    22802207.360    89480704.637          50.000  
G12  20078206.580   105511693.328          50.000                                                  
G19  24499223.100   128744255.688          50.000                                                  
G24  23511185.800   123552034.027          50.000    23511189.800    92262872.832          50.000  
G25  21024192.520   110482816.086          50.000    21024194.800    82503400.605          50.000  
G29  23042721.440   121090290.531          50.000                                                  
E13  26035994.560   136820032.492          50.000    26036000.340   102170785.246          50.000  
E15  23099083.900   121386471.617          50.000    23099089.120    90645729.180          50.000  
E21  27690088.100   145512348.801          50.000    27690094.140   108661800.957          50.000  
E27  23696459.340   124525710.047          50.000    23696463.600    92989966.543          50.000  
E30  22977380.680   120746928.480          50.000    22977385.100    90168149.188          50.000  
> 2020  5 28 21 24 32.0000000  0 13       0.000000000000
G 2  21213477.640   111477594.496          50.000                                                  
G 5  22654693.900   119051117.836          50.000                                                  
G 6  22802777.200   119829346.758          50.000    22802780.140    89482952.359          50.000  
G12  20078165.800   105511479.012          50.000                                                  
G19  24499761.000   128747082.387          50.000                                                  
G24  23511775.440   123555132.641          50.000    23511779.440    92265186.734          50.000  
G25  21023813.760   110480825.676          50.000    21023816.040    82501914.262          50.000  
G29  23042296.060   121088055.148          50.000                                                  
E13  26035585.700   136817883.891          50.000    26035591.480   102169180.770          50.000  
E15  23099054.580   121386317.520          50.000    23099059.800    90645614.105          50.000  
E21  27689561.480   145509581.348          50.000    27689567.520   108659734.355          50.000  
E27  23696276.400   124524748.727          50.000    23696280.660    92989248.676          50.000  
E30  22977733.480   120748782.422          50.000    22977737.880    90169533.621          50.000  
> 2020  5 28 21 24 33.0000000  0 13       0.000000000000
G 2  21213754.900   111479051.457          50.000                                                  
G 5  22654147.920   119048248.715          50.000                                                  
G 6  22803350.040   119832356.965          50.000    22803352.980    89485200.238          50.000  
G12  20078125.140   105511265.230          50.000                                                  
G19  24500298.920   128749909.094          50.000                                                  
G24  23512365.120   123558231.410          50.000    23512369.120    92267500.746          50.000  
G25  21023435.080   110478835.684          50.000    21023437.360    82500428.227          50.000  
G29  23041870.700   121085819.879          50.000                                                  
E13  26035176.860   136815735.484          50.000    26035182.640   102167576.441          50.000  
E15  23099025.300   121386163.723          50.000    23099030.540    90645499.258          50.000  
E21  27689034.860   145506813.977          50.000    27689040.900   108657667.813          50.000  
E27  23696093.540   124523787.797          50.000    23696097.800    92988531.098          50.000  
E30  22978086.340   120750636.711          50.000    22978090.740    90170918.316          50.000  
> 2020  5 28 21 24 34.0000000  0 13       0.000000000000
G 2  21214032.220   111480508.777          50.000                                                  
G 5  22653602.000   119045379.898          50.000                                                  
G 6  22803922.900   119835367.402          50.000    22803925.840    89487448.293          50.000  
G12  20078084.560   105511051.984          50.000                                                  
G19  24500836.820   128752735.816          50.000                                                  
G24  23512954.840   123561330.320          50.000    23512958.820    92269814.867          50.000  
G25  21023056.480   110476846.121          50.000    21023058.760    82498942.516          50.000  
G29  23041445.380   121083584.734          50.000                                                  
E13  26034768.080   136813587.285          50.000    26034773.860   102165972.270          50.000  
E15  23098996.100   121386010.227          50.000    23099001.320    90645384.637          50.000  
E21  27688508.260   145504046.691          50.000    27688514.300   108655601.332          50.000  
E27  23695910.760   124522827.250          50.000    23695915.020    92987813.809          50.000  
E30  22978439.260   120752491.348          50.000    22978443.680    90172303.273          50.000  
> 2020  5 28 21 24 35.0000000  0 13       0.000000000000
G 2  21214309.620   111481966.477          50.000                                                  
G 5  22653056.160   119042511.398          50.000                                                  
G 6  22804495.820   119838378.059          50.000    22804498.760    89489696.508          50.000  
G12  20078044.080   105510839.285          50.000                                                  
G19  24501374.740   128755562.555          50.000                                                  
G24  23513544.560   123564429.336          50.000    23513548.560    92272129.066          50.000  
G25  21022677.960   110474856.969          50.000    21022680.240    82497457.109          50.000  
G29  23041020.060   121081349.711          50.000                                                  
E13  26034359.340   136811439.309          50.000    26034365.120   102164368.262          50.000  
E15  23098966.940   121385857.035          50.000    23098972.180    90645270.238          50.000  
E21  27687981.680   145501279.496          50.000    27687987.720   108653534.922          50.000  
E27  23695728.040   124521867.094          50.000    23695732.320    92987096.805          50.000  
E30  22978792.260   120754346.352          50.000    22978796.680    90173688.504          50.000  
> 2020  5 28 21 24 36.0000000  0 13       0.000000000000
G 2  21214587.080   111483424.543          50.000                                                  
G 5  22652510.360   119039643.203          50.000                                                  
G 6  22805068.760   119841388.941          50.000    22805071.720    89491944.895          50.000  
G12  20078003.700   105510627.117          50.000                                                  
G19  24501912.660   128758389.281          50.000                                                  
G24  23514134.320   123567528.480          50.000    23514138.300    92274443.359          50.000  
G25  21022299.520   110472868.234          50.000    21022301.800    82495972.020          50.000  
G29  23040594.780   121079114.820          50.000                                                  
E13  26033950.620   136809291.543          50.000    26033956.400   102162764.410          50.000  
E15  23098937.860   121385704.145          50.000    23098943.080    90645156.066          50.000  
E21  27687455.120   145498512.387          50.000    27687461.160   108651468.578          50.000  
E27  23695545.400   124520907.328          50.000    23695549.680    92986380.098          50.000  
E30  22979145.320   120756201.699          50.000    22979149.740    90175073.988          50.000  
> 2020  5 28 21 24 37.0000000  0 13       0.000000000000
G 2  21214864.600   111484882.980          50.000                                                  
G 5  22651964.620   119036775.305          50.000                                                  
G 6  22805641.760   119844400.051          50.000    22805644.700    89494193.449          50.000  
G12  20077963.440   105510415.500          50.000                                                  
G19  24502450.560   128761216.035          50.000                                                  
G24  23514724.080   123570627.746          50.000    23514728.080    92276757.746          50.000  
G25  21021921.160   110470879.934          50.000    21021923.440    82494487.246          50.000  
G29  23040169.520   121076880.035          50.000                                                  
E13  26033541.960   136807143.973          50.000    26033547.740   102161160.707          50.000  
E15  23098908.820   121385551.559          50.000    23098914.040    90645042.125          50.000  
E21  27686928.580   145495745.387          50.000    27686934.620   108649402.309          50.000  
E27  23695362.840   124519947.953          50.000    23695367.120    92985663.680          50.000  
E30  22979498.460   120758057.410          50.000    22979502.860    90176459.746          50.000  
> 2020  5 28 21 24 38.0000000  0 13       0.000000000000
G 2  21215142.220   111486341.777          50.000                                                  
G 5  22651418.920   119033907.707          50.000                                                  
G 6  22806214.800   119847411.375          50.000    22806217.740    89496442.164          50.000  
G12  20077923.280   105510204.422          50.000                                                  
G19  24502988.480   128764042.797          50.000                                                  
G24  23515313.880   123573727.125          50.000    23515317.880    92279072.215          50.000  
G25  21021542.860   110468892.016          50.000    21021545.160    82493002.766          50.000  
G29  23039744.280   121074645.391          50.000                                                  
E13  26033133.320   136804996.621          50.000    26033139.100   102159557.164          50.000  
E15  23098879.840   121385399.270          50.000    23098885.060    90644928.402          50.000  
E21  27686402.040   145492978.445          50.000    27686408.080   108647336.090          50.000  
E27  23695180.360   124518988.961          50.000    23695184.620    92984947.551          50.000  
E30  22979851.660   120759913.465          50.000    22979856.060    90177845.758          50.000  
> 2020  5 28 21 24 39.0000000  0 13       0.000000000000
G 2  21215419.880   111487800.949          50.000                                                  
G 5  22650873.300   119031040.418          50.000                                                  
G 6  22806787.880   119850422.926          50.000    22806790.820    89498691.051          50.000  
G12  20077883.220   105509993.871          50.000                                                  
G19  24503526.400   128766869.563          50.000                                                  
G24  23515903.700   123576826.594          50.000    23515907.680    92281386.750          50.000  
G25  21021164.660   110466904.547          50.000    21021166.960    82491518.613          50.000  
G29  23039319.060   121072410.859          50.000                                                  
E13  26032724.740   136802849.480          50.000    26032730.520   102157953.785          50.000  
E15  23098850.920   121385247.285          50.000    23098856.140    90644814.906          50.000  
E21  27685875.520   145490211.613          50.000    27685881.560   108645269.949          50.000  
E27  23694997.940   124518030.355          50.000    23695002.200    92984231.711          50.000  
E30  22980204.920   120761769.887          50.000    22980209.320    90179232.047          50.000  
> 2020  5 28 21 24 40.0000000  0 13       0.000000000000
G 2  21215697.620   111489260.488          50.000                                                  
G 5  22650327.740   119028173.441          50.000                                                  
G 6  22807361.020   119853434.703          50.000    22807363.960    89500940.102          50.000  
G12  20077843.260   105509783.871          50.000                                                  
G19  24504064.320   128769696.340          50.000                                                  
G24  23516493.540   123579926.203          50.000    23516497.520    92283701.391          50.000  
G25  21020786.540   110464917.484          50.000    21020788.840    82490034.770          50.000  
G29  23038893.880   121070176.457          50.000                                                  
E13  26032316.200   136800702.543          50.000    26032321.960   102156350.551          50.000  
E15  23098822.040   121385095.594          50.000    23098827.280    90644701.629          50.000  
E21  27685349.040   145487444.879          50.000    27685355.080   108643203.883          50.000  
E27  23694815.600   124517072.145          50.000    23694819.860    92983516.160          50.000  
E30  22980558.240   120763626.645          50.000    22980562.660    90180618.586          50.000  
> 2020  5 28 21 24 41.0000000  0 13       0.000000000000
G 2  21215975.440   111490720.395          50.000                                                  
G 5  22649782.220   119025306.770          50.000                                                  
G 6  22807934.180   119856446.699          50.000    22807937.120    89503189.320          50.000  
G12  20077803.400   105509574.410          50.000                                                  
G19  24504602.240   128772523.129          50.000                                                  
G24  23517083.400   123583025.926          50.000    23517087.380    92286016.117          50.000  
G25  21020408.500   110462930.836          50.000    21020410.780    82488551.234          50.000  
G29  23038468.700   121067942.184          50.000                                                  
E13  26031907.680   136798555.824          50.000    26031913.460   102154747.480          50.000  
E15  23098793.240   121384944.203          50.000    23098798.480    90644588.578          50.000  
E21  27684822.560   145484678.227          50.000    27684828.600   108641137.875          50.000  
E27  23694633.320   124516114.313          50.000    23694637.600    92982800.898          50.000  
E30  22980911.640   120765483.770          50.000    22980916.060    90182005.402          50.000  
> 2020  5 28 21 24 42.0000000  0 13       0.000000000000
G 2  21216253.320   111492180.672          50.000                                                  
G 5  22649236.780   119022440.398          50.000                                                  
G 6  22808507.380   119859458.918          50.000    22808510.340    89505438.699          50.000  
G12  20077763.640   105509365.488          50.000                                                  
G19  24505140.180   128775349.934          50.000                                                  
G24  23517673.280   123586125.777          50.000    23517677.280    92288330.938          50.000  
G25  21020030.540   110460944.621          50.000    21020032.820    82487068.020          50.000  
G29  23038043.560   121065708.035          50.000                                                  
E13  26031499.220   136796409.313          50.000    26031505.000   102153144.570          50.000  
E15  23098764.480   121384793.113          50.000    23098769.720    90644475.750          50.000  
E21  27684296.100   145481911.676          50.000    27684302.140   108639071.949          50.000  
E27  23694451.140   124515156.875          50.000    23694455.400    92982085.930          50.000  
E30  22981265.120   120767341.246          50.000    22981269.520    90183392.477          50.000  
> 2020  5 28 21 24 43.0000000  0 13       0.000000000000
G 2  21216531.280   111493641.316          50.000                                                  
G 5  22648691.380   119019574.336          50.000                                                  
G 6  22809080.640   119862471.359          50.000    22809083.580    89507688.250          50.000  
G12  20077723.980   105509157.102          50.000                                                  
G19  24505678.100   128778176.746          50.000                                                  
G24  23518263.180   123589225.754          50.000    23518267.180    92290645.855          50.000  
G25  21019652.660   110458958.809          50.000    21019654.940    82485585.109          50.000  
G29  23037618.440   121063474.008          50.000                                                  
E13  26031090.780   136794263.004          50.000    26031096.560   102151541.809          50.000  
E15  23098735.800   121384642.336          50.000    23098741.020    90644363.156          50.000  
E21  27683769.660   145479145.215          50.000    27683775.700   108637006.086          50.000  
E27  23694269.020   124514199.828          50.000    23694273.280    92981371.250          50.000  
E30  22981618.640   120769199.070          50.000    22981623.060    90184779.813          50.000  
> 2020  5 28 21 24 44.0000000  0 13       0.000000000000
G 2  21216809.300   111495102.324          50.000                                                  
G 5  22648146.060   119016708.586          50.000                                                  
G 6  22809653.940   119865484.016          50.000    22809656.880    89509937.961          50.000  
G12  20077684.440   105508949.250          50.000                                                  
G19  24506216.040   128781003.574          50.000                                                  
G24  23518853.120   123592325.844          50.000    23518857.120    92292960.859          50.000  
G25  21019274.840   110456973.414          50.000    21019277.140    82484102.512          50.000  
G29  23037193.340   121061240.102          50.000                                                  
E13  26030682.400   136792116.914          50.000    26030688.180   102149939.211          50.000  
E15  23098707.160   121384491.840          50.000    23098712.400    90644250.773          50.000  
E21  27683243.240   145476378.836          50.000    27683249.280   108634940.281          50.000  
E27  23694086.960   124513243.168          50.000    23694091.240    92980656.859          50.000  
E30  22981972.240   120771057.250          50.000    22981976.660    90186167.414          50.000  
> 2020  5 28 21 24 45.0000000  0 13       0.000000000000
G 2  21217087.400   111496563.699          50.000                                                  
G 5  22647600.780   119013843.133          50.000                                                  
G 6  22810227.260   119868496.895          50.000    22810230.220    89512187.836          50.000  
G12  20077644.980   105508741.941          50.000                                                  
G19  24506753.960   128783830.398          50.000                                                  
G24  23519443.080   123595426.055          50.000    23519447.060    92295275.949          50.000  
G25  21018897.120   110454988.449          50.000    21018899.400    82482620.230          50.000  
G29  23036768.280   121059006.324          50.000                                                  
E13  26030274.040   136789971.027          50.000    26030279.820   102148336.762          50.000  
E15  23098678.580   121384341.648          50.000    23098683.820    90644138.617          50.000  
E21  27682716.820   145473612.547          50.000    27682722.860   108632874.551          50.000  
E27  23693905.000   124512286.883          50.000    23693909.260    92979942.754          50.000  
E30  22982325.920   120772915.773          50.000    22982330.320    90187555.273          50.000  
> 2020  5 28 21 24 46.0000000  0 13       0.000000000000
G 2  21217365.560   111498025.445          50.000                                                  
G 5  22647055.560   119010977.996          50.000                                                  
G 6  22810800.640   119871510.004          50.000    22810803.580    89514437.883          50.000  
G12  20077605.640   105508535.176          50.000                                                  
G19  24507291.900   128786657.246          50.000                                                  
G24  23520033.040   123598526.387          50.000    23520037.040    92297591.129          50.000  
G25  21018519.480   110453003.918          50.000    21018521.760    82481138.277          50.000  
G29  23036343.220   121056772.676          50.000                                                  
E13  26029865.740   136787825.359          50.000    26029871.520   102146734.477          50.000  
E15  23098650.060   121384191.766          50.000    23098655.280    90644026.691          50.000  
E21  27682190.440   145470846.355          50.000    27682196.480   108630808.887          50.000  
E27  23693723.100   124511331.008          50.000    23693727.360    92979228.949          50.000  
E30  22982679.640   120774774.672          50.000    22982684.060    90188943.410          50.000  
> 2020  5 28 21 24 47.0000000  0 13       0.000000000000
G 2  21217643.780   111499487.559          50.000                                                  
G 5  22646510.400   119008113.148          50.000                                                  
G 6  22811374.060   119874523.328          50.000    22811377.000    89516688.094          50.000  
G12  20077566.400   105508328.949          50.000                                                  
G19  24507829.840   128789484.105          50.000                                                  
G24  23520623.040   123601626.852          50.000    23520627.040    92299906.410          50.000  
G25  21018141.900   110451019.770          50.000    21018144.200    82479656.605          50.000  
G29  23035918.200   121054539.137          50.000                                                  
E13  26029457.480   136785679.898          50.000    26029463.240   102145132.348          50.000  
E15  23098621.580   121384042.176          50.000    23098626.820    90643914.984          50.000  
E21  27681664.060   145468080.250          50.000    27681670.100   108628743.293          50.000  
E27  23693541.260   124510375.504          50.000    23693545.540    92978515.422          50.000  
E30  22983033.460   120776633.910          50.000    22983037.860    90190331.801          50.000  
> 2020  5 28 21 24 48.0000000  0 13       0.000000000000
G 2  21217922.100   111500950.043          50.000                                                  
G 5  22645965.300   119005248.613          50.000                                                  
G 6  22811947.520   119877536.879          50.000    22811950.480    89518938.469          50.000  
G12  20077527.260   105508123.266          50.000                                                  
G19  24508367.780   128792310.965          50.000                                                  
G24  23521213.080   123604727.426          50.000    23521217.080    92302221.773          50.000  
G25  21017764.420   110449036.051          50.000    21017766.700    82478175.262          50.000  
G29  23035493.200   121052305.738          50.000                                                  
E13  26029049.240   136783534.637          50.000    26029055.020   102143530.371          50.000  
E15  23098593.180   121383892.891          50.000    23098598.420    90643803.508          50.000  
E21  27681137.720   145465314.246          50.000    27681143.740   108626677.770          50.000  
E27  23693359.520   124509420.395          50.000    23693363.780    92977802.195          50.000  
E30  22983387.320   120778493.508          50.000    22983391.740    90191720.461          50.000  
> 2020  5 28 21 24 49.0000000  0 13       0.000000000000
G 2  21218200.460   111502412.902          50.000                                                  
G 5  22645420.260   119002384.379          50.000                                                  
G 6  22812521.040   119880550.652          50.000    22812523.980    89521189.012          50.000  
G12  20077488.220   105507918.117          50.000                                                  
G19  24508905.720   128795137.840          50.000                                                  
G24  23521803.120   123607828.109          50.000    23521807.120    92304537.215          50.000  
G25  21017387.020   110447052.770          50.000    21017389.300    82476694.238          50.000  
G29  23035068.220   121050072.457          50.000                                                  
E13  26028641.060   136781389.605          50.000    26028646.840   102141928.563          50.000  
E15  23098564.820   121383743.902          50.000    23098570.060    90643692.250          50.000  
E21  27680611.380   145462548.336          50.000    27680617.420   108624612.316          50.000  
E27  23693177.840   124508465.684          50.000    23693182.100    92977089.258          50.000  
E30  22983741.260   120780353.465          50.000    22983745.680    90193109.387          50.000  
> 2020  5 28 21 24 50.0000000  0 13       0.000000000000
G 2  21218478.920   111503876.117          50.000                                                  
G 5  22644875.260   118999520.445          50.000                                                  
G 6  22813094.580   119883564.645          50.000    22813097.520    89523439.719          50.000  
G12  20077449.300   105507713.512          50.000                                                  
G19  24509443.660   128797964.730          50.000                                                  
G24  23522393.180   123610928.891          50.000    23522397.180    92306852.730          50.000  
G25  21017009.700   110445069.895          50.000    21017011.980    82475213.520          50.000  
G29  23034643.260   121047839.293          50.000                                                  
E13  26028232.900   136779244.766          50.000    26028238.680   102140326.898          50.000  
E15  23098536.540   121383595.219          50.000    23098541.760    90643581.219          50.000  
E21  27680085.060   145459782.508          50.000    27680091.080   108622546.930          50.000  
E27  23692996.240   124507511.352          50.000    23693000.500    92976376.609          50.000  
E30  22984095.260   120782213.758          50.000    22984099.680    90194498.566          50.000  
> 2020  5 28 21 24 51.0000000  0 13       0.000000000000
G 2  21218757.420   111505339.707          50.000                                                  
G 5  22644330.340   118996656.820          50.000                                                  
G 6  22813668.160   119886578.855          50.000    22813671.120    89525690.590          50.000  
G12  20077410.460   105507509.441          50.000                                                  
G19  24509981.600   128800791.617          50.000                                                  
G24  23522983.260   123614029.816          50.000    23522987.260    92309168.359          50.000  
G25  21016632.440   110443087.430          50.000    21016634.720    82473733.109          50.000  
G29  23034218.340   121045606.258          50.000                                                  
E13  26027824.800   136777100.141          50.000    26027830.580   102138725.391          50.000  
E15  23098508.300   121383446.832          50.000    23098513.540    90643470.410          50.000  
E21  27679558.760   145457016.770          50.000    27679564.780   108620481.605          50.000  
E27  23692814.720   124506557.410          50.000    23692818.980    92975664.250          50.000  
E30  22984449.340   120784074.414          50.000    22984453.740    90195888.020          50.000  
> 2020  5 28 21 24 52.0000000  0 13       0.000000000000
G 2  21219036.020   111506803.664          50.000                                                  
G 5  22643785.460   118993793.500          50.000                                                  
G 6  22814241.800   119889593.281          50.000    22814244.740    89527941.621          50.000  
G12  20077371.740   105507305.918          50.000                                                  
G19  24510519.540   128803618.523          50.000                                                  
G24  23523573.380   123617130.867          50.000    23523577.380    92311484.074          50.000  
G25  21016255.280   110441105.402          50.000    21016257.560    82472253.023          50.000  
G29  23033793.420   121043373.340          50.000                                                  
E13  26027416.720   136774955.727          50.000    26027422.500   102137124.047          50.000  
E15  23098480.120   121383298.738          50.000    23098485.360    90643359.820          50.000  
E21  27679032.460   145454251.129          50.000    27679038.500   108618416.355          50.000  
E27  23692633.260   124505603.855          50.000    23692637.520    92974952.180          50.000  
E30  22984803.480   120785935.422          50.000    22984807.880    90197277.730          50.000  
> 2020  5 28 21 24 53.0000000  0 13       0.000000000000
G 2  21219314.660   111508267.988          50.000                                                  
G 5  22643240.660   118990930.480          50.000                                                  
G 6  22814815.460   119892607.941          50.000    22814818.420    89530192.828          50.000  
G12  20077333.120   105507102.934          50.000                                                  
G19  24511057.480   128806445.438          50.000                                                  
G24  23524163.520   123620232.035          50.000    23524167.520    92313799.879          50.000  
G25  21015878.200   110439123.801          50.000    21015880.480    82470773.258          50.000  
G29  23033368.540   121041140.551          50.000                                                  
E13  26027008.700   136772811.531          50.000    26027014.480   102135522.859          50.000  
E15  23098452.000   121383150.953          50.000    23098457.220    90643249.465          50.000  
E21  27678506.200   145451485.582          50.000    27678512.240   108616351.176          50.000  
E27  23692451.880   124504650.695          50.000    23692456.140    92974240.402          50.000  
E30  22985157.680   120787796.781          50.000    22985162.080    90198667.707          50.000  
> 2020  5 28 21 24 54.0000000  0 13       0.000000000000
G 2  21219593.380   111509732.680          50.000                                                  
G 5  22642695.900   118988067.777          50.000                                                  
G 6  22815389.180   119895622.816          50.000    22815392.140    89532444.195          50.000  
G12  20077294.600   105506900.484          50.000                                                  
G19  24511595.440   128809272.352          50.000                                                  
G24  23524753.680   123623333.316          50.000    23524757.680    92316115.770          50.000  
G25  21015501.180   110437142.613          50.000    21015503.480    82469293.797          50.000  
G29  23032943.680   121038907.883          50.000                                                  
E13  26026600.720   136770667.535          50.000    26026606.480   102133921.828          50.000  
E15  23098423.940   121383003.473          50.000    23098429.160    90643139.332          50.000  
E21  27677979.960   145448720.125          50.000    27677985.980   108614286.063          50.000  
E27  23692270.560   124503697.918          50.000    23692274.840    92973528.914          50.000  
E30  22985511.960   120789658.500          50.000    22985516.360    90200057.949          50.000  
> 2020  5 28 21 24 55.0000000  0 13       0.000000000000
G 2  21219872.180   111511197.734          50.000                                                  
G 5  22642151.200   118985205.387          50.000                                                  
G 6  22815962.940   119898637.918          50.000    22815965.880    89534695.730          50.000  
G12  20077256.180   105506698.582          50.000                                                  
G19  24512133.380   128812099.285          50.000                                                  
G24  23525343.860   123626434.711          50.000    23525347.860    92318431.746          50.000  
G25  21015124.260   110435161.836          50.000    21015126.540    82467814.648          50.000  
G29  23032518.840   121036675.340          50.000                                                  
E13  26026192.760   136768523.754          50.000    26026198.540   102132320.953          50.000  
E15  23098395.920   121382856.289          50.000    23098401.160    90643029.418          50.000  
E21  27677453.720   145445954.754          50.000    27677459.760   108612221.016          50.000  
E27  23692089.340   124502745.543          50.000    23692093.600    92972817.723          50.000  
E30  22985866.300   120791520.566          50.000    22985870.700    90201448.453          50.000  
> 2020  5 28 21 24 56.0000000  0 13       0.000000000000
G 2  21220151.040   111512663.160          50.000                                                  
G 5  22641606.560   118982343.289          50.000                                                  
G 6  22816536.740   119901653.230          50.000    22816539.680    89536947.422          50.000  
G12  20077217.860   105506497.223          50.000                                                  
G19  24512671.340   128814926.230          50.000                                                  
G24  23525934.060   123629536.234          50.000    23525938.060    92320747.816          50.000  
G25  21014747.420   110433181.484          50.000    21014749.700    82466335.813          50.000  
G29  23032094.040   121034442.922          50.000                                                  
E13  26025784.860   136766380.188          50.000    26025790.620   102130720.238          50.000  
E15  23098367.980   121382709.402          50.000    23098373.200    90642919.730          50.000  
E21  27676927.500   145443189.480          50.000    27676933.540   108610156.035          50.000  
E27  23691908.180   124501793.543          50.000    23691912.440    92972106.813          50.000  
E30  22986220.700   120793382.984          50.000    22986225.120    90202839.219          50.000  
> 2020  5 28 21 24 57.0000000  0 13       0.000000000000
G 2  21220429.980   111514128.969          50.000                                                  
G 5  22641061.980   118979481.527          50.000                                                  
G 6  22817110.580   119904668.785          50.000    22817113.520    89539199.305          50.000  
G12  20077179.640   105506296.410          50.000                                                  
G19  24513209.300   128817753.160          50.000                                                  
G24  23526524.280   123632637.875          50.000    23526528.280    92323063.980          50.000  
G25  21014370.640   110431201.563          50.000    21014372.920    82464857.309          50.000  
G29  23031669.240   121032210.621          50.000                                                  
E13  26025376.980   136764236.848          50.000    26025382.760   102129119.703          50.000  
E15  23098340.080   121382562.828          50.000    23098345.300    90642810.281          50.000  
E21  27676401.320   145440424.285          50.000    27676407.340   108608091.109          50.000  
E27  23691727.100   124500841.949          50.000    23691731.360    92971396.215          50.000  
E30  22986575.180   120795245.777          50.000    22986579.580    90204230.270          50.000  
> 2020  5 28 21 24 58.0000000  0 13       0.000000000000
G 2  21220708.980   111515595.129          50.000                                                  
G 5  22640517.460   118976620.039          50.000                                                  
G 6  22817684.460   119907684.543          50.000    22817687.400    89541451.332          50.000  
G12  20077141.520   105506096.125          50.000                                                  
G19  24513747.260   128820580.125          50.000                                                  
G24  23527114.520   123635739.645          50.000    23527118.540    92325380.234          50.000  
G25  21013993.960   110429222.043          50.000    21013996.240    82463379.098          50.000  
G29  23031244.480   121029978.453          50.000                                                  
E13  26024969.160   136762093.703          50.000    26024974.920   102127519.305          50.000  
E15  23098312.240   121382416.543          50.000    23098317.480    90642701.043          50.000  
E21  27675875.120   145437659.191          50.000    27675881.160   108606026.266          50.000  
E27  23691546.080   124499890.738          50.000    23691550.340    92970685.895          50.000  
E30  22986929.720   120797108.906          50.000    22986934.120    90205621.566          50.000  
> 2020  5 28 21 24 59.0000000  0 13       0.000000000000
G 2  21220988.060   111517061.652          50.000                                                  
G 5  22639973.000   118973758.871          50.000                                                  
G 6  22818258.380   119910700.523          50.000    22818261.340    89543703.523          50.000  
G12  20077103.520   105505896.375          50.000                                                  
G19  24514285.220   128823407.102          50.000                                                  
G24  23527704.800   123638841.523          50.000    23527708.800    92327696.570          50.000  
G25  21013617.340   110427242.938          50.000    21013619.640    82461901.191          50.000  
G29  23030819.740   121027746.395          50.000                                                  
E13  26024561.360   136759950.758          50.000    26024567.140   102125919.055          50.000  
E15  23098284.460   121382270.551          50.000    23098289.700    90642592.023          50.000  
E21  27675348.980   145434894.207          50.000    27675355.000   108603961.508          50.000  
E27  23691365.140   124498939.906          50.000    23691369.400    92969975.859          50.000  
E30  22987284.320   120798972.383          50.000    22987288.740    90207013.121          50.000  
> 2020  5 28 21 25  0.0000000  0 13       0.000000000000
G 2  21221267.200   111518528.555          50.000                                                  
G 5  22639428.600   118970898.008          50.000                                                  
G 6  22818832.360   119913716.719          50.000    22818835.300    89545955.875          50.000  
G12  20077065.620   105505697.172          50.000                                                  
G19  24514823.180   128826234.078          50.000                                                  
G24  23528295.100   123641943.516          50.000    23528299.100    92330012.992          50.000  
G25  21013240.820   110425264.277          50.000    21013243.100    82460423.621          50.000  
G29  23030395.020   121025514.473          50.000                                                  
E13  26024153.620   136757808.027          50.000    26024159.380   102124318.965          50.000  
E15  23098256.740   121382124.867          50.000    23098261.960    90642483.234          50.000  
E21  27674822.820   145432129.297          50.000    27674828.860   108601896.801          50.000  
E27  23691184.280   124497989.477          50.000    23691188.540    92969266.121          50.000  
E30  22987639.000   120800836.230          50.000    22987643.420    90208404.957          50.000  
> 2020  5 28 21 25  1.0000000  0 13       0.000000000000
G 2  21221546.420   111519995.824          50.000                                                  
G 5  22638884.260   118968037.457          50.000                                                  
G 6  22819406.360   119916733.141          50.000    22819409.300    89548208.395          50.000  
G12  20077027.820   105505498.508          50.000                                                  
G19  24515361.140   128829061.078          50.000                                                  
G24  23528885.400   123645045.617          50.000    23528889.420    92332329.496          50.000  
G25  21012864.380   110423286.031          50.000    21012866.660    82458946.359          50.000  
G29  23029970.320   121023282.680          50.000                                                  
E13  26023745.900   136755665.504          50.000    26023751.680   102122719.031          50.000  
E15  23098229.060   121381979.484          50.000    23098234.300    90642374.668          50.000  
E21  27674296.700   145429364.496          50.000    27674302.740   108599832.180          50.000  
E27  23691003.500   124497039.426          50.000    23691007.760    92968556.668          50.000  
E30  22987993.740   120802700.422          50.000    22987998.160    90209797.047          50.000  
> 2020  5 28 21 25  2.0000000  0 13       0.000000000000
G 2  21221825.700   111521463.457          50.000                                                  
G 5  22638339.960   118965177.203          50.000                                                  
G 6  22819980.420   119919749.793          50.000    22819983.360    89550461.086          50.000  
G12  20076990.120   105505300.383          50.000                                                  
G19  24515899.100   128831888.086          50.000                                                  
G24  23529475.740   123648147.848          50.000    23529479.740    92334646.090          50.000  
G25  21012488.000   110421308.199          50.000    21012490.300    82457469.402          50.000  
G29  23029545.640   121021051.020          50.000                                                  
E13  26023338.240   136753523.199          50.000    26023344.000   102121119.258          50.000  
E15  23098201.460   121381834.398          50.000    23098206.700    90642266.324          50.000  
E21  27673770.580   145426599.773          50.000    27673776.620   108597767.613          50.000  
E27  23690822.780   124496089.762          50.000    23690827.040    92967847.504          50.000  
E30  22988348.560   120804564.957          50.000    22988352.960    90211189.395          50.000  
> 2020  5 28 21 25  3.0000000  0 13       0.000000000000
G 2  21222105.040   111522931.469          50.000                                                  
G 5  22637795.740   118962317.258          50.000                                                  
G 6  22820554.500   119922766.664          50.000    22820557.460    89552713.938          50.000  
G12  20076952.520   105505102.805          50.000                                                  
G19  24516437.060   128834715.109          50.000                                                  
G24  23530066.100   123651250.172          50.000    23530070.100    92336962.754          50.000  
G25  21012111.720   110419330.797          50.000    21012114.000    82455992.766          50.000  
G29  23029121.000   121018819.473          50.000                                                  
E13  26022930.620   136751381.098          50.000    26022936.380   102119519.637          50.000  
E15  23098173.900   121381689.613          50.000    23098179.140    90642158.207          50.000  
E21  27673244.500   145423835.145          50.000    27673250.540   108595703.125          50.000  
E27  23690642.140   124495140.500          50.000    23690646.400    92967138.637          50.000  
E30  22988703.440   120806429.855          50.000    22988707.840    90212582.012          50.000  
> 2020  5 28 21 25  4.0000000  0 13       0.000000000000
G 2  21222384.460   111524399.836          50.000                                                  
G 5  22637251.560   118959457.621          50.000                                                  
G 6  22821128.640   119925783.758          50.000    22821131.580    89554966.957          50.000  
G12  20076915.020   105504905.770          50.000                                                  
G19  24516975.040   128837542.133          50.000                                                  
G24  23530656.480   123654352.605          50.000    23530660.480    92339279.504          50.000  
G25  21011735.500   110417353.797          50.000    21011737.800    82454516.434          50.000  
G29  23028696.380   121016588.055          50.000                                                  
E13  26022523.020   136749239.203          50.000    26022528.780   102117920.172          50.000  
E15  23098146.420   121381545.125          50.000    23098151.640    90642050.309          50.000  
E21  27672718.420   145421070.613          50.000    27672724.460   108593638.703          50.000  
E27  23690461.580   124494191.609          50.000    23690465.840    92966430.055          50.000  
E30  22989058.380   120808295.102          50.000    22989062.800    90213974.891          50.000  
> 2020  5 28 21 25  5.0000000  0 13       0.000000000000
G 2  21222663.960   111525868.566          50.000                                                  
G 5  22636707.460   118956598.285          50.000                                                  
G 6  22821702.820   119928801.059          50.000    22821705.760    89557220.133          50.000  
G12  20076877.640   105504709.281          50.000                                                  
G19  24517513.000   128840369.176          50.000                                                  
G24  23531246.880   123657455.168          50.000    23531250.880    92341596.344          50.000  
G25  21011359.380   110415377.227          50.000    21011361.660    82453040.422          50.000  
G29  23028271.780   121014356.766          50.000                                                  
E13  26022115.480   136747097.527          50.000    26022121.240   102116320.867          50.000  
E15  23098118.980   121381400.934          50.000    23098124.200    90641942.633          50.000  
E21  27672192.360   145418306.172          50.000    27672198.400   108591574.348          50.000  
E27  23690281.080   124493243.117          50.000    23690285.340    92965721.762          50.000  
E30  22989413.400   120810160.699          50.000    22989417.800    90215368.031          50.000  
> 2020  5 28 21 25  6.0000000  0 13       0.000000000000
G 2  21222943.520   111527337.684          50.000                                                  
G 5  22636163.400   118953739.277          50.000                                                  
G 6  22822277.040   119931818.598          50.000    22822279.980    89559473.480          50.000  
G12  20076840.340   105504513.332          50.000                                                  
G19  24518050.980   128843196.227          50.000                                                  
G24  23531837.300   123660557.836          50.000    23531841.300    92343913.266          50.000  
G25  21010983.340   110413401.098          50.000    21010985.620    82451564.738          50.000  
G29  23027847.200   121012125.609          50.000                                                  
E13  26021707.960   136744956.059          50.000    26021713.740   102114721.723          50.000  
E15  23098091.600   121381257.047          50.000    23098096.820    90641835.188          50.000  
E21  27671666.320   145415541.820          50.000    27671672.360   108589510.059          50.000  
E27  23690100.660   124492295.012          50.000    23690104.920    92965013.762          50.000  
E30  22989768.480   120812026.660          50.000    22989772.880    90216761.441          50.000  
> 2020  5 28 21 25  7.0000000  0 13       0.000000000000
G 2  21223223.160   111528807.145          50.000                                                  
G 5  22635619.400   118950880.559          50.000                                                  
G 6  22822851.300   119934836.340          50.000    22822854.240    89561726.988          50.000  
G12  20076803.160   105504317.918          50.000                                                  
G19  24518588.940   128846023.289          50.000                                                  
G24  23532427.740   123663660.637          50.000    23532431.740    92346230.289          50.000  
G25  21010607.360   110411425.355          50.000    21010609.660    82450089.340          50.000  
G29  23027422.640   121009894.566          50.000                                                  
E13  26021300.500   136742814.805          50.000    26021306.260   102113122.734          50.000  
E15  23098064.280   121381113.465          50.000    23098069.500    90641727.965          50.000  
E21  27671140.300   145412777.570          50.000    27671146.340   108587445.848          50.000  
E27  23689920.320   124491347.301          50.000    23689924.580    92964306.059          50.000  
E30  22990123.620   120813892.969          50.000    22990128.040    90218155.113          50.000  
> 2020  5 28 21 25  8.0000000  0 13       0.000000000000
G 2  21223502.860   111530276.980          50.000                                                  
G 5  22635075.460   118948022.160          50.000                                                  
G 6  22823425.600   119937854.313          50.000    22823428.540    89563980.664          50.000  
G12  20076766.080   105504123.047          50.000                                                  
G19  24519126.920   128848850.371          50.000                                                  
G24  23533018.200   123666763.539          50.000    23533022.220    92348547.383          50.000  
G25  21010231.480   110409450.066          50.000    21010233.760    82448614.281          50.000  
G29  23026998.120   121007663.652          50.000                                                  
E13  26020893.060   136740673.754          50.000    26020898.840   102111523.898          50.000  
E15  23098037.000   121380970.184          50.000    23098042.240    90641620.969          50.000  
E21  27670614.300   145410013.402          50.000    27670620.340   108585381.695          50.000  
E27  23689740.060   124490399.980          50.000    23689744.320    92963598.641          50.000  
E30  22990478.840   120815759.625          50.000    22990483.240    90219549.043          50.000  
> 2020  5 28 21 25  9.0000000  0 13       0.000000000000
G 2  21223782.620   111531747.172          50.000                                                  
G 5  22634531.580   118945164.063          50.000                                                  
G 6  22823999.940   119940872.492          50.000    22824002.900    89566234.492          50.000  
G12  20076729.100   105503928.719          50.000                                                  
G19  24519664.900   128851677.449          50.000                                                  
G24  23533608.700   123669866.590          50.000    23533612.700    92350864.590          50.000  
G25  21009855.680   110407475.184          50.000    21009857.960    82447139.527          50.000  
G29  23026573.600   121005432.859          50.000                                                  
E13  26020485.680   136738532.910          50.000    26020491.440   102109925.219          50.000  
E15  23098009.800   121380827.191          50.000    23098015.020    90641514.191          50.000  
E21  27670088.320   145407249.332          50.000    27670094.340   108583317.621          50.000  
E27  23689559.860   124489453.043          50.000    23689564.120    92962891.512          50.000  
E30  22990834.120   120817626.641          50.000    22990838.540    90220943.242          50.000  
> 2020  5 28 21 25 10.0000000  0 13       0.000000000000
G 2  21224062.460   111533217.730          50.000                                                  
G 5  22633987.760   118942306.270          50.000                                                  
G 6  22824574.320   119943890.898          50.000    22824577.280    89568488.492          50.000  
G12  20076692.220   105503734.926          50.000                                                  
G19  24520202.880   128854504.543          50.000                                                  
G24  23534199.200   123672969.738          50.000    23534203.220    92353181.871          50.000  
G25  21009479.940   110405500.727          50.000    21009482.240    82445665.094          50.000  
G29  23026149.120   121003202.191          50.000                                                  
E13  26020078.320   136736392.285          50.000    26020084.100   102108326.699          50.000  
E15  23097982.640   121380684.500          50.000    23097987.880    90641407.633          50.000  
E21  27669562.340   145404485.344          50.000    27669568.380   108581253.605          50.000  
E27  23689379.740   124488506.500          50.000    23689384.000    92962184.680          50.000  
E30  22991189.460   120819493.996          50.000    22991193.880    90222337.695          50.000  
> 2020  5 28 21 25 11.0000000  0 13       0.000000000000
G 2  21224342.360   111534688.664          50.000                                                  
G 5  22633444.000   118939448.785          50.000                                                  
G 6  22825148.740   119946909.531          50.000    22825151.700    89570742.660          50.000  
G12  20076655.440   105503541.684          50.000                                                  
G19  24520740.860   128857331.652          50.000                                                  
G24  23534789.740   123676072.988          50.000    23534793.740    92355499.230          50.000  
G25  21009104.300   110403526.676          50.000    21009106.580    82444190.961          50.000  
G29  23025724.660   121000971.648          50.000                                                  
E13  26019671.020   136734251.867          50.000    26019676.780   102106728.336          50.000  
E15  23097955.540   121380542.117          50.000    23097960.780    90641301.309          50.000  
E21  27669036.400   145401721.469          50.000    27669042.440   108579189.672          50.000  
E27  23689199.680   124487560.348          50.000    23689203.960    92961478.137          50.000  
E30  22991544.880   120821361.723          50.000    22991549.300    90223732.426          50.000  
> 2020  5 28 21 25 12.0000000  0 13       0.000000000000
G 2  21224622.340   111536159.957          50.000                                                  
G 5  22632900.300   118936591.594          50.000                                                  
G 6  22825723.220   119949928.375          50.000    22825726.180    89572996.988          50.000  
G12  20076618.780   105503348.980          50.000                                                  
G19  24521278.840   128860158.766          50.000                                                  
G24  23535380.280   123679176.355          50.000    23535384.300    92357816.672          50.000  
G25  21008728.720   110401553.059          50.000    21008731.020    82442717.152          50.000  
G29  23025300.220   120998741.223          50.000                                                  
E13  26019263.760   136732111.660          50.000    26019269.520   102105130.129          50.000  
E15  23097928.500   121380400.016          50.000    23097933.740    90641195.195          50.000  
E21  27668510.460   145398957.672          50.000    27668516.500   108577125.797          50.000  
E27  23689019.720   124486614.582          50.000    23689023.980    92960771.883          50.000  
E30  22991900.360   120823229.793          50.000    22991904.780    90225127.410          50.000  
> 2020  5 28 21 25 13.0000000  0 13       0.000000000000
G 2  21224902.400   111537631.625          50.000                                                  
G 5  22632356.660   118933734.723          50.000                                                  
G 6  22826297.720   119952947.441          50.000    22826300.680    89575251.480          50.000  
G12  20076582.200   105503156.809          50.000                                                  
G19  24521816.840   128862985.898          50.000                                                  
G24  23535970.860   123682279.855          50.000    23535974.880    92360134.215          50.000  
G25  21008353.240   110399579.859          50.000    21008355.540    82441243.656          50.000  
G29  23024875.820   120996510.922          50.000                                                  
E13  26018856.520   136729971.664          50.000    26018862.300   102103532.082          50.000  
E15  23097901.520   121380258.227          50.000    23097906.760    90641089.313          50.000  
E21  27667984.560   145396193.969          50.000    27667990.580   108575061.996          50.000  
E27  23688839.820   124485669.207          50.000    23688844.080    92960065.922          50.000  
E30  22992255.920   120825098.219          50.000    22992260.320    90226522.664          50.000  
> 2020  5 28 21 25 14.0000000  0 13       0.000000000000
G 2  21225182.520   111539103.648          50.000                                                  
G 5  22631813.060   118930878.168          50.000                                                  
G 6  22826872.280   119955966.727          50.000    22826875.240    89577506.137          50.000  
G12  20076545.740   105502965.188          50.000                                                  
G19  24522354.820   128865813.039          50.000                                                  
G24  23536561.460   123685383.480          50.000    23536565.480    92362451.852          50.000  
G25  21007977.840   110397607.078          50.000    21007980.120    82439770.473          50.000  
G29  23024451.420   120994280.746          50.000                                                  
E13  26018449.340   136727831.875          50.000    26018455.100   102101934.191          50.000  
E15  23097874.600   121380116.742          50.000    23097879.840    90640983.660          50.000  
E21  27667458.660   145393430.367          50.000    27667464.680   108572998.270          50.000  
E27  23688660.000   124484724.230          50.000    23688664.260    92959360.254          50.000  
E30  22992611.520   120826966.988          50.000    22992615.940    90227918.172          50.000  
> 2020  5 28 21 25 15.0000000  0 13       0.000000000000
G 2  21225462.700   111540576.047          50.000                                                  
G 5  22631269.540   118928021.914          50.000                                                  
G 6  22827446.880   119958986.242          50.000    22827449.840    89579760.965          50.000  
G12  20076509.380   105502774.102          50.000                                                  
G19  24522892.820   128868640.199          50.000                                                  
G24  23537152.080   123688487.219          50.000    23537156.100    92364769.570          50.000  
G25  21007602.500   110395634.719          50.000    21007604.800    82438297.602          50.000  
G29  23024027.060   120992050.691          50.000                                                  
E13  26018042.180   136725692.301          50.000    26018047.960   102100336.457          50.000  
E15  23097847.740   121379975.555          50.000    23097852.960    90640878.227          50.000  
E21  27666932.780   145390666.852          50.000    27666938.800   108570934.605          50.000  
E27  23688480.240   124483779.633          50.000    23688484.500    92958654.875          50.000  
E30  22992967.220   120828836.129          50.000    22992971.620    90229313.961          50.000  
> 2020  5 28 21 25 16.0000000  0 13       0.000000000000
G 2  21225742.960   111542048.820          50.000                                                  
G 5  22630726.080   118925165.973          50.000                                                  
G 6  22828021.500   119962005.965          50.000    22828024.480    89582015.945          50.000  
G12  20076473.120   105502583.559          50.000                                                  
G19  24523430.800   128871467.352          50.000                                                  
G24  23537742.720   123691591.035          50.000    23537746.740    92367087.352          50.000  
G25  21007227.260   110393662.809          50.000    21007229.560    82436825.070          50.000  
G29  23023602.720   120989820.773          50.000                                                  
E13  26017635.080   136723552.938          50.000    26017640.840   102098738.879          50.000  
E15  23097820.920   121379834.656          50.000    23097826.160    90640773.012          50.000  
E21  27666406.920   145387903.445          50.000    27666412.940   108568871.023          50.000  
E27  23688300.560   124482835.430          50.000    23688304.820    92957949.789          50.000  
E30  22993322.960   120830705.609          50.000    22993327.380    90230710.000          50.000  
> 2020  5 28 21 25 17.0000000  0 13       0.000000000000
G 2  21226023.280   111543521.949          50.000                                                  
G 5  22630182.660   118922310.328          50.000                                                  
G 6  22828596.180   119965025.902          50.000    22828599.140    89584271.090          50.000  
G12  20076436.960   105502393.566          50.000                                                  
G19  24523968.800   128874294.527          50.000                                                  
G24  23538333.380   123694694.977          50.000    23538337.420    92369405.227          50.000  
G25  21006852.100   110391691.289          50.000    21006854.400    82435352.824          50.000  
G29  23023178.400   120987590.969          50.000                                                  
E13  26017228.020   136721413.793          50.000    26017233.780   102097141.469          50.000  
E15  23097794.160   121379694.070          50.000    23097799.400    90640668.027          50.000  
E21  27665881.080   145385140.125          50.000    27665887.100   108566807.508          50.000  
E27  23688120.960   124481891.621          50.000    23688125.220    92957244.996          50.000  
E30  22993678.780   120832575.445          50.000    22993683.200    90232106.305          50.000  
> 2020  5 28 21 25 18.0000000  0 13       0.000000000000
G 2  21226303.680   111544995.445          50.000                                                  
G 5  22629639.320   118919455.004          50.000                                                  
G 6  22829170.900   119968046.070          50.000    22829173.860    89586526.402          50.000  
G12  20076400.920   105502204.105          50.000                                                  
G19  24524506.780   128877121.695          50.000                                                  
G24  23538924.060   123697799.020          50.000    23538928.100    92371723.172          50.000  
G25  21006477.000   110389720.188          50.000    21006479.300    82433880.898          50.000  
G29  23022754.100   120985361.289          50.000                                                  
E13  26016820.980   136719274.844          50.000    26016826.740   102095544.203          50.000  
E15  23097767.480   121379553.777          50.000    23097772.700    90640563.262          50.000  
E21  27665355.240   145382376.891          50.000    27665361.280   108564744.051          50.000  
E27  23687941.440   124480948.195          50.000    23687945.700    92956540.492          50.000  
E30  22994034.660   120834445.637          50.000    22994039.080    90233502.875          50.000  
> 2020  5 28 21 25 19.0000000  0 13       0.000000000000
G 2  21226584.160   111546469.313          50.000                                                  
G 5  22629096.020   118916599.988          50.000                                                  
G 6  22829745.660   119971066.453          50.000    22829748.640    89588781.879          50.000  
G12  20076364.960   105502015.188          50.000                                                  
G19  24525044.780   128879948.883          50.000                                                  
G24  23539514.780   123700903.207          50.000    23539518.800    92374041.230          50.000  
G25  21006102.000   110387749.531          50.000    21006104.300    82432409.297          50.000  
G29  23022329.840   120983131.730          50.000                                                  
E13  26016414.000   136717136.105          50.000    26016419.760   102093947.094          50.000  
E15  23097740.840   121379413.781          50.000    23097746.060    90640458.723          50.000  
E21  27664829.440   145379613.738          50.000    27664835.460   108562680.660          50.000  
E27  23687761.980   124480005.164          50.000    23687766.240    92955836.277          50.000  
E30  22994390.620   120836316.176          50.000    22994395.040    90234899.707          50.000  
> 2020  5 28 21 25 20.0000000  0 13       0.000000000000
G 2  21226864.700   111547943.539          50.000                                                  
G 5  22628552.780   118913745.277          50.000                                                  
G 6  22830320.460   119974087.051          50.000    22830323.440    89591037.516          50.000  
G12  20076329.120   105501826.809          50.000                                                  
G19  24525582.780   128882776.070          50.000                                                  
G24  23540105.500   123704007.539          50.000    23540109.540    92376359.395          50.000  
G25  21005727.080   110385779.285          50.000    21005729.380    82430938.008          50.000  
G29  23021905.580   120980902.297          50.000                                                  
E13  26016007.040   136714997.574          50.000    26016012.800   102092350.141          50.000  
E15  23097714.240   121379274.086          50.000    23097719.480    90640354.402          50.000  
E21  27664303.640   145376850.699          50.000    27664309.680   108560617.355          50.000  
E27  23687582.600   124479062.512          50.000    23687586.860    92955132.352          50.000  
E30  22994746.640   120838187.070          50.000    22994751.060    90236296.801          50.000  
> 2020  5 28 21 25 21.0000000  0 13       0.000000000000
G 2  21227145.300   111549418.133          50.000                                                  
G 5  22628009.600   118910890.879          50.000                                                  
G 6  22830895.300   119977107.867          50.000    22830898.280    89593293.316          50.000  
G12  20076293.380   105501638.977          50.000                                                  
G19  24526120.780   128885603.273          50.000                                                  
G24  23540696.260   123707111.980          50.000    23540700.300    92378677.641          50.000  
G25  21005352.220   110383809.449          50.000    21005354.540    82429467.020          50.000  
G29  23021481.360   120978672.988          50.000                                                  
E13  26015600.140   136712859.266          50.000    26015605.900   102090753.352          50.000  
E15  23097687.720   121379134.688          50.000    23097692.960    90640250.305          50.000  
E21  27663777.860   145374087.738          50.000    27663783.900   108558554.102          50.000  
E27  23687403.300   124478120.258          50.000    23687407.560    92954428.719          50.000  
E30  22995102.720   120840058.313          50.000    22995107.140    90237694.156          50.000  
> 2020  5 28 21 25 22.0000000  0 13       0.000000000000
G 2  21227425.980   111550893.098          50.000                                                  
G 5  22627466.500   118908036.793          50.000                                                  
G 6  22831470.200   119980128.902          50.000    22831473.160    89595549.277          50.000  
G12  20076257.740   105501451.680          50.000                                                  
G19  24526658.780   128888430.477          50.000                                                  
G24  23541287.040   123710216.535          50.000    23541291.080    92380995.969          50.000  
G25  21004977.460   110381840.051          50.000    21004979.760    82427996.363          50.000  
G29  23021057.160   120976443.793          50.000                                                  
E13  26015193.260   136710721.152          50.000    26015199.040   102089156.711          50.000  
E15  23097661.260   121378995.586          50.000    23097666.480    90640146.430          50.000  
E21  27663252.120   145371324.879          50.000    27663258.140   108556490.930          50.000  
E27  23687224.060   124477178.398          50.000    23687228.340    92953725.383          50.000  
E30  22995458.880   120841929.910          50.000    22995463.300    90239091.777          50.000  
> 2020  5 28 21 25 23.0000000  0 13       0.000000000000
G 2  21227706.720   111552368.422          50.000                                                  
G 5  22626923.440   118905183.016          50.000                                                  
G 6  22832045.120   119983150.156          50.000    22832048.100    89597805.406          50.000  
G12  20076222.200   105501264.930          50.000                                                  
G19  24527196.780   128891257.699          50.000                                                  
G24  23541877.840   123713321.207          50.000    23541881.880    92383314.391          50.000  
G25  21004602.780   110379871.066          50.000    21004605.080    82426526.016          50.000  
G29  23020632.980   120974214.727          50.000                                                  
E13  26014786.440   136708583.254          50.000    26014792.200   102087560.227          50.000  
E15  23097634.840   121378856.781          50.000    23097640.080    90640042.777          50.000  
E21  27662726.380   145368562.109          50.000    27662732.400   108554427.828          50.000  
E27  23687044.920   124476236.922          50.000    23687049.180    92953022.332          50.000  
E30  22995815.100   120843801.863          50.000    22995819.520    90240489.664          50.000  
> 2020  5 28 21 25 24.0000000  0 13       0.000000000000
G 2  21227987.540   111553844.109          50.000                                                  
G 5  22626380.440   118902329.547          50.000                                                  
G 6  22832620.080   119986171.633          50.000    22832623.060    89600061.695          50.000  
G12  20076186.760   105501078.719          50.000                                                  
G19  24527734.800   128894084.926          50.000                                                  
G24  23542468.680   123716426.016          50.000    23542472.700    92385632.910          50.000  
G25  21004228.180   110377902.523          50.000    21004230.480    82425055.996          50.000  
G29  23020208.820   120971985.777          50.000                                                  
E13  26014379.660   136706445.578          50.000    26014385.420   102085963.914          50.000  
E15  23097608.480   121378718.289          50.000    23097613.720    90639939.359          50.000  
E21  27662200.660   145365799.445          50.000    27662206.680   108552364.797          50.000  
E27  23686865.820   124475295.840          50.000    23686870.100    92952319.574          50.000  
E30  22996171.400   120845674.168          50.000    22996175.800    90241887.813          50.000  
> 2020  5 28 21 25 25.0000000  0 13       0.000000000000
G 2  21228268.420   111555320.164          50.000                                                  
G 5  22625837.500   118899476.391          50.000                                                  
G 6  22833195.100   119989193.328          50.000    22833198.080    89602318.152          50.000  
G12  20076151.440   105500893.059          50.000                                                  
G19  24528272.800   128896912.160          50.000                                                  
G24  23543059.520   123719530.918          50.000    23543063.560    92387951.500          50.000  
G25  21003853.660   110375934.375          50.000    21003855.960    82423586.270          50.000  
G29  23019784.700   120969756.961          50.000                                                  
E13  26013972.900   136704308.109          50.000    26013978.660   102084367.750          50.000  
E15  23097582.180   121378580.086          50.000    23097587.420    90639836.156          50.000  
E21  27661674.960   145363036.867          50.000    27661680.980   108550301.836          50.000  
E27  23686686.820   124474355.148          50.000    23686691.080    92951617.109          50.000  
E30  22996527.740   120847546.820          50.000    22996532.160    90243286.223          50.000  
> 2020  5 28 21 25 26.0000000  0 13       0.000000000000
G 2  21228549.380   111556796.586          50.000                                                  
G 5  22625294.620   118896623.535          50.000                                                  
G 6  22833770.140   119992215.234          50.000    22833773.120    89604574.766          50.000  
G12  20076116.200   105500707.938          50.000                                                  
G19  24528810.800   128899739.414          50.000                                                  
G24  23543650.380   123722635.922          50.000    23543654.420    92390270.164          50.000  
G25  21003479.200   110373966.672          50.000    21003481.520    82422116.879          50.000  
G29  23019360.580   120967528.262          50.000                                                  
E13  26013566.200   136702170.840          50.000    26013571.960   102082771.742          50.000  
E15  23097555.940   121378442.180          50.000    23097561.180    90639733.176          50.000  
E21  27661149.280   145360274.383          50.000    27661155.300   108548238.941          50.000  
E27  23686507.880   124473414.844          50.000    23686512.160    92950914.934          50.000  
E30  22996884.160   120849419.828          50.000    22996888.580    90244684.895          50.000  
> 2020  5 28 21 25 27.0000000  0 13       0.000000000000
G 2  21228830.400   111558273.367          50.000                                                  
G 5  22624751.800   118893771.000          50.000                                                  
G 6  22834345.240   119995237.367          50.000    22834348.220    89606831.547          50.000  
G12  20076081.080   105500523.359          50.000                                                  
G19  24529348.820   128902566.676          50.000                                                  
G24  23544241.260   123725741.035          50.000    23544245.300    92392588.910          50.000  
G25  21003104.840   110371999.379          50.000    21003107.160    82420647.793          50.000  
G29  23018936.500   120965299.688          50.000                                                  
E13  26013159.520   136700033.805          50.000    26013165.300   102081175.902          50.000  
E15  23097529.760   121378304.582          50.000    23097535.000    90639630.422          50.000  
E21  27660623.600   145357511.996          50.000    27660629.640   108546176.121          50.000  
E27  23686329.020   124472474.938          50.000    23686333.300    92950213.055          50.000  
E30  22997240.660   120851293.195          50.000    22997245.080    90246083.836          50.000  
> 2020  5 28 21 25 28.0000000  0 13       0.000000000000
G 2  21229111.480   111559750.508          50.000                                                  
G 5  22624209.040   118890918.762          50.000                                                  
G 6  22834920.380   119998259.711          50.000    22834923.360    89609088.488          50.000  
G12  20076046.060   105500339.316          50.000                                                  
G19  24529886.840   128905393.941          50.000                                                  
G24  23544832.180   123728846.270          50.000    23544836.220    92394907.754          50.000  
G25  21002730.560   110370032.488          50.000    21002732.860    82419179.008          50.000  
G29  23018512.440   120963071.230          50.000                                                  
E13  26012752.900   136697896.953          50.000    26012758.660   102079580.203          50.000  
E15  23097503.620   121378167.270          50.000    23097508.860    90639527.883          50.000  
E21  27660097.960   145354749.695          50.000    27660103.980   108544113.367          50.000  
E27  23686150.240   124471535.414          50.000    23686154.500    92949511.465          50.000  
E30  22997597.220   120853166.906          50.000    22997601.640    90247483.035          50.000  
> 2020  5 28 21 25 29.0000000  0 13       0.000000000000
G 2  21229392.640   111561228.023          50.000                                                  
G 5  22623666.340   118888066.836          50.000                                                  
G 6  22835495.540   120001282.273          50.000    22835498.540    89611345.590          50.000  
G12  20076011.140   105500155.824          50.000                                                  
G19  24530424.840   128908221.223          50.000                                                  
G24  23545423.100   123731951.633          50.000    23545427.140    92397226.688          50.000  
G25  21002356.360   110368066.059          50.000    21002358.660    82417710.566          50.000  
G29  23018088.400   120960842.902          50.000                                                  
E13  26012346.320   136695760.328          50.000    26012352.080   102077984.676          50.000  
E15  23097477.560   121378030.266          50.000    23097482.800    90639425.574          50.000  
E21  27659572.320   145351987.496          50.000    27659578.360   108542050.688          50.000  
E27  23685971.540   124470596.281          50.000    23685975.800    92948810.164          50.000  
E30  22997953.840   120855040.980          50.000    22997958.260    90248882.508          50.000  
> 2020  5 28 21 25 30.0000000  0 13       0.000000000000
G 2  21229673.880   111562705.902          50.000                                                  
G 5  22623123.680   118885215.215          50.000                                                  
G 6  22836070.760   120004305.063          50.000    22836073.760    89613602.863          50.000  
G12  20075976.320   105499972.867          50.000                                                  
G19  24530962.860   128911048.508          50.000                                                  
G24  23546014.060   123735057.094          50.000    23546018.100    92399545.691          50.000  
G25  21001982.240   110366100.035          50.000    21001984.540    82416242.426          50.000  
G29  23017664.400   120958614.703          50.000                                                  
E13  26011939.760   136693623.902          50.000    26011945.520   102076389.289          50.000  
E15  23097451.540   121377893.563          50.000    23097456.780    90639323.492          50.000  
E21  27659046.720   145349225.391          50.000    27659052.740   108539988.074          50.000  
E27  23685792.900   124469657.547          50.000    23685797.160    92948109.160          50.000  
E30  22998310.520   120856915.391          50.000    22998314.940    90250282.227          50.000  
> 2020  5 28 21 25 31.0000000  0 13       0.000000000000
G 2  21229955.180   111564184.145          50.000                                                  
G 5  22622581.100   118882363.902          50.000                                                  
G 6  22836646.020   120007328.066          50.000    22836649.020    89615860.293          50.000  
G12  20075941.620   105499790.457          50.000                                                  
G19  24531500.880   128913875.805          50.000                                                  
G24  23546605.020   123738162.676          50.000    23546609.080    92401864.793          50.000  
G25  21001608.200   110364134.430          50.000    21001610.500    82414774.602          50.000  
G29  23017240.400   120956386.621          50.000                                                  
E13  26011533.260   136691487.691          50.000    26011539.020   102074794.070          50.000  
E15  23097425.580   121377757.160          50.000    23097430.820    90639221.633          50.000  
E21  27658521.120   145346463.375          50.000    27658527.140   108537925.531          50.000  
E27  23685614.340   124468719.195          50.000    23685618.600    92947408.445          50.000  
E30  22998667.280   120858790.168          50.000    22998671.700    90251682.223          50.000  
> 2020  5 28 21 25 32.0000000  0 13       0.000000000000
G 2  21230236.540   111565662.758          50.000                                                  
G 5  22622038.580   118879512.910          50.000                                                  
G 6  22837221.320   120010351.281          50.000    22837224.320    89618117.883          50.000  
G12  20075907.000   105499608.586          50.000                                                  
G19  24532038.900   128916703.113          50.000                                                  
G24  23547196.020   123741268.371          50.000    23547200.080    92404183.973          50.000  
G25  21001234.240   110362169.254          50.000    21001236.540    82413307.094          50.000  
G29  23016816.440   120954158.664          50.000                                                  
E13  26011126.780   136689351.691          50.000    26011132.540   102073199.008          50.000  
E15  23097399.680   121377621.047          50.000    23097404.920    90639119.988          50.000  
E21  27657995.540   145343701.465          50.000    27658001.580   108535863.066          50.000  
E27  23685435.840   124467781.238          50.000    23685440.120    92946708.020          50.000  
E30  22999024.100   120860665.289          50.000    22999028.520    90253082.477          50.000  
> 2020  5 28 21 25 33.0000000  0 13       0.000000000000
G 2  21230517.980   111567141.738          50.000                                                  
G 5  22621496.100   118876662.219          50.000                                                  
G 6  22837796.660   120013374.711          50.000    22837799.660    89620375.637          50.000  
G12  20075872.500   105499427.258          50.000                                                  
G19  24532576.920   128919530.430          50.000                                                  
G24  23547787.040   123744374.168          50.000    23547791.080    92406503.234          50.000  
G25  21000860.360   110360204.496          50.000    21000862.660    82411839.902          50.000  
G29  23016392.500   120951930.836          50.000                                                  
E13  26010720.360   136687215.902          50.000    26010726.120   102071604.102          50.000  
E15  23097373.840   121377485.238          50.000    23097379.080    90639018.574          50.000  
E21  27657469.980   145340939.633          50.000    27657476.020   108533800.664          50.000  
E27  23685257.440   124466843.668          50.000    23685261.700    92946007.887          50.000  
E30  22999381.000   120862540.770          50.000    22999385.420    90254482.996          50.000  
> 2020  5 28 21 25 34.0000000  0 13       0.000000000000
G 2  21230799.500   111568621.074          50.000                                                  
G 5  22620953.700   118873811.832          50.000                                                  
G 6  22838372.060   120016398.371          50.000    22838375.040    89622633.559          50.000  
G12  20075838.100   105499246.469          50.000                                                  
G19  24533114.940   128922357.750          50.000                                                  
G24  23548378.080   123747480.066          50.000    23548382.120    92408822.566          50.000  
G25  21000486.560   110358240.164          50.000    21000488.860    82410373.031          50.000  
G29  23015968.580   120949703.129          50.000                                                  
E13  26010313.980   136685080.328          50.000    26010319.740   102070009.355          50.000  
E15  23097348.060   121377349.723          50.000    23097353.280    90638917.379          50.000  
E21  27656944.440   145338177.902          50.000    27656950.460   108531738.332          50.000  
E27  23685079.100   124465906.480          50.000    23685083.360    92945308.043          50.000  
E30  22999737.960   120864416.598          50.000    22999742.380    90255883.773          50.000  
> 2020  5 28 21 25 35.0000000  0 13       0.000000000000
G 2  21231081.080   111570100.781          50.000                                                  
G 5  22620411.340   118870961.766          50.000                                                  
G 6  22838947.480   120019422.242          50.000    22838950.460    89624891.641          50.000  
G12  20075803.800   105499066.223          50.000                                                  
G19  24533652.960   128925185.082          50.000                                                  
G24  23548969.140   123750586.098          50.000    23548973.180    92411142.000          50.000  
G25  21000112.840   110356276.250          50.000    21000115.140    82408906.469          50.000  
G29  23015544.680   120947475.543          50.000                                                  
E13  26009907.620   136682944.961          50.000    26009913.380   102068414.766          50.000  
E15  23097322.320   121377214.516          50.000    23097327.560    90638816.410          50.000  
E21  27656418.920   145335416.266          50.000    27656424.940   108529676.074          50.000  
E27  23684900.840   124464969.703          50.000    23684905.100    92944608.500          50.000  
E30  23000094.980   120866292.773          50.000    23000099.400    90257284.816          50.000  
> 2020  5 28 21 25 36.0000000  0 13       0.000000000000
G 2  21231362.720   111571580.852          50.000                                                  
G 5  22619869.040   118868112.000          50.000                                                  
G 6  22839522.940   120022446.332          50.000    22839525.940    89627149.883          50.000  
G12  20075769.600   105498886.520          50.000                                                  
G19  24534191.000   128928012.422          50.000                                                  
G24  23549560.220   123753692.238          50.000    23549564.260    92413461.512          50.000  
G25  20999739.200   110354312.766          50.000    20999741.500    82407440.223          50.000  
G29  23015120.800   120945248.094          50.000                                                  
E13  26009501.320   136680809.805          50.000    26009507.080   102066820.328          50.000  
E15  23097296.660   121377079.605          50.000    23097301.880    90638715.664          50.000  
E21  27655893.420   145332654.730          50.000    27655899.440   108527613.887          50.000  
E27  23684722.640   124464033.309          50.000    23684726.900    92943909.242          50.000  
E30  23000452.080   120868169.301          50.000    23000456.500    90258686.117          50.000  
> 2020  5 28 21 25 37.0000000  0 13       0.000000000000
G 2  21231644.440   111573061.285          50.000                                                  
G 5  22619326.820   118865262.566          50.000                                                  
G 6  22840098.440   120025470.641          50.000    22840101.440    89629408.289          50.000  
G12  20075735.500   105498707.359          50.000                                                  
G19  24534729.020   128930839.777          50.000                                                  
G24  23550151.320   123756798.496          50.000    23550155.360    92415781.117          50.000  
G25  20999365.640   110352349.703          50.000    20999367.960    82405974.297          50.000  
G29  23014696.960   120943020.758          50.000                                                  
E13  26009095.060   136678674.863          50.000    26009100.820   102065226.055          50.000  
E15  23097271.040   121376944.992          50.000    23097276.280    90638615.145          50.000  
E21  27655367.940   145329893.281          50.000    27655373.960   108525551.766          50.000  
E27  23684544.520   124463097.309          50.000    23684548.780    92943210.281          50.000  
E30  23000809.240   120870046.195          50.000    23000813.660    90260087.695          50.000  
> 2020  5 28 21 25 38.0000000  0 13       0.000000000000
G 2  21231926.220   111574542.082          50.000                                                  
G 5  22618784.640   118862413.434          50.000                                                  
G 6  22840674.000   120028495.160          50.000    22840677.000    89631666.852          50.000  
G12  20075701.520   105498528.738          50.000                                                  
G19  24535267.060   128933667.133          50.000                                                  
G24  23550742.440   123759904.891          50.000    23550746.500    92418100.820          50.000  
G25  20998992.160   110350387.066          50.000    20998994.480    82404508.688          50.000  
G29  23014273.140   120940793.543          50.000                                                  
E13  26008688.820   136676540.129          50.000    26008694.580   102063631.934          50.000  
E15  23097245.480   121376810.672          50.000    23097250.720    90638514.840          50.000  
E21  27654842.460   145327131.926          50.000    27654848.480   108523489.719          50.000  
E27  23684366.480   124462161.691          50.000    23684370.740    92942511.605          50.000  
E30  23001166.460   120871923.422          50.000    23001170.880    90261489.520          50.000  
> 2020  5 28 21 25 39.0000000  0 13       0.000000000000
G 2  21232208.080   111576023.246          50.000                                                  
G 5  22618242.520   118859564.609          50.000                                                  
G 6  22841249.580   120031519.902          50.000    22841252.580    89633925.586          50.000  
G12  20075667.620   105498350.660          50.000                                                  
G19  24535805.080   128936494.504          50.000                                                  
G24  23551333.600   123763011.395          50.000    23551337.640    92420420.605          50.000  
G25  20998618.760   110348424.840          50.000    20998621.080    82403043.387          50.000  
G29  23013849.340   120938566.453          50.000                                                  
E13  26008282.640   136674405.598          50.000    26008288.400   102062037.969          50.000  
E15  23097219.980   121376676.652          50.000    23097225.200    90638414.762          50.000  
E21  27654317.020   145324370.672          50.000    27654323.040   108521427.742          50.000  
E27  23684188.520   124461226.465          50.000    23684192.780    92941813.223          50.000  
E30  23001523.760   120873801.016          50.000    23001528.180    90262891.617          50.000  
> 2020  5 28 21 25 40.0000000  0 13       0.000000000000
G 2  21232490.020   111577504.773          50.000                                                  
G 5  22617700.480   118856716.098          50.000                                                  
G 6  22841825.220   120034544.859          50.000    22841828.220    89636184.477          50.000  
G12  20075633.840   105498173.121          50.000                                                  
G19  24536343.120   128939321.891          50.000                                                  
G24  23551924.760   123766118.023          50.000    23551928.820    92422740.488          50.000  
G25  20998245.440   110346463.063          50.000    20998247.760    82401578.418          50.000  
G29  23013425.560   120936339.504          50.000                                                  
E13  26007876.480   136672271.289          50.000    26007882.240   102060444.168          50.000  
E15  23097194.540   121376542.941          50.000    23097199.760    90638314.910          50.000  
E21  27653791.580   145321609.520          50.000    27653797.600   108519365.844          50.000  
E27  23684010.620   124460291.645          50.000    23684014.880    92941115.141          50.000  
E30  23001881.120   120875678.953          50.000    23001885.540    90264293.973          50.000  
> 2020  5 28 21 25 41.0000000  0 13       0.000000000000
G 2  21232772.000   111578986.652          50.000                                                  
G 5  22617158.480   118853867.891          50.000                                                  
G 6  22842400.900   120037570.031          50.000    22842403.880    89638443.527          50.000  
G12  20075600.160   105497996.121          50.000                                                  
G19  24536881.160   128942149.277          50.000                                                  
G24  23552515.960   123769224.789          50.000    23552520.020    92425060.469          50.000  
G25  20997872.200   110344501.684          50.000    20997874.520    82400113.746          50.000  
G29  23013001.800   120934112.680          50.000                                                  
E13  26007470.380   136670137.188          50.000    26007476.140   102058850.523          50.000  
E15  23097169.140   121376409.520          50.000    23097174.380    90638215.277          50.000  
E21  27653266.160   145318848.445          50.000    27653272.180   108517304.004          50.000  
E27  23683832.800   124459357.199          50.000    23683837.080    92940417.340          50.000  
E30  23002238.540   120877557.238          50.000    23002242.960    90265696.586          50.000  
> 2020  5 28 21 25 42.0000000  0 13       0.000000000000
G 2  21233054.060   111580468.906          50.000                                                  
G 5  22616616.540   118851019.996          50.000                                                  
G 6  22842976.600   120040595.418          50.000    22842979.600    89640702.742          50.000  
G12  20075566.580   105497819.668          50.000                                                  
G19  24537419.200   128944976.672          50.000                                                  
G24  23553107.180   123772331.648          50.000    23553111.240    92427380.520          50.000  
G25  20997499.060   110342540.742          50.000    20997501.380    82398649.406          50.000  
G29  23012578.080   120931885.961          50.000                                                  
E13  26007064.320   136668003.289          50.000    26007070.080   102057257.027          50.000  
E15  23097143.820   121376276.402          50.000    23097149.040    90638115.871          50.000  
E21  27652740.760   145316087.469          50.000    27652746.800   108515242.234          50.000  
E27  23683655.060   124458423.145          50.000    23683659.320    92939719.836          50.000  
E30  23002596.040   120879435.895          50.000    23002600.460    90267099.477          50.000  
> 2020  5 28 21 25 43.0000000  0 13       0.000000000000
G 2  21233336.200   111581951.516          50.000                                                  
G 5  22616074.660   118848172.422          50.000                                                  
G 6  22843552.360   120043621.027          50.000    22843555.360    89642962.117          50.000  
G12  20075533.100   105497643.754          50.000                                                  
G19  24537957.240   128947804.078          50.000                                                  
G24  23553698.420   123775438.625          50.000    23553702.480    92429700.660          50.000  
G25  20997125.980   110340580.223          50.000    20997128.300    82397185.375          50.000  
G29  23012154.360   120929659.363          50.000                                                  
E13  26006658.280   136665869.602          50.000    26006664.040   102055663.691          50.000  
E15  23097118.540   121376143.578          50.000    23097123.760    90638016.684          50.000  
E21  27652215.400   145313326.598          50.000    27652221.420   108513180.547          50.000  
E27  23683477.400   124457489.488          50.000    23683481.660    92939022.625          50.000  
E30  23002953.600   120881314.887          50.000    23002958.020    90268502.621          50.000  
> 2020  5 28 21 25 44.0000000  0 13       0.000000000000
G 2  21233618.400   111583434.492          50.000                                                  
G 5  22615532.840   118845325.148          50.000                                                  
G 6  22844128.160   120046646.852          50.000    22844131.160    89645221.656          50.000  
G12  20075499.740   105497468.395          50.000                                                  
G19  24538495.280   128950631.508          50.000                                                  
G24  23554289.680   123778545.719          50.000    23554293.740    92432020.887          50.000  
G25  20996752.980   110338620.129          50.000    20996755.300    82395721.668          50.000  
G29  23011730.680   120927432.902          50.000                                                  
E13  26006252.300   136663736.133          50.000    26006258.060   102054070.520          50.000  
E15  23097093.320   121376011.059          50.000    23097098.560    90637917.723          50.000  
E21  27651690.040   145310565.809          50.000    27651696.060   108511118.922          50.000  
E27  23683299.800   124456556.223          50.000    23683304.060    92938325.703          50.000  
E30  23003311.240   120883194.234          50.000    23003315.660    90269906.031          50.000  
> 2020  5 28 21 25 45.0000000  0 13       0.000000000000
G 2  21233900.660   111584917.824          50.000                                                  
G 5  22614991.080   118842478.191          50.000                                                  
G 6  22844704.000   120049672.895          50.000    22844707.000    89647481.359          50.000  
G12  20075466.480   105497293.563          50.000                                                  
G19  24539033.320   128953458.934          50.000                                                  
G24  23554880.960   123781652.918          50.000    23554885.020    92434341.191          50.000  
G25  20996380.060   110336660.449          50.000    20996382.400    82394258.266          50.000  
G29  23011307.020   120925206.570          50.000                                                  
E13  26005846.360   136661602.879          50.000    26005852.120   102052477.504          50.000  
E15  23097068.160   121375878.836          50.000    23097073.380    90637818.984          50.000  
E21  27651164.700   145307805.129          50.000    27651170.720   108509057.379          50.000  
E27  23683122.280   124455623.348          50.000    23683126.540    92937629.078          50.000  
E30  23003668.920   120885073.930          50.000    23003673.340    90271309.699          50.000  
> 2020  5 28 21 25 46.0000000  0 13       0.000000000000
G 2  21234183.000   111586401.527          50.000                                                  
G 5  22614449.380   118839631.547          50.000                                                  
G 6  22845279.860   120052699.145          50.000    22845282.880    89649741.219          50.000  
G12  20075433.300   105497119.277          50.000                                                  
G19  24539571.360   128956286.375          50.000                                                  
G24  23555472.260   123784760.211          50.000    23555476.320    92436661.566          50.000  
G25  20996007.240   110334701.199          50.000    20996009.560    82392795.188          50.000  
G29  23010883.400   120922980.363          50.000                                                  
E13  26005440.440   136659469.824          50.000    26005446.200   102050884.641          50.000  
E15  23097043.060   121375746.906          50.000    23097048.280    90637720.469          50.000  
E21  27650639.360   145305044.527          50.000    27650645.380   108506995.887          50.000  
E27  23682944.840   124454690.855          50.000    23682949.100    92936932.734          50.000  
E30  23004026.680   120886953.984          50.000    23004031.100    90272713.633          50.000  
> 2020  5 28 21 25 47.0000000  0 13       0.000000000000
G 2  21234465.420   111587885.586          50.000                                                  
G 5  22613907.740   118836785.215          50.000                                                  
G 6  22845855.780   120055725.625          50.000    22845858.800    89652001.246          50.000  
G12  20075400.240   105496945.539          50.000                                                  
G19  24540109.400   128959113.813          50.000                                                  
G24  23556063.580   123787867.605          50.000    23556067.640    92438982.020          50.000  
G25  20995634.480   110332742.371          50.000    20995636.800    82391332.422          50.000  
G29  23010459.780   120920754.281          50.000                                                  
E13  26005034.580   136657336.980          50.000    26005040.340   102049291.934          50.000  
E15  23097018.000   121375615.281          50.000    23097023.240    90637622.176          50.000  
E21  27650114.060   145302284.031          50.000    27650120.080   108504934.480          50.000  
E27  23682767.460   124453758.762          50.000    23682771.720    92936236.691          50.000  
E30  23004384.520   120888834.387          50.000    23004388.940    90274117.828          50.000  
> 2020  5 28 21 25 48.0000000  0 13       0.000000000000
G 2  21234747.900   111589370.023          50.000                                                  
G 5  22613366.160   118833939.184          50.000                                                  
G 6  22846431.760   120058752.313          50.000    22846434.760    89654261.430          50.000  
G12  20075367.280   105496772.352          50.000                                                  
G19  24540647.460   128961941.266          50.000                                                  
G24  23556654.920   123790975.094          50.000    23556658.980    92441302.539          50.000  
G25  20995261.820   110330783.973          50.000    20995264.140    82389869.977          50.000  
G29  23010036.200   120918528.320          50.000                                                  
E13  26004628.760   136655204.352          50.000    26004634.520   102047699.387          50.000  
E15  23096993.020   121375483.953          50.000    23096998.240    90637524.105          50.000  
E21  27649588.780   145299523.625          50.000    27649594.800   108502873.141          50.000  
E27  23682590.160   124452827.066          50.000    23682594.420    92935540.945          50.000  
E30  23004742.420   120890715.141          50.000    23004746.840    90275522.289          50.000  
> 2020  5 28 21 25 49.0000000  0 13       0.000000000000
G 2  21235030.440   111590854.816          50.000                                                  
G 5  22612824.640   118831093.473          50.000                                                  
G 6  22847007.760   120061779.223          50.000    22847010.760    89656521.777          50.000  
G12  20075334.440   105496599.688          50.000                                                  
G19  24541185.500   128964768.727          50.000                                                  
G24  23557246.280   123794082.695          50.000    23557250.340    92443623.148          50.000  
G25  20994889.220   110328825.992          50.000    20994891.540    82388407.848          50.000  
G29  23009612.640   120916302.480          50.000                                                  
E13  26004222.960   136653071.934          50.000    26004228.720   102046106.996          50.000  
E15  23096968.080   121375352.922          50.000    23096973.320    90637426.258          50.000  
E21  27649063.500   145296763.316          50.000    27649069.520   108500811.871          50.000  
E27  23682412.940   124451895.754          50.000    23682417.200    92934845.484          50.000  
E30  23005100.380   120892596.254          50.000    23005104.800    90276927.016          50.000  
> 2020  5 28 21 25 50.0000000  0 13       0.000000000000
G 2  21235313.060   111592339.977          50.000                                                  
G 5  22612283.180   118828248.082          50.000                                                  
G 6  22847583.800   120064806.340          50.000    22847586.800    89658782.285          50.000  
G12  20075301.680   105496427.574          50.000                                                  
G19  24541723.560   128967596.211          50.000                                                  
G24  23557837.660   123797190.434          50.000    23557841.740    92445943.855          50.000  
G25  20994516.720   110326868.449          50.000    20994519.040    82386946.039          50.000  
G29  23009189.100   120914076.770          50.000                                                  
E13  26003817.220   136650939.727          50.000    26003822.980   102044514.766          50.000  
E15  23096943.200   121375222.188          50.000    23096948.440    90637328.633          50.000  
E21  27648538.240   145294003.105          50.000    27648544.260   108498750.676          50.000  
E27  23682235.800   124450964.840          50.000    23682240.060    92934150.320          50.000  
E30  23005458.400   120894477.715          50.000    23005462.840    90278332.000          50.000  
> 2020  5 28 21 25 51.0000000  0 13       0.000000000000
G 2  21235595.740   111593825.496          50.000                                                  
G 5  22611741.780   118825402.996          50.000                                                  
G 6  22848159.880   120067833.676          50.000    22848162.900    89661042.949          50.000  
G12  20075269.040   105496256.000          50.000                                                  
G19  24542261.620   128970423.695          50.000                                                  
G24  23558429.060   123800298.285          50.000    23558433.140    92448264.648          50.000  
G25  20994144.280   110324911.320          50.000    20994146.620    82385484.543          50.000  
G29  23008765.580   120911851.191          50.000                                                  
E13  26003411.520   136648807.730          50.000    26003417.280   102042922.691          50.000  
E15  23096918.380   121375091.754          50.000    23096923.620    90637231.230          50.000  
E21  27648013.020   145291242.980          50.000    27648019.040   108496689.543          50.000  
E27  23682058.720   124450034.309          50.000    23682062.980    92933455.445          50.000  
E30  23005816.500   120896359.531          50.000    23005820.920    90279737.254          50.000  
> 2020  5 28 21 25 52.0000000  0 13       0.000000000000
G 2  21235878.500   111595311.383          50.000                                                  
G 5  22611200.440   118822558.227          50.000                                                  
G 6  22848736.000   120070861.227          50.000    22848739.020    89663303.777          50.000  
G12  20075236.480   105496084.969          50.000                                                  
G19  24542799.660   128973251.195          50.000                                                  
G24  23559020.500   123803406.270          50.000    23559024.580    92450585.539          50.000  
G25  20993771.940   110322954.617          50.000    20993774.260    82384023.367          50.000  
G29  23008342.080   120909625.723          50.000                                                  
E13  26003005.840   136646675.938          50.000    26003011.600   102041330.770          50.000  
E15  23096893.620   121374961.617          50.000    23096898.840    90637134.051          50.000  
E21  27647487.800   145288482.961          50.000    27647493.820   108494628.492          50.000  
E27  23681881.720   124449104.180          50.000    23681885.980    92932760.867          50.000  
E30  23006174.680   120898241.695          50.000    23006179.100    90281142.762          50.000  
> 2020  5 28 21 25 53.0000000  0 13       0.000000000000
G 2  21236161.320   111596797.621          50.000                                                  
G 5  22610659.160   118819713.758          50.000                                                  
G 6  22849312.140   120073889.086          50.000    22849315.180    89665564.773          50.000  
G12  20075204.040   105495914.430          50.000                                                  
G19  24543337.720   128976078.645          50.000                                                  
G24  23559611.920   123806514.500          50.000    23559616.000    92452906.582          50.000  
G25  20993399.660   110320998.332          50.000    20993402.020    82382562.379          50.000  
G29  23007918.600   120907400.453          50.000                                                  
E13  26002600.200   136644544.438          50.000    26002605.940   102039739.113          50.000  
E15  23096868.900   121374831.793          50.000    23096874.140    90637037.113          50.000  
E21  27646962.600   145285723.016          50.000    27646968.620   108492567.492          50.000  
E27  23681704.800   124448174.438          50.000    23681709.060    92932066.578          50.000  
E30  23006532.920   120900124.113          50.000    23006537.360    90282548.410          50.000  
> 2020  5 28 21 25 54.0000000  0 13       0.000000000000
G 2  21236444.220   111598284.234          50.000                                                  
G 5  22610117.920   118816869.617          50.000                                                  
G 6  22849888.360   120076917.078          50.000    22849891.380    89667825.934          50.000  
G12  20075171.700   105495744.484          50.000                                                  
G19  24543875.780   128978906.156          50.000                                                  
G24  23560203.380   123809622.707          50.000    23560207.480    92455227.645          50.000  
G25  20993027.480   110319042.473          50.000    20993029.840    82381101.840          50.000  
G29  23007495.140   120905175.234          50.000                                                  
E13  26002194.620   136642413.082          50.000    26002200.360   102038147.516          50.000  
E15  23096844.260   121374702.258          50.000    23096849.480    90636940.379          50.000  
E21  27646437.420   145282963.191          50.000    27646443.440   108490506.586          50.000  
E27  23681527.940   124447245.090          50.000    23681532.200    92931372.586          50.000  
E30  23006891.220   120902006.988          50.000    23006895.660    90283954.449          50.000  
> 2020  5 28 21 25 55.0000000  0 13       0.000000000000
G 2  21236727.180   111599771.215          50.000                                                  
G 5  22609576.760   118814025.801          50.000                                                  
G 6  22850464.600   120079945.285          50.000    22850467.640    89670087.258          50.000  
G12  20075139.480   105495575.094          50.000                                                  
G19  24544413.840   128981733.695          50.000                                                  
G24  23560794.880   123812731.016          50.000    23560798.960    92457548.781          50.000  
G25  20992655.360   110317087.051          50.000    20992657.720    82379641.617          50.000  
G29  23007071.720   120902950.152          50.000                                                  
E13  26001789.080   136640281.934          50.000    26001794.820   102036556.074          50.000  
E15  23096819.660   121374573.023          50.000    23096824.880    90636843.875          50.000  
E21  27645912.260   145280203.465          50.000    27645918.280   108488445.754          50.000  
E27  23681351.160   124446316.133          50.000    23681355.440    92930678.883          50.000  
E30  23007249.580   120903890.219          50.000    23007254.020    90285360.758          50.000  
> 2020  5 28 21 25 56.0000000  0 13       0.000000000000
G 2  21237010.200   111601258.551          50.000                                                  
G 5  22609035.660   118811182.277          50.000                                                  
G 6  22851040.880   120082973.707          50.000    22851043.920    89672348.738          50.000  
G12  20075107.340   105495406.238          50.000                                                  
G19  24544951.900   128984561.242          50.000                                                  
G24  23561386.380   123815839.430          50.000    23561390.480    92459869.996          50.000  
G25  20992283.340   110315132.055          50.000    20992285.700    82378181.719          50.000  
G29  23006648.320   120900725.180          50.000                                                  
E13  26001383.560   136638150.992          50.000    26001389.300   102034964.789          50.000  
E15  23096795.120   121374444.078          50.000    23096800.340    90636747.586          50.000  
E21  27645387.120   145277443.824          50.000    27645393.140   108486384.980          50.000  
E27  23681174.460   124445387.566          50.000    23681178.740    92929985.477          50.000  
E30  23007608.020   120905773.793          50.000    23007612.440    90286767.324          50.000  
> 2020  5 28 21 25 57.0000000  0 13       0.000000000000
G 2  21237293.300   111602746.242          50.000                                                  
G 5  22608494.620   118808339.074          50.000                                                  
G 6  22851617.220   120086002.344          50.000    22851620.260    89674610.383          50.000  
G12  20075075.300   105495237.930          50.000                                                  
G19  24545489.980   128987388.789          50.000                                                  
G24  23561977.920   123818947.938          50.000    23561982.000    92462191.285          50.000  
G25  20991911.400   110313177.480          50.000    20991913.760    82376722.137          50.000  
G29  23006224.940   120898500.332          50.000                                                  
E13  26000978.100   136636020.266          50.000    26000983.840   102033373.664          50.000  
E15  23096770.640   121374315.438          50.000    23096775.860    90636651.520          50.000  
E21  27644861.980   145274684.289          50.000    27644868.000   108484324.293          50.000  
E27  23680997.840   124444459.391          50.000    23681002.100    92929292.355          50.000  
E30  23007966.500   120907657.711          50.000    23007970.940    90288174.145          50.000  
> 2020  5 28 21 25 58.0000000  0 13       0.000000000000
G 2  21237576.460   111604234.313          50.000                                                  
G 5  22607953.620   118805496.203          50.000                                                  
G 6  22852193.580   120089031.199          50.000    22852196.620    89676872.184          50.000  
G12  20075043.380   105495070.172          50.000                                                  
G19  24546028.040   128990216.363          50.000                                                  
G24  23562569.460   123822056.594          50.000    23562573.560    92464512.680          50.000  
G25  20991539.540   110311223.340          50.000    20991541.900    82375262.875          50.000  
G29  23005801.600   120896275.625          50.000                                                  
E13  26000572.680   136633889.754          50.000    26000578.420   102031782.699          50.000  
E15  23096746.220   121374187.094          50.000    23096751.440    90636555.680          50.000  
E21  27644336.880   145271924.848          50.000    27644342.900   108482263.672          50.000  
E27  23680821.280   124443531.613          50.000    23680825.540    92928599.535          50.000  
E30  23008325.080   120909541.988          50.000    23008329.520    90289581.234          50.000  
> 2020  5 28 21 25 59.0000000  0 13       0.000000000000
G 2  21237859.700   111605722.742          50.000                                                  
G 5  22607412.700   118802653.641          50.000                                                  
G 6  22852770.000   120092060.270          50.000    22852773.040    89679134.152          50.000  
G12  20075011.560   105494902.953          50.000                                                  
G19  24546566.100   128993043.949          50.000                                                  
G24  23563161.040   123825165.348          50.000    23563165.140    92466834.152          50.000  
G25  20991167.740   110309269.617          50.000    20991170.100    82373803.926          50.000  
G29  23005378.260   120894051.035          50.000                                                  
E13  26000167.280   136631759.445          50.000    26000173.020   102030191.883          50.000  
E15  23096721.840   121374059.051          50.000    23096727.080    90636460.063          50.000  
E21  27643811.800   145269165.500          50.000    27643817.800   108480203.121          50.000  
E27  23680644.800   124442604.227          50.000    23680649.080    92927907.008          50.000  
E30  23008683.700   120911426.621          50.000    23008688.140    90290988.590          50.000  
> 2020  5 28 21 26  0.0000000  0 13       0.000000000000
G 2  21238143.000   111607211.539          50.000                                                  
G 5  22606871.840   118799811.391          50.000                                                  
G 6  22853346.460   120095089.555          50.000    22853349.480    89681396.281          50.000  
G12  20074979.840   105494736.277          50.000                                                  
G19  24547104.180   128995871.523          50.000                                                  
G24  23563752.640   123828274.215          50.000    23563756.720    92469155.707          50.000  
G25  20990796.040   110307316.320          50.000    20990798.400    82372345.297          50.000  
G29  23004954.960   120891826.574          50.000                                                  
E13  25999761.940   136629629.352          50.000    25999767.680   102028601.230          50.000  
E15  23096697.540   121373931.301          50.000    23096702.760    90636364.664          50.000  
E21  27643286.720   145266406.242          50.000    27643292.740   108478142.641          50.000  
E27  23680468.400   124441677.227          50.000    23680472.660    92927214.766          50.000  
E30  23009042.400   120913311.598          50.000    23009046.840    90292396.203          50.000  
> 2020  5 28 21 26  1.0000000  0 13       0.000000000000
G 2  21238426.380   111608700.691          50.000                                                  
G 5  22606331.020   118796969.461          50.000                                                  
G 6  22853922.940   120098119.059          50.000    22853925.980    89683658.570          50.000  
G12  20074948.220   105494570.148          50.000                                                  
G19  24547642.240   128998699.121          50.000                                                  
G24  23564344.260   123831383.207          50.000    23564348.340    92471477.352          50.000  
G25  20990424.420   110305363.438          50.000    20990426.780    82370886.973          50.000  
G29  23004531.680   120889602.234          50.000                                                  
E13  25999356.640   136627499.469          50.000    25999362.380   102027010.734          50.000  
E15  23096673.280   121373803.848          50.000    23096678.500    90636269.488          50.000  
E21  27642761.660   145263647.090          50.000    27642767.680   108476082.230          50.000  
E27  23680292.080   124440750.621          50.000    23680296.340    92926522.820          50.000  
E30  23009401.160   120915196.926          50.000    23009405.600    90293804.074          50.000  
> 2020  5 28 21 26  2.0000000  0 13       0.000000000000
G 2  21238709.820   111610190.207          50.000                                                  
G 5  22605790.280   118794127.832          50.000                                                  
G 6  22854499.480   120101148.766          50.000    22854502.520    89685921.012          50.000  
G12  20074916.700   105494404.559          50.000                                                  
G19  24548180.320   129001526.730          50.000                                                  
G24  23564935.900   123834492.293          50.000    23564939.980    92473799.074          50.000  
G25  20990052.880   110303410.996          50.000    20990055.240    82369428.984          50.000  
G29  23004108.420   120887378.008          50.000                                                  
E13  25998951.360   136625369.793          50.000    25998957.100   102025420.395          50.000  
E15  23096649.080   121373676.695          50.000    23096654.300    90636174.539          50.000  
E21  27642236.640   145260888.020          50.000    27642242.640   108474021.891          50.000  
E27  23680115.820   124439824.406          50.000    23680120.080    92925831.168          50.000  
E30  23009760.000   120917082.613          50.000    23009764.440    90295212.219          50.000  
> 2020  5 28 21 26  3.0000000  0 13       0.000000000000
G 2  21238993.340   111611680.078          50.000                                                  
G 5  22605249.600   118791286.523          50.000                                                  
G 6  22855076.060   120104178.699          50.000    22855079.080    89688183.629          50.000  
G12  20074885.300   105494239.512          50.000                                                  
G19  24548718.400   129004354.344          50.000                                                  
G24  23565527.560   123837601.484          50.000    23565531.640    92476120.875          50.000  
G25  20989681.420   110301458.973          50.000    20989683.780    82367971.309          50.000  
G29  23003685.180   120885153.910          50.000                                                  
E13  25998546.140   136623240.336          50.000    25998551.880   102023830.215          50.000  
E15  23096624.940   121373549.848          50.000    23096630.160    90636079.813          50.000  
E21  27641711.620   145258129.066          50.000    27641717.640   108471961.633          50.000  
E27  23679939.640   124438898.594          50.000    23679943.900    92925139.813          50.000  
E30  23010118.900   120918968.656          50.000    23010123.340    90296620.625          50.000  
> 2020  5 28 21 26  4.0000000  0 13       0.000000000000
G 2  21239276.920   111613170.320          50.000                                                  
G 5  22604708.960   118788445.520          50.000                                                  
G 6  22855652.660   120107208.840          50.000    22855655.700    89690446.398          50.000  
G12  20074854.000   105494075.016          50.000                                                  
G19  24549256.480   129007181.969          50.000                                                  
G24  23566119.240   123840710.781          50.000    23566123.320    92478442.754          50.000  
G25  20989310.040   110299507.375          50.000    20989312.400    82366513.949          50.000  
G29  23003261.980   120882929.941          50.000                                                  
E13  25998140.960   136621111.078          50.000    25998146.700   102022240.188          50.000  
E15  23096600.860   121373423.289          50.000    23096606.080    90635985.309          50.000  
E21  27641186.620   145255370.199          50.000    27641192.640   108469901.441          50.000  
E27  23679763.540   124437973.164          50.000    23679767.800    92924448.746          50.000  
E30  23010477.860   120920855.039          50.000    23010482.300    90298029.289          50.000  
> 2020  5 28 21 26  5.0000000  0 13       0.000000000000
G 2  21239560.560   111614660.922          50.000                                                  
G 5  22604168.400   118785604.828          50.000                                                  
G 6  22856229.320   120110239.199          50.000    22856232.360    89692709.328          50.000  
G12  20074822.800   105493911.063          50.000                                                  
G19  24549794.560   129010009.609          50.000                                                  
G24  23566710.940   123843820.184          50.000    23566715.020    92480764.707          50.000  
G25  20988938.740   110297556.207          50.000    20988941.100    82365056.910          50.000  
G29  23002838.800   120880706.090          50.000                                                  
E13  25997735.800   136618982.035          50.000    25997741.540   102020650.320          50.000  
E15  23096576.820   121373297.035          50.000    23096582.060    90635891.027          50.000  
E21  27640661.640   145252611.422          50.000    27640667.660   108467841.316          50.000  
E27  23679587.500   124437048.133          50.000    23679591.780    92923757.973          50.000  
E30  23010836.900   120922741.777          50.000    23010841.340    90299438.215          50.000  
> 2020  5 28 21 26  6.0000000  0 13       0.000000000000
G 2  21239844.280   111616151.883          50.000                                                  
G 5  22603627.900   118782764.461          50.000                                                  
G 6  22856806.020   120113269.773          50.000    22856809.060    89694972.418          50.000  
G12  20074791.700   105493747.652          50.000                                                  
G19  24550332.640   129012837.246          50.000                                                  
G24  23567302.660   123846929.691          50.000    23567306.740    92483086.742          50.000  
G25  20988567.520   110295605.461          50.000    20988569.880    82363600.184          50.000  
G29  23002415.620   120878482.355          50.000                                                  
E13  25997330.700   136616853.203          50.000    25997336.440   102019060.609          50.000  
E15  23096552.860   121373171.074          50.000    23096558.080    90635796.965          50.000  
E21  27640136.680   145249852.746          50.000    27640142.700   108465781.270          50.000  
E27  23679411.560   124436123.492          50.000    23679415.820    92923067.496          50.000  
E30  23011196.000   120924628.867          50.000    23011200.440    90300847.406          50.000  
> 2020  5 28 21 26  7.0000000  0 13       0.000000000000
G 2  21240128.080   111617643.203          50.000                                                  
G 5  22603087.440   118779924.406          50.000                                                  
G 6  22857382.760   120116300.551          50.000    22857385.800    89697235.660          50.000  
G12  20074760.700   105493584.781          50.000                                                  
G19  24550870.720   129015664.898          50.000                                                  
G24  23567894.400   123850039.324          50.000    23567898.480    92485408.871          50.000  
G25  20988196.380   110293655.125          50.000    20988198.740    82362143.766          50.000  
G29  23001992.480   120876258.762          50.000                                                  
E13  25996925.640   136614724.590          50.000    25996931.380   102017471.063          50.000  
E15  23096528.940   121373045.410          50.000    23096534.180    90635703.125          50.000  
E21  27639611.740   145247094.172          50.000    27639617.760   108463721.293          50.000  
E27  23679235.680   124435199.242          50.000    23679239.940    92922377.309          50.000  
E30  23011555.160   120926516.305          50.000    23011559.600    90302256.855          50.000  
> 2020  5 28 21 26  8.0000000  0 13       0.000000000000
G 2  21240411.940   111619134.891          50.000                                                  
G 5  22602547.060   118777084.660          50.000                                                  
G 6  22857959.540   120119331.555          50.000    22857962.580    89699499.070          50.000  
G12  20074729.800   105493422.461          50.000                                                  
G19  24551408.820   129018492.574          50.000                                                  
G24  23568486.160   123853149.055          50.000    23568490.240    92487731.066          50.000  
G25  20987825.320   110291705.219          50.000    20987827.680    82360687.668          50.000  
G29  23001569.380   120874035.285          50.000                                                  
E13  25996520.620   136612596.180          50.000    25996526.360   102015881.664          50.000  
E15  23096505.080   121372920.051          50.000    23096510.320    90635609.512          50.000  
E21  27639086.820   145244335.691          50.000    27639092.820   108461661.391          50.000  
E27  23679059.860   124434275.383          50.000    23679064.120    92921687.414          50.000  
E30  23011914.400   120928404.105          50.000    23011918.840    90303666.574          50.000  
> 2020  5 28 21 26  9.0000000  0 13       0.000000000000
G 2  21240695.860   111620626.941          50.000                                                  
G 5  22602006.720   118774245.230          50.000                                                  
G 6  22858536.360   120122362.770          50.000    22858539.400    89701762.641          50.000  
G12  20074699.020   105493260.680          50.000                                                  
G19  24551946.900   129021320.242          50.000                                                  
G24  23569077.940   123856258.895          50.000    23569082.020    92490053.352          50.000  
G25  20987454.360   110289755.754          50.000    20987456.720    82359231.898          50.000  
G29  23001146.280   120871811.926          50.000                                                  
E13  25996115.620   136610467.977          50.000    25996121.360   102014292.422          50.000  
E15  23096481.280   121372794.988          50.000    23096486.520    90635516.121          50.000  
E21  27638561.900   145241577.301          50.000    27638567.920   108459601.559          50.000  
E27  23678884.140   124433351.914          50.000    23678888.400    92920997.813          50.000  
E30  23012273.700   120930292.246          50.000    23012278.140    90305076.551          50.000  
> 2020  5 28 21 26 10.0000000  0 13       0.000000000000
G 2  21240979.860   111622119.340          50.000                                                  
G 5  22601466.460   118771406.109          50.000                                                  
G 6  22859113.220   120125394.191          50.000    22859116.260    89704026.367          50.000  
G12  20074668.340   105493099.426          50.000                                                  
G19  24552485.000   129024147.926          50.000                                                  
G24  23569669.740   123859368.844          50.000    23569673.840    92492375.719          50.000  
G25  20987083.460   110287806.699          50.000    20987085.820    82357776.441          50.000  
G29  23000723.200   120869588.688          50.000                                                  
E13  25995710.680   136608339.984          50.000    25995716.420   102012703.340          50.000  
E15  23096457.540   121372670.215          50.000    23096462.760    90635422.945          50.000  
E21  27638037.020   145238819.020          50.000    27638043.040   108457541.801          50.000  
E27  23678708.480   124432428.848          50.000    23678712.740    92920308.508          50.000  
E30  23012633.060   120932180.742          50.000    23012637.500    90306486.789          50.000  
> 2020  5 28 21 26 11.0000000  0 13       0.000000000000
G 2  21241263.920   111623612.113          50.000                                                  
G 5  22600926.260   118768567.313          50.000                                                  
G 6  22859690.120   120128425.828          50.000    22859693.160    89706290.254          50.000  
G12  20074637.760   105492938.730          50.000                                                  
G19  24553023.080   129026975.621          50.000                                                  
G24  23570261.560   123862478.910          50.000    23570265.660    92494698.172          50.000  
G25  20986712.660   110285858.070          50.000    20986715.000    82356321.301          50.000  
G29  23000300.160   120867365.578          50.000                                                  
E13  25995305.780   136606212.211          50.000    25995311.520   102011114.418          50.000  
E15  23096433.840   121372545.742          50.000    23096439.080    90635329.996          50.000  
E21  27637512.140   145236060.828          50.000    27637518.160   108455482.113          50.000  
E27  23678532.900   124431506.160          50.000    23678537.160    92919619.488          50.000  
E30  23012992.500   120934069.586          50.000    23012996.940    90307897.289          50.000  
> 2020  5 28 21 26 12.0000000  0 13       0.000000000000
G 2  21241548.040   111625105.242          50.000                                                  
G 5  22600386.100   118765728.824          50.000                                                  
G 6  22860267.060   120131457.680          50.000    22860270.100    89708554.301          50.000  
G12  20074607.280   105492778.566          50.000                                                  
G19  24553561.180   129029803.313          50.000                                                  
G24  23570853.420   123865589.090          50.000    23570857.500    92497020.715          50.000  
G25  20986341.920   110283909.875          50.000    20986344.280    82354866.484          50.000  
G29  22999877.140   120865142.598          50.000                                                  
E13  25994900.920   136604084.648          50.000    25994906.660   102009525.656          50.000  
E15  23096410.220   121372421.563          50.000    23096415.440    90635237.266          50.000  
E21  27636987.300   145233302.715          50.000    27636993.320   108453422.488          50.000  
E27  23678357.380   124430583.863          50.000    23678361.640    92918930.762          50.000  
E30  23013352.000   120935958.773          50.000    23013356.440    90309308.047          50.000  
> 2020  5 28 21 26 13.0000000  0 13       0.000000000000
G 2  21241832.260   111626598.742          50.000                                                  
G 5  22599846.020   118762890.668          50.000                                                  
G 6  22860844.060   120134489.750          50.000    22860847.080    89710818.512          50.000  
G12  20074576.900   105492618.949          50.000                                                  
G19  24554099.280   129032631.023          50.000                                                  
G24  23571445.280   123868699.367          50.000    23571449.380    92499343.324          50.000  
G25  20985971.280   110281962.109          50.000    20985973.620    82353411.984          50.000  
G29  22999454.140   120862919.734          50.000                                                  
E13  25994496.080   136601957.281          50.000    25994501.820   102007937.043          50.000  
E15  23096386.640   121372297.680          50.000    23096391.880    90635144.758          50.000  
E21  27636462.460   145230544.707          50.000    27636468.480   108451362.938          50.000  
E27  23678181.960   124429661.961          50.000    23678186.220    92918242.332          50.000  
E30  23013711.560   120937848.320          50.000    23013716.000    90310719.074          50.000  
> 2020  5 28 21 26 14.0000000  0 13       0.000000000000
G 2  21242116.520   111628092.594          50.000                                                  
G 5  22599306.000   118760052.820          50.000                                                  
G 6  22861421.080   120137522.027          50.000    22861424.100    89713082.879          50.000  
G12  20074546.640   105492459.879          50.000                                                  
G19  24554637.380   129035458.738          50.000                                                  
G24  23572037.180   123871809.762          50.000    23572041.260    92501666.023          50.000  
G25  20985600.700   110280014.781          50.000    20985603.060    82351957.816          50.000  
G29  22999031.180   120860697.008          50.000                                                  
E13  25994091.300   136599830.133          50.000    25994097.040   102006348.590          50.000  
E15  23096363.120   121372174.098          50.000    23096368.360    90635052.477          50.000  
E21  27635937.660   145227786.801          50.000    27635943.660   108449303.469          50.000  
E27  23678006.600   124428740.453          50.000    23678010.860    92917554.195          50.000  
E30  23014071.200   120939738.215          50.000    23014075.640    90312130.359          50.000  
> 2020  5 28 21 26 15.0000000  0 13       0.000000000000
G 2  21242400.860   111629586.813          50.000                                                  
G 5  22598766.040   118757215.273          50.000                                                  
G 6  22861998.140   120140554.527          50.000    22862001.180    89715347.410          50.000  
G12  20074516.460   105492301.355          50.000                                                  
G19  24555175.460   129038286.461          50.000                                                  
G24  23572629.080   123874920.285          50.000    23572633.180    92503988.820          50.000  
G25  20985230.220   110278067.871          50.000    20985232.580    82350503.961          50.000  
G29  22998608.220   120858474.387          50.000                                                  
E13  25993686.560   136597703.195          50.000    25993692.300   102004760.297          50.000  
E15  23096339.660   121372050.816          50.000    23096344.900    90634960.418          50.000  
E21  27635412.860   145225028.988          50.000    27635418.860   108447244.066          50.000  
E27  23677831.320   124427819.336          50.000    23677835.580    92916866.352          50.000  
E30  23014430.900   120941628.465          50.000    23014435.340    90313541.910          50.000  
> 2020  5 28 21 26 16.0000000  0 13       0.000000000000
G 2  21242685.280   111631081.387          50.000                                                  
G 5  22598226.120   118754378.059          50.000                                                  
G 6  22862575.240   120143587.234          50.000    22862578.280    89717612.098          50.000  
G12  20074486.400   105492143.367          50.000                                                  
G19  24555713.580   129041114.191          50.000                                                  
G24  23573221.020   123878030.910          50.000    23573225.100    92506311.691          50.000  
G25  20984859.820   110276121.367          50.000    20984862.160    82349050.406          50.000  
G29  22998185.300   120856251.902          50.000                                                  
E13  25993281.860   136595576.465          50.000    25993287.580   102003172.160          50.000  
E15  23096316.260   121371927.820          50.000    23096321.480    90634868.574          50.000  
E21  27634888.080   145222271.273          50.000    27634894.080   108445184.738          50.000  
E27  23677656.100   124426898.609          50.000    23677660.360    92916178.801          50.000  
E30  23014790.680   120943519.059          50.000    23014795.120    90314953.723          50.000  
> 2020  5 28 21 26 17.0000000  0 13       0.000000000000
G 2  21242969.760   111632576.328          50.000                                                  
G 5  22597686.280   118751541.145          50.000                                                  
G 6  22863152.400   120146620.156          50.000    22863155.420    89719876.945          50.000  
G12  20074456.440   105491985.922          50.000                                                  
G19  24556251.680   129043941.926          50.000                                                  
G24  23573812.980   123881141.641          50.000    23573817.060    92508634.641          50.000  
G25  20984489.500   110274175.309          50.000    20984491.840    82347597.184          50.000  
G29  22997762.400   120854029.539          50.000                                                  
E13  25992877.200   136593449.949          50.000    25992882.920   102001584.184          50.000  
E15  23096292.920   121371805.129          50.000    23096298.140    90634776.957          50.000  
E21  27634363.320   145219513.656          50.000    27634369.320   108443125.484          50.000  
E27  23677480.980   124425978.285          50.000    23677485.240    92915491.547          50.000  
E30  23015150.520   120945410.008          50.000    23015154.940    90316365.801          50.000  
> 2020  5 28 21 26 18.0000000  0 13       0.000000000000
G 2  21243254.300   111634071.621          50.000                                                  
G 5  22597146.500   118748704.555          50.000                                                  
G 6  22863729.580   120149653.297          50.000    22863732.620    89722141.953          50.000  
G12  20074426.580   105491829.020          50.000                                                  
G19  24556789.780   129046769.676          50.000                                                  
G24  23574404.940   123884252.477          50.000    23574409.040    92510957.672          50.000  
G25  20984119.260   110272229.664          50.000    20984121.600    82346144.273          50.000  
G29  22997339.520   120851807.301          50.000                                                  
E13  25992472.580   136591323.645          50.000    25992478.300   101999996.363          50.000  
E15  23096269.620   121371682.738          50.000    23096274.840    90634685.566          50.000  
E21  27633838.580   145216756.133          50.000    27633844.580   108441066.301          50.000  
E27  23677305.920   124425058.348          50.000    23677310.180    92914804.586          50.000  
E30  23015510.420   120947301.313          50.000    23015514.860    90317778.141          50.000  
> 2020  5 28 21 26 19.0000000  0 13       0.000000000000
G 2  21243538.920   111635567.285          50.000                                                  
G 5  22596606.760   118745868.273          50.000                                                  
G 6  22864306.800   120152686.645          50.000    22864309.840    89724407.121          50.000  
G12  20074396.840   105491672.656          50.000                                                  
G19  24557327.880   129049597.441          50.000                                                  
G24  23574996.940   123887363.414          50.000    23575001.020    92513280.773          50.000  
G25  20983749.080   110270284.441          50.000    20983751.440    82344691.676          50.000  
G29  22996916.660   120849585.176          50.000                                                  
E13  25992067.980   136589197.547          50.000    25992073.720   101998408.699          50.000  
E15  23096246.380   121371560.645          50.000    23096251.620    90634594.395          50.000  
E21  27633313.860   145213998.703          50.000    27633319.860   108439007.188          50.000  
E27  23677130.940   124424138.801          50.000    23677135.180    92914117.914          50.000  
E30  23015870.380   120949192.961          50.000    23015874.820    90319190.738          50.000  
> 2020  5 28 21 26 20.0000000  0 13       0.000000000000
G 2  21243823.600   111637063.305          50.000                                                  
G 5  22596067.100   118743032.309          50.000                                                  
G 6  22864884.080   120155720.219          50.000    22864887.100    89726672.453          50.000  
G12  20074367.180   105491516.840          50.000                                                  
G19  24557865.980   129052425.203          50.000                                                  
G24  23575588.960   123890474.465          50.000    23575593.040    92515603.965          50.000  
G25  20983379.000   110268339.656          50.000    20983381.360    82343239.406          50.000  
G29  22996493.820   120847363.180          50.000                                                  
E13  25991663.440   136587071.660          50.000    25991669.180   101996821.191          50.000  
E15  23096223.220   121371438.848          50.000    23096228.440    90634503.445          50.000  
E21  27632789.160   145211241.379          50.000    27632795.160   108436948.148          50.000  
E27  23676956.020   124423219.648          50.000    23676960.280    92913431.539          50.000  
E30  23016230.420   120951084.961          50.000    23016234.860    90320603.598          50.000  
> 2020  5 28 21 26 21.0000000  0 13       0.000000000000
G 2  21244108.340   111638559.684          50.000                                                  
G 5  22595527.500   118740196.660          50.000                                                  
G 6  22865461.380   120158753.988          50.000    22865464.420    89728937.934          50.000  
G12  20074337.640   105491361.566          50.000                                                  
G19  24558404.100   129055252.984          50.000                                                  
G24  23576180.980   123893585.594          50.000    23576185.060    92517927.215          50.000  
G25  20983009.000   110266395.301          50.000    20983011.360    82341787.457          50.000  
G29  22996071.020   120845141.320          50.000                                                  
E13  25991258.940   136584945.984          50.000    25991264.660   101995233.840          50.000  
E15  23096200.100   121371317.340          50.000    23096205.320    90634412.715          50.000  
E21  27632264.480   145208484.152          50.000    27632270.480   108434889.188          50.000  
E27  23676781.180   124422300.887          50.000    23676785.440    92912745.453          50.000  
E30  23016590.520   120952977.316          50.000    23016594.960    90322016.723          50.000  
> 2020  5 28 21 26 22.0000000  0 13       0.000000000000
G 2  21244393.160   111640056.434          50.000                                                  
G 5  22594987.940   118737361.324          50.000                                                  
G 6  22866038.740   120161787.977          50.000    22866041.760    89731203.578          50.000  
G12  20074308.200   105491206.840          50.000                                                  
G19  24558942.220   129058080.777          50.000                                                  
G24  23576773.040   123896696.852          50.000    23576777.120    92520250.559          50.000  
G25  20982639.080   110264451.367          50.000    20982641.440    82340335.820          50.000  
G29  22995648.240   120842919.578          50.000                                                  
E13  25990854.480   136582820.527          50.000    25990860.200   101993646.652          50.000  
E15  23096177.020   121371196.145          50.000    23096182.240    90634322.215          50.000  
E21  27631739.800   145205727.020          50.000    27631745.800   108432830.293          50.000  
E27  23676606.420   124421382.523          50.000    23676610.680    92912059.668          50.000  
E30  23016950.700   120954870.035          50.000    23016955.120    90323430.121          50.000  
> 2020  5 28 21 26 23.0000000  0 13       0.000000000000
G 2  21244678.060   111641553.535          50.000                                                  
G 5  22594448.460   118734526.305          50.000                                                  
G 6  22866616.120   120164822.180          50.000    22866619.160    89733469.383          50.000  
G12  20074278.840   105491052.652          50.000                                                  
G19  24559480.320   129060908.578          50.000                                                  
G24  23577365.120   123899808.223          50.000    23577369.200    92522573.984          50.000  
G25  20982269.260   110262507.867          50.000    20982271.600    82338884.508          50.000  
G29  22995225.480   120840697.953          50.000                                                  
E13  25990450.060   136580695.273          50.000    25990455.780   101992059.617          50.000  
E15  23096154.020   121371075.230          50.000    23096159.240    90634231.930          50.000  
E21  27631215.160   145202969.988          50.000    27631221.160   108430771.477          50.000  
E27  23676431.740   124420464.555          50.000    23676436.000    92911374.176          50.000  
E30  23017310.940   120956763.082          50.000    23017315.360    90324843.766          50.000  
> 2020  5 28 21 26 24.0000000  0 13       0.000000000000
G 2  21244963.020   111643051.004          50.000                                                  
G 5  22593909.040   118731691.609          50.000                                                  
G 6  22867193.560   120167856.598          50.000    22867196.580    89735735.348          50.000  
G12  20074249.620   105490899.008          50.000                                                  
G19  24560018.440   129063736.387          50.000                                                  
G24  23577957.200   123902919.703          50.000    23577961.300    92524897.496          50.000  
G25  20981899.500   110260564.793          50.000    20981901.840    82337433.520          50.000  
G29  22994802.740   120838476.465          50.000                                                  
E13  25990045.680   136578570.246          50.000    25990051.400   101990472.750          50.000  
E15  23096131.060   121370954.625          50.000    23096136.280    90634141.871          50.000  
E21  27630690.540   145200213.039          50.000    27630696.520   108428712.723          50.000  
E27  23676257.140   124419546.973          50.000    23676261.380    92910688.973          50.000  
E30  23017671.240   120958656.484          50.000    23017675.660    90326257.672          50.000  
> 2020  5 28 21 26 25.0000000  0 13       0.000000000000
G 2  21245248.040   111644548.840          50.000                                                  
G 5  22593369.660   118728857.223          50.000                                                  
G 6  22867771.040   120170891.227          50.000    22867774.060    89738001.469          50.000  
G12  20074220.480   105490745.918          50.000                                                  
G19  24560556.560   129066564.207          50.000                                                  
G24  23578549.320   123906031.273          50.000    23578553.400    92527221.074          50.000  
G25  20981529.820   110258622.141          50.000    20981532.160    82335982.840          50.000  
G29  22994380.020   120836255.098          50.000                                                  
E13  25989641.340   136576445.414          50.000    25989647.060   101988886.031          50.000  
E15  23096108.180   121370834.313          50.000    23096113.400    90634052.027          50.000  
E21  27630165.920   145197456.207          50.000    27630171.920   108426654.055          50.000  
E27  23676082.600   124418629.785          50.000    23676086.860    92910004.066          50.000  
E30  23018031.600   120960550.246          50.000    23018036.040    90327671.848          50.000  
> 2020  5 28 21 26 26.0000000  0 13       0.000000000000
G 2  21245533.140   111646047.031          50.000                                                  
G 5  22592830.360   118726023.152          50.000                                                  
G 6  22868348.540   120173926.066          50.000    22868351.560    89740267.746          50.000  
G12  20074191.440   105490593.363          50.000                                                  
G19  24561094.680   129069392.039          50.000                                                  
G24  23579141.460   123909142.961          50.000    23579145.540    92529544.742          50.000  
G25  20981160.240   110256679.918          50.000    20981162.580    82334532.484          50.000  
G29  22993957.340   120834033.840          50.000                                                  
E13  25989237.020   136574320.797          50.000    25989242.760   101987299.473          50.000  
E15  23096085.340   121370714.297          50.000    23096090.560    90633962.410          50.000  
E21  27629641.320   145194699.457          50.000    27629647.320   108424595.445          50.000  
E27  23675908.140   124417712.992          50.000    23675912.380    92909319.449          50.000  
E30  23018392.040   120962444.348          50.000    23018396.480    90329086.277          50.000  
> 2020  5 28 21 26 27.0000000  0 13       0.000000000000
G 2  21245818.300   111647545.574          50.000                                                  
G 5  22592291.100   118723189.387          50.000                                                  
G 6  22868926.100   120176961.125          50.000    22868929.120    89742534.188          50.000  
G12  20074162.520   105490441.352          50.000                                                  
G19  24561632.800   129072219.879          50.000                                                  
G24  23579733.620   123912254.777          50.000    23579737.700    92531868.500          50.000  
G25  20980790.720   110254738.113          50.000    20980793.060    82333082.441          50.000  
G29  22993534.660   120831812.719          50.000                                                  
E13  25988832.760   136572196.391          50.000    25988838.480   101985713.070          50.000  
E15  23096062.560   121370594.570          50.000    23096067.760    90633873.008          50.000  
E21  27629116.760   145191942.816          50.000    27629122.760   108422536.922          50.000  
E27  23675733.760   124416796.590          50.000    23675738.000    92908635.125          50.000  
E30  23018752.540   120964338.809          50.000    23018756.980    90330500.977          50.000  
> 2020  5 28 21 26 28.0000000  0 13       0.000000000000
G 2  21246103.540   111649044.480          50.000                                                  
G 5  22591751.920   118720355.941          50.000                                                  
G 6  22869503.680   120179996.387          50.000    22869506.720    89744800.781          50.000  
G12  20074133.700   105490289.887          50.000                                                  
G19  24562170.920   129075047.734          50.000                                                  
G24  23580325.800   123915366.703          50.000    23580329.880    92534192.344          50.000  
G25  20980421.280   110252796.730          50.000    20980423.620    82331632.711          50.000  
G29  22993112.020   120829591.711          50.000                                                  
E13  25988428.540   136570072.188          50.000    25988434.260   101984126.820          50.000  
E15  23096039.820   121370475.145          50.000    23096045.040    90633783.828          50.000  
E21  27628592.200   145189186.262          50.000    27628598.200   108420478.461          50.000  
E27  23675559.440   124415880.582          50.000    23675563.700    92907951.098          50.000  
E30  23019113.120   120966233.613          50.000    23019117.540    90331915.926          50.000  
> 2020  5 28 21 26 29.0000000  0 13       0.000000000000
G 2  21246388.840   111650543.746          50.000                                                  
G 5  22591212.800   118717522.828          50.000                                                  
G 6  22870081.320   120183031.867          50.000    22870084.340    89747067.539          50.000  
G12  20074104.980   105490138.973          50.000                                                  
G19  24562709.040   129077875.598          50.000                                                  
G24  23580918.000   123918478.738          50.000    23580922.080    92536516.270          50.000  
G25  20980051.940   110250855.801          50.000    20980054.280    82330183.320          50.000  
G29  22992689.400   120827370.836          50.000                                                  
E13  25988024.360   136567948.203          50.000    25988030.080   101982540.727          50.000  
E15  23096017.160   121370356.023          50.000    23096022.380    90633694.875          50.000  
E21  27628067.660   145186429.813          50.000    27628073.660   108418420.074          50.000  
E27  23675385.200   124414964.973          50.000    23675389.460    92907267.363          50.000  
E30  23019473.760   120968128.773          50.000    23019478.180    90333331.145          50.000  
> 2020  5 28 21 26 30.0000000  0 13       0.000000000000
G 2  21246674.220   111652043.379          50.000                                                  
G 5  22590673.740   118714690.023          50.000                                                  
G 6  22870659.000   120186067.566          50.000    22870662.020    89749334.465          50.000  
G12  20074076.360   105489988.598          50.000                                                  
G19  24563247.180   129080703.449          50.000                                                  
G24  23581510.220   123921590.875          50.000    23581514.300    92538840.270          50.000  
G25  20979682.680   110248915.293          50.000    20979685.000    82328734.242          50.000  
G29  22992266.800   120825150.070          50.000                                                  
E13  25987620.220   136565824.438          50.000    25987625.940   101980954.801          50.000  
E15  23095994.540   121370237.195          50.000    23095999.760    90633606.141          50.000  
E21  27627543.160   145183673.477          50.000    27627549.140   108416361.773          50.000  
E27  23675211.040   124414049.750          50.000    23675215.300    92906583.918          50.000  
E30  23019834.460   120970024.285          50.000    23019838.880    90334746.625          50.000  
> 2020  5 28 21 26 31.0000000  0 13       0.000000000000
G 2  21246959.640   111653543.363          50.000                                                  
G 5  22590134.720   118711857.539          50.000                                                  
G 6  22871236.720   120189103.473          50.000    22871239.740    89751601.535          50.000  
G12  20074047.860   105489838.770          50.000                                                  
G19  24563785.300   129083531.336          50.000                                                  
G24  23582102.460   123924703.109          50.000    23582106.540    92541164.340          50.000  
G25  20979313.480   110246975.203          50.000    20979315.820    82327285.477          50.000  
G29  22991844.240   120822929.438          50.000                                                  
E13  25987216.120   136563700.887          50.000    25987221.840   101979369.031          50.000  
E15  23095972.000   121370118.668          50.000    23095977.200    90633517.629          50.000  
E21  27627018.660   145180917.219          50.000    27627024.640   108414303.527          50.000  
E27  23675036.960   124413134.918          50.000    23675041.200    92905900.766          50.000  
E30  23020195.240   120971920.145          50.000    23020199.660    90336162.363          50.000  
> 2020  5 28 21 26 32.0000000  0 13       0.000000000000
G 2  21247245.160   111655043.719          50.000                                                  
G 5  22589595.780   118709025.363          50.000                                                  
G 6  22871814.460   120192139.590          50.000    22871817.480    89753868.770          50.000  
G12  20074019.440   105489689.488          50.000                                                  
G19  24564323.440   129086359.219          50.000                                                  
G24  23582694.720   123927815.449          50.000    23582698.800    92543488.492          50.000  
G25  20978944.380   110245035.559          50.000    20978946.720    82325837.047          50.000  
G29  22991421.680   120820708.926          50.000                                                  
E13  25986812.060   136561577.527          50.000    25986817.780   101977783.406          50.000  
E15  23095949.500   121370000.434          50.000    23095954.700    90633429.340          50.000  
E21  27626494.180   145178161.066          50.000    27626500.160   108412245.363          50.000  
E27  23674862.960   124412220.496          50.000    23674867.200    92905217.914          50.000  
E30  23020556.060   120973816.363          50.000    23020560.500    90337578.367          50.000  
> 2020  5 28 21 26 33.0000000  0 13       0.000000000000
G 2  21247530.740   111656544.430          50.000                                                  
G 5  22589056.900   118706193.508          50.000                                                  
G 6  22872392.260   120195175.922          50.000    22872395.280    89756136.164          50.000  
G12  20073991.140   105489540.742          50.000                                                  
G19  24564861.560   129089187.113          50.000                                                  
G24  23583287.000   123930927.902          50.000    23583291.080    92545812.730          50.000  
G25  20978575.360   110243096.340          50.000    20978577.700    82324388.934          50.000  
G29  22990999.160   120818488.543          50.000                                                  
E13  25986408.040   136559454.395          50.000    25986413.760   101976197.953          50.000  
E15  23095927.060   121369882.508          50.000    23095932.260    90633341.273          50.000  
E21  27625969.720   145175405.012          50.000    27625975.700   108410187.273          50.000  
E27  23674689.020   124411306.461          50.000    23674693.260    92904535.355          50.000  
E30  23020916.980   120975712.930          50.000    23020921.400    90338994.633          50.000  
> 2020  5 28 21 26 34.0000000  0 13       0.000000000000
G 2  21247816.380   111658045.492          50.000                                                  
G 5  22588518.080   118703361.969          50.000                                                  
G 6  22872970.100   120198212.457          50.000    22872973.120    89758403.707          50.000  
G12  20073962.940   105489392.543          50.000                                                  
G19  24565399.700   129092015.016          50.000                                                  
G24  23583879.300   123934040.461          50.000    23583883.380    92548137.047          50.000  
G25  20978206.420   110241157.527          50.000    20978208.740    82322941.121          50.000  
G29  22990576.660   120816268.281          50.000                                                  
E13  25986004.060   136557331.461          50.000    25986009.780   101974612.645          50.000  
E15  23095904.660   121369764.859          50.000    23095909.880    90633253.422          50.000  
E21  27625445.260   145172649.047          50.000    27625451.260   108408129.250          50.000  
E27  23674515.160   124410392.801          50.000    23674519.400    92903853.078          50.000  
E30  23021277.940   120977609.844          50.000    23021282.380    90340411.160          50.000  
> 2020  5 28 21 26 35.0000000  0 13       0.000000000000
G 2  21248102.080   111659546.926          50.000                                                  
G 5  22587979.300   118700530.746          50.000                                                  
G 6  22873547.980   120201249.211          50.000    22873551.000    89760671.418          50.000  
G12  20073934.840   105489244.898          50.000                                                  
G19  24565937.840   129094842.934          50.000                                                  
G24  23584471.620   123937153.133          50.000    23584475.700    92550461.449          50.000  
G25  20977837.560   110239219.168          50.000    20977839.880    82321493.648          50.000  
G29  22990154.180   120814048.148          50.000                                                  
E13  25985600.120   136555208.742          50.000    25985605.840   101973027.500          50.000  
E15  23095882.340   121369647.520          50.000    23095887.540    90633165.797          50.000  
E21  27624920.840   145169893.188          50.000    27624926.840   108406071.301          50.000  
E27  23674341.360   124409479.555          50.000    23674345.620    92903171.109          50.000  
E30  23021638.980   120979507.109          50.000    23021643.420    90341827.949          50.000  
> 2020  5 28 21 26 36.0000000  0 13       0.000000000000
G 2  21248387.880   111661048.715          50.000                                                  
G 5  22587440.600   118697699.848          50.000                                                  
G 6  22874125.880   120204286.180          50.000    22874128.900    89762939.285          50.000  
G12  20073906.860   105489097.789          50.000                                                  
G19  24566475.960   129097670.852          50.000                                                  
G24  23585063.960   123940265.914          50.000    23585068.040    92552785.930          50.000  
G25  20977468.780   110237281.215          50.000    20977471.100    82320046.484          50.000  
G29  22989731.720   120811828.137          50.000                                                  
E13  25985196.220   136553086.234          50.000    25985201.940   101971442.512          50.000  
E15  23095860.060   121369530.473          50.000    23095865.280    90633078.395          50.000  
E21  27624396.440   145167137.410          50.000    27624402.420   108404013.418          50.000  
E27  23674167.660   124408566.691          50.000    23674171.900    92902489.426          50.000  
E30  23022000.080   120981404.723          50.000    23022004.520    90343244.996          50.000  
> 2020  5 28 21 26 37.0000000  0 13       0.000000000000
G 2  21248673.720   111662550.871          50.000                                                  
G 5  22586901.960   118694869.258          50.000                                                  
G 6  22874703.840   120207323.355          50.000    22874706.860    89765207.309          50.000  
G12  20073878.960   105488951.219          50.000                                                  
G19  24567014.100   129100498.793          50.000                                                  
G24  23585656.340   123943378.801          50.000    23585660.400    92555110.488          50.000  
G25  20977100.080   110235343.695          50.000    20977102.400    82318599.641          50.000  
G29  22989309.280   120809608.234          50.000                                                  
E13  25984792.360   136550963.934          50.000    25984798.080   101969857.680          50.000  
E15  23095837.840   121369413.727          50.000    23095843.060    90632991.215          50.000  
E21  27623872.060   145164381.754          50.000    27623878.040   108401955.625          50.000  
E27  23673994.020   124407654.227          50.000    23673998.260    92901808.043          50.000  
E30  23022361.260   120983302.688          50.000    23022365.680    90344662.309          50.000  
> 2020  5 28 21 26 38.0000000  0 13       0.000000000000
G 2  21248959.640   111664053.387          50.000                                                  
G 5  22586363.380   118692038.980          50.000                                                  
G 6  22875281.840   120210360.742          50.000    22875284.860    89767475.492          50.000  
G12  20073851.180   105488805.203          50.000                                                  
G19  24567552.240   129103326.730          50.000                                                  
G24  23586248.720   123946491.809          50.000    23586252.800    92557435.141          50.000  
G25  20976731.460   110233406.617          50.000    20976733.800    82317153.121          50.000  
G29  22988886.880   120807388.473          50.000                                                  
E13  25984388.540   136548841.855          50.000    25984394.260   101968273.008          50.000  
E15  23095815.680   121369297.273          50.000    23095820.900    90632904.250          50.000  
E21  27623347.680   145161626.180          50.000    27623353.680   108399897.891          50.000  
E27  23673820.460   124406742.148          50.000    23673824.700    92901126.945          50.000  
E30  23022722.500   120985200.996          50.000    23022726.920    90346079.875          50.000  
> 2020  5 28 21 26 39.0000000  0 13       0.000000000000
G 2  21249245.620   111665556.258          50.000                                                  
G 5  22585824.860   118689209.023          50.000                                                  
G 6  22875859.880   120213398.340          50.000    22875862.900    89769743.832          50.000  
G12  20073823.500   105488659.727          50.000                                                  
G19  24568090.400   129106154.691          50.000                                                  
G24  23586841.120   123949604.910          50.000    23586845.200    92559759.863          50.000  
G25  20976362.920   110231469.949          50.000    20976365.260    82315706.914          50.000  
G29  22988464.500   120805168.824          50.000                                                  
E13  25983984.760   136546719.980          50.000    25983990.480   101966688.492          50.000  
E15  23095793.580   121369181.121          50.000    23095798.800    90632817.512          50.000  
E21  27622823.340   145158870.707          50.000    27622829.320   108397840.234          50.000  
E27  23673646.980   124405830.473          50.000    23673651.220    92900446.145          50.000  
E30  23023083.800   120987099.668          50.000    23023088.220    90347497.715          50.000  
> 2020  5 28 21 26 40.0000000  0 13       0.000000000000
G 2  21249531.680   111667059.496          50.000                                                  
G 5  22585286.400   118686379.402          50.000                                                  
G 6  22876437.960   120216436.160          50.000    22876440.980    89772012.336          50.000  
G12  20073795.920   105488514.793          50.000                                                  
G19  24568628.540   129108982.656          50.000                                                  
G24  23587433.560   123952718.129          50.000    23587437.620    92562084.672          50.000  
G25  20975994.480   110229533.715          50.000    20975996.800    82314261.027          50.000  
G29  22988042.140   120802949.301          50.000                                                  
E13  25983581.020   136544598.320          50.000    25983586.740   101965104.137          50.000  
E15  23095771.540   121369065.262          50.000    23095776.740    90632730.996          50.000  
E21  27622299.000   145156115.336          50.000    27622305.000   108395782.656          50.000  
E27  23673473.560   124404919.188          50.000    23673477.800    92899765.641          50.000  
E30  23023445.180   120988998.684          50.000    23023449.600    90348915.813          50.000  
> 2020  5 28 21 26 41.0000000  0 13       0.000000000000
G 2  21249817.820   111668563.094          50.000                                                  
G 5  22584748.000   118683550.098          50.000                                                  
G 6  22877016.080   120219474.180          50.000    22877019.080    89774280.988          50.000  
G12  20073768.440   105488370.402          50.000                                                  
G19  24569166.680   129111810.625          50.000                                                  
G24  23588026.000   123955831.457          50.000    23588030.080    92564409.559          50.000  
G25  20975626.100   110227597.910          50.000    20975628.420    82312815.465          50.000  
G29  22987619.800   120800729.906          50.000                                                  
E13  25983177.320   136542476.867          50.000    25983183.040   101963519.938          50.000  
E15  23095749.540   121368949.703          50.000    23095754.760    90632644.699          50.000  
E21  27621774.700   145153360.066          50.000    27621780.680   108393725.148          50.000  
E27  23673300.220   124404008.301          50.000    23673304.480    92899085.434          50.000  
E30  23023806.620   120990898.055          50.000    23023811.040    90350334.172          50.000  
> 2020  5 28 21 26 42.0000000  0 13       0.000000000000
G 2  21250104.000   111670067.043          50.000                                                  
G 5  22584209.660   118680721.105          50.000                                                  
G 6  22877594.220   120222512.414          50.000    22877597.240    89776549.801          50.000  
G12  20073741.060   105488226.563          50.000                                                  
G19  24569704.840   129114638.605          50.000                                                  
G24  23588618.460   123958944.895          50.000    23588622.540    92566734.535          50.000  
G25  20975257.820   110225662.527          50.000    20975260.140    82311370.215          50.000  
G29  22987197.480   120798510.637          50.000                                                  
E13  25982773.660   136540355.625          50.000    25982779.380   101961935.895          50.000  
E15  23095727.600   121368834.438          50.000    23095732.820    90632558.625          50.000  
E21  27621250.400   145150604.883          50.000    27621256.380   108391667.707          50.000  
E27  23673126.960   124403097.793          50.000    23673131.200    92898405.508          50.000  
E30  23024168.120   120992797.770          50.000    23024172.540    90351752.789          50.000  
> 2020  5 28 21 26 43.0000000  0 13       0.000000000000
G 2  21250390.260   111671571.359          50.000                                                  
G 5  22583671.380   118677892.434          50.000                                                  
G 6  22878172.420   120225550.859          50.000    22878175.440    89778818.773          50.000  
G12  20073713.800   105488083.262          50.000                                                  
G19  24570242.980   129117466.590          50.000                                                  
G24  23589210.960   123962058.438          50.000    23589215.020    92569059.582          50.000  
G25  20974889.600   110223727.582          50.000    20974891.920    82309925.293          50.000  
G29  22986775.200   120796291.484          50.000                                                  
E13  25982370.040   136538234.598          50.000    25982375.760   101960352.012          50.000  
E15  23095705.740   121368719.465          50.000    23095710.940    90632472.770          50.000  
E21  27620726.120   145147849.805          50.000    27620732.120   108389610.348          50.000  
E27  23672953.780   124402187.691          50.000    23672958.020    92897725.887          50.000  
E30  23024529.680   120994697.836          50.000    23024534.120    90353171.668          50.000  
> 2020  5 28 21 26 44.0000000  0 13       0.000000000000
G 2  21250676.600   111673076.035          50.000                                                  
G 5  22583133.160   118675064.086          50.000                                                  
G 6  22878750.660   120228589.520          50.000    22878753.680    89781087.906          50.000  
G12  20073686.620   105487940.500          50.000                                                  
G19  24570781.140   129120294.594          50.000                                                  
G24  23589803.460   123965172.086          50.000    23589807.540    92571384.711          50.000  
G25  20974521.480   110221793.059          50.000    20974523.800    82308480.688          50.000  
G29  22986352.920   120794072.457          50.000                                                  
E13  25981966.460   136536113.785          50.000    25981972.180   101958768.289          50.000  
E15  23095683.900   121368604.793          50.000    23095689.120    90632387.137          50.000  
E21  27620201.860   145145094.824          50.000    27620207.860   108387553.055          50.000  
E27  23672780.660   124401277.984          50.000    23672784.900    92897046.559          50.000  
E30  23024891.320   120996598.250          50.000    23024895.760    90354590.809          50.000  
> 2020  5 28 21 26 45.0000000  0 13       0.000000000000
G 2  21250963.000   111674581.074          50.000                                                  
G 5  22582595.000   118672236.055          50.000                                                  
G 6  22879328.940   120231628.387          50.000    22879331.960    89783357.195          50.000  
G12  20073659.560   105487798.289          50.000                                                  
G19  24571319.280   129123122.602          50.000                                                  
G24  23590396.000   123968285.840          50.000    23590400.060    92573709.922          50.000  
G25  20974153.440   110219858.961          50.000    20974155.760    82307036.395          50.000  
G29  22985930.680   120791853.559          50.000                                                  
E13  25981562.920   136533993.168          50.000    25981568.640   101957184.711          50.000  
E15  23095662.140   121368490.414          50.000    23095667.360    90632301.723          50.000  
E21  27619677.640   145142339.953          50.000    27619683.620   108385495.848          50.000  
E27  23672607.620   124400368.668          50.000    23672611.880    92896367.523          50.000  
E30  23025253.020   120998499.020          50.000    23025257.460    90356010.215          50.000  
> 2020  5 28 21 26 46.0000000  0 13       0.000000000000
G 2  21251249.460   111676086.461          50.000                                                  
G 5  22582056.900   118669408.336          50.000                                                  
G 6  22879907.260   120234667.473          50.000    22879910.280    89785626.645          50.000  
G12  20073632.600   105487656.621          50.000                                                  
G19  24571857.440   129125950.621          50.000                                                  
G24  23590988.540   123971399.711          50.000    23590992.620    92576035.215          50.000  
G25  20973785.460   110217925.305          50.000    20973787.780    82305592.438          50.000  
G29  22985508.460   120789634.789          50.000                                                  
E13  25981159.420   136531872.773          50.000    25981165.140   101955601.305          50.000  
E15  23095640.440   121368376.328          50.000    23095645.640    90632216.531          50.000  
E21  27619153.420   145139585.160          50.000    27619159.400   108383438.699          50.000  
E27  23672434.660   124399459.742          50.000    23672438.900    92895688.781          50.000  
E30  23025614.800   121000400.141          50.000    23025619.220    90357429.879          50.000  
> 2020  5 28 21 26 47.0000000  0 13       0.000000000000
G 2  21251536.000   111677592.211          50.000                                                  
G 5  22581518.860   118666580.938          50.000                                                  
G 6  22880485.620   120237706.758          50.000    22880488.640    89787896.242          50.000  
G12  20073605.760   105487515.500          50.000                                                  
G19  24572395.600   129128778.633          50.000                                                  
G24  23591581.120   123974513.676          50.000    23591585.180    92578360.582          50.000  
G25  20973417.580   110215992.074          50.000    20973419.900    82304148.797          50.000  
G29  22985086.260   120787416.145          50.000                                                  
E13  25980755.960   136529752.586          50.000    25980761.680   101954018.047          50.000  
E15  23095618.780   121368262.543          50.000    23095624.000    90632131.563          50.000  
E21  27618629.220   145136830.477          50.000    27618635.200   108381381.633          50.000  
E27  23672261.780   124398551.211          50.000    23672266.020    92895010.332          50.000  
E30  23025976.640   121002301.602          50.000    23025981.060    90358849.801          50.000  
> 2020  5 28 21 26 48.0000000  0 13       0.000000000000
G 2  21251822.600   111679098.324          50.000                                                  
G 5  22580980.880   118663753.863          50.000                                                  
G 6  22881064.020   120240746.258          50.000    22881067.020    89790166.000          50.000  
G12  20073579.000   105487374.930          50.000                                                  
G19  24572933.760   129131606.672          50.000                                                  
G24  23592173.700   123977627.727          50.000    23592177.760    92580686.012          50.000  
G25  20973049.780   110214059.270          50.000    20973052.100    82302705.473          50.000  
G29  22984664.100   120785197.617          50.000                                                  
E13  25980352.540   136527632.621          50.000    25980358.260   101952434.957          50.000  
E15  23095597.180   121368149.051          50.000    23095602.400    90632046.809          50.000  
E21  27618105.040   145134075.891          50.000    27618111.020   108379324.637          50.000  
E27  23672088.960   124397643.078          50.000    23672093.200    92894332.180          50.000  
E30  23026338.540   121004203.426          50.000    23026342.980    90360269.992          50.000  
> 2020  5 28 21 26 49.0000000  0 13       0.000000000000
G 2  21252109.260   111680604.805          50.000                                                  
G 5  22580442.960   118660927.129          50.000                                                  
G 6  22881642.460   120243785.980          50.000    22881645.460    89792435.934          50.000  
G12  20073552.360   105487234.902          50.000                                                  
G19  24573471.920   129134434.699          50.000                                                  
G24  23592766.320   123980741.949          50.000    23592770.380    92583011.578          50.000  
G25  20972682.060   110212126.914          50.000    20972684.380    82301262.488          50.000  
G29  22984241.940   120782979.211          50.000                                                  
E13  25979949.160   136525512.863          50.000    25979954.880   101950852.027          50.000  
E15  23095575.640   121368035.871          50.000    23095580.860    90631962.301          50.000  
E21  27617580.880   145131321.379          50.000    27617586.860   108377267.688          50.000  
E27  23671916.220   124396735.340          50.000    23671920.460    92893654.332          50.000  
E30  23026700.520   121006105.602          50.000    23026704.940    90361690.453          50.000  
> 2020  5 28 21 26 50.0000000  0 13       0.000000000000
G 2  21252396.000   111682111.629          50.000                                                  
G 5  22579905.120   118658100.703          50.000                                                  
G 6  22882220.940   120246825.902          50.000    22882223.940    89794706.008          50.000  
G12  20073525.820   105487095.422          50.000                                                  
G19  24574010.080   129137262.754          50.000                                                  
G24  23593358.940   123983856.242          50.000    23593363.000    92585337.188          50.000  
G25  20972314.420   110210194.973          50.000    20972316.740    82299819.813          50.000  
G29  22983819.820   120780760.938          50.000                                                  
E13  25979545.820   136523393.309          50.000    25979551.540   101949269.246          50.000  
E15  23095554.160   121367922.973          50.000    23095559.380    90631877.992          50.000  
E21  27617056.720   145128566.984          50.000    27617062.720   108375210.836          50.000  
E27  23671743.560   124395827.992          50.000    23671747.800    92892976.770          50.000  
E30  23027062.540   121008008.117          50.000    23027066.980    90363111.164          50.000  
> 2020  5 28 21 26 51.0000000  0 13       0.000000000000
G 2  21252682.820   111683618.828          50.000                                                  
G 5  22579367.320   118655274.602          50.000                                                  
G 6  22882799.460   120249866.031          50.000    22882802.460    89796976.234          50.000  
G12  20073499.380   105486956.480          50.000                                                  
G19  24574548.260   129140090.824          50.000                                                  
G24  23593951.600   123986970.641          50.000    23593955.660    92587662.871          50.000  
G25  20971946.880   110208263.445          50.000    20971949.180    82298377.438          50.000  
G29  22983397.720   120778542.781          50.000                                                  
E13  25979142.540   136521273.965          50.000    25979148.240   101947686.621          50.000  
E15  23095532.740   121367810.379          50.000    23095537.940    90631793.914          50.000  
E21  27616532.600   145125812.699          50.000    27616538.600   108373154.066          50.000  
E27  23671570.980   124394921.039          50.000    23671575.220    92892299.496          50.000  
E30  23027424.660   121009910.984          50.000    23027429.080    90364532.137          50.000  
> 2020  5 28 21 26 52.0000000  0 13       0.000000000000
G 2  21252969.700   111685126.379          50.000                                                  
G 5  22578829.600   118652448.805          50.000                                                  
G 6  22883378.000   120252906.367          50.000    22883381.020    89799246.613          50.000  
G12  20073473.040   105486818.086          50.000                                                  
G19  24575086.420   129142918.891          50.000                                                  
G24  23594544.260   123990085.133          50.000    23594548.340    92589988.629          50.000  
G25  20971579.400   110206332.359          50.000    20971581.700    82296935.391          50.000  
G29  22982975.640   120776324.754          50.000                                                  
E13  25978739.280   136519154.832          50.000    25978744.980   101946104.152          50.000  
E15  23095511.360   121367698.066          50.000    23095516.580    90631710.043          50.000  
E21  27616008.500   145123058.508          50.000    27616014.480   108371097.363          50.000  
E27  23671398.460   124394014.477          50.000    23671402.700    92891622.520          50.000  
E30  23027786.820   121011814.203          50.000    23027791.260    90365953.367          50.000  
> 2020  5 28 21 26 53.0000000  0 13       0.000000000000
G 2  21253256.640   111686634.289          50.000                                                  
G 5  22578291.920   118649623.328          50.000                                                  
G 6  22883956.600   120255946.922          50.000    22883959.620    89801517.156          50.000  
G12  20073446.800   105486680.234          50.000                                                  
G19  24575624.580   129145746.973          50.000                                                  
G24  23595136.940   123993199.691          50.000    23595141.020    92592314.434          50.000  
G25  20971212.000   110204401.691          50.000    20971214.320    82295493.660          50.000  
G29  22982553.580   120774106.852          50.000                                                  
E13  25978336.060   136517035.906          50.000    25978341.760   101944521.840          50.000  
E15  23095490.040   121367586.059          50.000    23095495.260    90631626.402          50.000  
E21  27615484.420   145120304.426          50.000    27615490.400   108369040.746          50.000  
E27  23671226.020   124393108.309          50.000    23671230.260    92890945.836          50.000  
E30  23028149.060   121013717.766          50.000    23028153.480    90367374.859          50.000  
> 2020  5 28 21 26 54.0000000  0 13       0.000000000000
G 2  21253543.660   111688142.563          50.000                                                  
G 5  22577754.320   118646798.184          50.000                                                  
G 6  22884535.240   120258987.684          50.000    22884538.260    89803787.855          50.000  
G12  20073420.680   105486542.934          50.000                                                  
G19  24576162.760   129148575.059          50.000                                                  
G24  23595729.660   123996314.379          50.000    23595733.720    92594640.336          50.000  
G25  20970844.700   110202471.461          50.000    20970847.000    82294052.254          50.000  
G29  22982131.560   120771889.070          50.000                                                  
E13  25977932.880   136514917.211          50.000    25977938.580   101942939.695          50.000  
E15  23095468.800   121367474.359          50.000    23095474.000    90631542.988          50.000  
E21  27614960.340   145117550.422          50.000    27614966.320   108366984.188          50.000  
E27  23671053.660   124392202.543          50.000    23671057.900    92890269.453          50.000  
E30  23028511.360   121015621.688          50.000    23028515.800    90368796.621          50.000  
> 2020  5 28 21 26 55.0000000  0 13       0.000000000000
G 2  21253830.740   111689651.195          50.000                                                  
G 5  22577216.760   118643973.355          50.000                                                  
G 6  22885113.920   120262028.664          50.000    22885116.940    89806058.715          50.000  
G12  20073394.660   105486406.180          50.000                                                  
G19  24576700.920   129151403.152          50.000                                                  
G24  23596322.380   123999429.156          50.000    23596326.440    92596966.305          50.000  
G25  20970477.460   110200541.672          50.000    20970479.780    82292611.180          50.000  
G29  22981709.560   120769671.410          50.000                                                  
E13  25977529.740   136512798.703          50.000    25977535.440   101941357.695          50.000  
E15  23095447.580   121367362.941          50.000    23095452.800    90631459.785          50.000  
E21  27614436.300   145114796.535          50.000    27614442.280   108364927.711          50.000  
E27  23670881.360   124391297.160          50.000    23670885.620    92889593.355          50.000  
E30  23028873.740   121017525.957          50.000    23028878.160    90370218.637          50.000  
