     3.03           OBSERVATION DATA    M: Mixed            RINEX VERSION / TYPE
sbp2rinex v2.2 (RTKL                    20210504 171522 UTC PGM / RUN BY / DATE 
log: 2020-05-14-US-MTV-2.sbp                                COMMENT             
format: Swift Navigation SBP, option: CONVBASE,EPHALL,OBSALLCOMMENT             
                                                            MARKER NAME         
                                                            MARKER NUMBER       
                                                            MARKER TYPE         
                                                            OBSERVER / AGENCY   
                                                            REC # / TYPE / VERS 
                                                            ANT # / TYPE        
 -2739568.5596 -4318147.4236  3798928.6359                  APPROX POSITION XYZ 
        0.0000        0.0000        0.0000                  ANTENNA: DELTA H/E/N
G    6 C1C L1C S1C C5I L5I S5I                              SYS / # / OBS TYPES 
E    6 C1B L1B S1B C5I L5I S5I                              SYS / # / OBS TYPES 
  2020     5    15     0    46   26.0000000     GPS         TIME OF FIRST OBS   
  2020     5    15     1    16   52.0000000     GPS         TIME OF LAST OBS    
G                                                           SYS / PHASE SHIFT   
E                                                           SYS / PHASE SHIFT   
  0                                                         GLONASS SLOT / FRQ #
 C1C    0.000 C1P    0.000 C2C    0.000 C2P    0.000        GLONASS COD/PHS/BIS 
                                                            END OF HEADER       
> 2020  5 15  0 46 26.0000000  0 15       0.000000000000
G 2  24944334.760   131083377.953          50.000                                                  
G 5  21823911.300   114685422.395          50.000                                                  
G12  23491500.180   123448637.676          50.000                                                  
G15  24370005.100   128065195.574          50.000                                                  
G21  22268672.520   117022643.883          50.000                                                  
G25  21702065.040   114045055.180          50.000    21702068.080    85163512.406          50.000  
G26  23742304.260   124766582.371          50.000    23742305.960    93169846.809          50.000  
G29  20473257.660   107587691.234          50.000                                                  
E 1  24911678.620   130911735.023          50.000    24911682.980    97758751.063          50.000  
E 7  26111640.740   137217554.352          50.000    26111646.540   102467638.488          50.000  
E 8  25347272.060   133200803.367          50.000    25347275.680    99468121.660          50.000  
E13  26584111.980   139700426.855          50.000    26584116.660   104321734.258          50.000  
E21  27307569.740   143502188.039          50.000    27307577.240   107160702.703          50.000  
E31  25833686.000   135756902.605          50.000    25833691.120   101376894.547          50.000  
E33  25147261.920   132149748.172          50.000    25147265.200    98683244.594          50.000  
> 2020  5 15  0 46 27.0000000  0 15       0.000000000000
G 2  24944796.840   131085806.164          50.000                                                  
G 5  21824331.300   114687629.520          50.000                                                  
G12  23492210.720   123452371.582          50.000                                                  
G15  24369434.600   128062197.602          50.000                                                  
G21  22268403.100   117021228.105          50.000                                                  
G25  21702601.740   114047875.512          50.000    21702604.780    85165618.496          50.000  
G26  23741800.560   124763935.395          50.000    23741802.260    93167870.172          50.000  
G29  20473142.620   107587086.680          50.000                                                  
E 1  24912024.100   130913550.508          50.000    24912028.460    97760106.781          50.000  
E 7  26111314.160   137215838.219          50.000    26111319.980   102466356.961          50.000  
E 8  25347367.940   133201307.223          50.000    25347371.560    99468497.918          50.000  
E13  26584464.240   139702278.070          50.000    26584468.920   104323116.656          50.000  
E21  27308166.960   143505326.449          50.000    27308174.460   107163046.320          50.000  
E31  25833518.400   135756021.852          50.000    25833523.520   101376236.840          50.000  
E33  25147026.680   132148511.980          50.000    25147029.960    98682321.465          50.000  
> 2020  5 15  0 46 28.0000000  0 15       0.000000000000
G 2  24945258.900   131088234.328          50.000                                                  
G 5  21824751.400   114689837.156          50.000                                                  
G12  23492921.300   123456105.637          50.000                                                  
G15  24368864.120   128059199.652          50.000                                                  
G21  22268133.740   117019812.566          50.000                                                  
G25  21703138.500   114050696.246          50.000    21703141.540    85167724.887          50.000  
G26  23741296.920   124761288.828          50.000    23741298.640    93165893.840          50.000  
G29  20473027.640   107586482.461          50.000                                                  
E 1  24912369.640   130915366.375          50.000    24912374.000    97761462.785          50.000  
E 7  26110987.660   137214122.410          50.000    26110993.480   102465075.676          50.000  
E 8  25347463.900   133201811.523          50.000    25347467.540    99468874.504          50.000  
E13  26584816.520   139704129.273          50.000    26584821.200   104324499.047          50.000  
E21  27308764.200   143508464.875          50.000    27308771.680   107165389.949          50.000  
E31  25833350.900   135755141.559          50.000    25833356.000   101375579.477          50.000  
E33  25146791.460   132147275.883          50.000    25146794.740    98681398.406          50.000  
> 2020  5 15  0 46 29.0000000  0 15       0.000000000000
G 2  24945720.960   131090662.441          50.000                                                  
G 5  21825171.600   114692045.313          50.000                                                  
G12  23493631.900   123459839.844          50.000                                                  
G15  24368293.620   128056201.719          50.000                                                  
G21  22267864.420   117018397.254          50.000                                                  
G25  21703675.360   114053517.398          50.000    21703678.380    85169831.590          50.000  
G26  23740793.380   124758642.656          50.000    23740795.080    93163917.805          50.000  
G29  20472912.720   107585878.586          50.000                                                  
E 1  24912715.260   130917182.621          50.000    24912719.620    97762819.074          50.000  
E 7  26110661.220   137212406.914          50.000    26110667.020   102463794.625          50.000  
E 8  25347559.960   133202316.277          50.000    25347563.580    99469251.434          50.000  
E13  26585168.800   139705980.477          50.000    26585173.480   104325881.441          50.000  
E21  27309361.420   143511603.313          50.000    27309368.900   107167733.586          50.000  
E31  25833183.460   135754261.750          50.000    25833188.580   101374922.480          50.000  
E33  25146556.240   132146039.887          50.000    25146559.540    98680475.422          50.000  
> 2020  5 15  0 46 30.0000000  0 15       0.000000000000
G 2  24946183.000   131093090.520          50.000                                                  
G 5  21825591.880   114694253.984          50.000                                                  
G12  23494342.520   123463574.203          50.000                                                  
G15  24367723.140   128053203.805          50.000                                                  
G21  22267595.140   117016982.180          50.000                                                  
G25  21704212.280   114056338.961          50.000    21704215.320    85171938.602          50.000  
G26  23740289.900   124755996.887          50.000    23740291.620    93161942.070          50.000  
G29  20472797.880   107585275.051          50.000                                                  
E 1  24913060.960   130918999.254          50.000    24913065.320    97764175.648          50.000  
E 7  26110334.820   137210691.738          50.000    26110340.640   102462513.816          50.000  
E 8  25347656.100   133202821.480          50.000    25347659.720    99469628.695          50.000  
E13  26585521.060   139707831.668          50.000    26585525.740   104327263.824          50.000  
E21  27309958.640   143514741.773          50.000    27309966.140   107170077.238          50.000  
E31  25833016.140   135753382.383          50.000    25833021.240   101374265.809          50.000  
E33  25146321.060   132144803.984          50.000    25146324.360    98679552.508          50.000  
> 2020  5 15  0 46 31.0000000  0 15       0.000000000000
G 2  24946645.040   131095518.555          50.000                                                  
G 5  21826012.280   114696463.188          50.000                                                  
G12  23495053.180   123467308.703          50.000                                                  
G15  24367152.660   128050205.906          50.000                                                  
G21  22267325.900   117015567.340          50.000                                                  
G25  21704749.280   114059160.938          50.000    21704752.320    85174045.922          50.000  
G26  23739786.500   124753351.512          50.000    23739788.220    93159966.629          50.000  
G29  20472683.100   107584671.848          50.000                                                  
E 1  24913406.720   130920816.270          50.000    24913411.080    97765532.512          50.000  
E 7  26110008.500   137208976.879          50.000    26110014.300   102461233.242          50.000  
E 8  25347752.320   133203327.145          50.000    25347755.940    99470006.297          50.000  
E13  26585873.340   139709682.859          50.000    26585878.020   104328646.207          50.000  
E21  27310555.880   143517880.234          50.000    27310563.380   107172420.895          50.000  
E31  25832848.880   135752503.492          50.000    25832854.000   101373609.496          50.000  
E33  25146085.900   132143568.176          50.000    25146089.200    98678629.664          50.000  
> 2020  5 15  0 46 32.0000000  0 15       0.000000000000
G 2  24947107.080   131097946.543          50.000                                                  
G 5  21826432.780   114698672.910          50.000                                                  
G12  23495763.860   123471043.367          50.000                                                  
G15  24366582.180   128047208.023          50.000                                                  
G21  22267056.700   117014152.730          50.000                                                  
G25  21705286.360   114061983.324          50.000    21705289.400    85176153.547          50.000  
G26  23739283.180   124750706.535          50.000    23739284.880    93157991.488          50.000  
G29  20472568.380   107584068.988          50.000                                                  
E 1  24913752.560   130922633.660          50.000    24913756.920    97766889.652          50.000  
E 7  26109682.220   137207262.328          50.000    26109688.040   102459952.895          50.000  
E 8  25347848.640   133203833.254          50.000    25347852.260    99470384.238          50.000  
E13  26586225.600   139711534.035          50.000    26586230.280   104330028.578          50.000  
E21  27311153.120   143521018.715          50.000    27311160.600   107174764.559          50.000  
E31  25832681.720   135751625.066          50.000    25832686.840   101372953.527          50.000  
E33  25145850.740   132142332.465          50.000    25145854.040    98677706.895          50.000  
> 2020  5 15  0 46 33.0000000  0 15       0.000000000000
G 2  24947569.100   131100374.500          50.000                                                  
G 5  21826853.380   114700883.145          50.000                                                  
G12  23496474.560   123474778.176          50.000                                                  
G15  24366011.700   128044210.168          50.000                                                  
G21  22266787.560   117012738.359          50.000                                                  
G25  21705823.520   114064806.137          50.000    21705826.560    85178261.488          50.000  
G26  23738779.940   124748061.965          50.000    23738781.640    93156016.645          50.000  
G29  20472453.720   107583466.469          50.000                                                  
E 1  24914098.480   130924451.441          50.000    24914102.840    97768247.086          50.000  
E 7  26109356.020   137205548.113          50.000    26109361.840   102458672.801          50.000  
E 8  25347945.020   133204339.816          50.000    25347948.640    99470762.516          50.000  
E13  26586577.860   139713385.215          50.000    26586582.540   104331410.953          50.000  
E21  27311750.360   143524157.207          50.000    27311757.840   107177108.238          50.000  
E31  25832514.660   135750747.102          50.000    25832519.780   101372297.906          50.000  
E33  25145615.620   132141096.855          50.000    25145618.920    98676784.199          50.000  
> 2020  5 15  0 46 34.0000000  0 15       0.000000000000
G 2  24948031.120   131102802.410          50.000                                                  
G 5  21827274.060   114703093.906          50.000                                                  
G12  23497185.300   123478513.125          50.000                                                  
G15  24365441.220   128041212.316          50.000                                                  
G21  22266518.460   117011324.215          50.000                                                  
G25  21706360.780   114067629.355          50.000    21706363.800    85180369.734          50.000  
G26  23738276.760   124745417.797          50.000    23738278.480    93154042.109          50.000  
G29  20472339.120   107582864.277          50.000                                                  
E 1  24914444.460   130926269.602          50.000    24914448.820    97769604.801          50.000  
E 7  26109029.880   137203834.207          50.000    26109035.680   102457392.934          50.000  
E 8  25348041.500   133204846.820          50.000    25348045.120    99471141.121          50.000  
E13  26586930.140   139715236.395          50.000    26586934.820   104332793.324          50.000  
E21  27312347.580   143527295.699          50.000    27312355.080   107179451.914          50.000  
E31  25832347.680   135749869.605          50.000    25832352.780   101371642.633          50.000  
E33  25145380.500   132139861.324          50.000    25145383.800    98675861.563          50.000  
> 2020  5 15  0 46 35.0000000  0 15       0.000000000000
G 2  24948493.120   131105230.277          50.000                                                  
G 5  21827694.860   114705305.176          50.000                                                  
G12  23497896.080   123482248.238          50.000                                                  
G15  24364870.760   128038214.492          50.000                                                  
G21  22266249.400   117009910.309          50.000                                                  
G25  21706898.080   114070452.973          50.000    21706901.120    85182478.281          50.000  
G26  23737773.680   124742774.027          50.000    23737775.380    93152067.867          50.000  
G29  20472224.600   107582262.434          50.000                                                  
E 1  24914790.520   130928088.145          50.000    24914794.880    97770962.805          50.000  
E 7  26108703.780   137202120.617          50.000    26108709.600   102456113.309          50.000  
E 8  25348138.080   133205354.293          50.000    25348141.700    99471520.078          50.000  
E13  26587282.400   139717087.563          50.000    26587287.080   104334175.688          50.000  
E21  27312944.820   143530434.223          50.000    27312952.320   107181795.617          50.000  
E31  25832180.780   135748992.566          50.000    25832185.900   101370987.699          50.000  
E33  25145145.420   132138625.902          50.000    25145148.700    98674939.008          50.000  
> 2020  5 15  0 46 36.0000000  0 15       0.000000000000
G 2  24948955.120   131107658.102          50.000                                                  
G 5  21828115.740   114707516.965          50.000                                                  
G12  23498606.880   123485983.484          50.000                                                  
G15  24364300.300   128035216.688          50.000                                                  
G21  22265980.380   117008496.637          50.000                                                  
G25  21707435.480   114073277.016          50.000    21707438.520    85184587.145          50.000  
G26  23737270.660   124740130.645          50.000    23737272.360    93150093.914          50.000  
G29  20472110.140   107581660.926          50.000                                                  
E 1  24915136.640   130929907.066          50.000    24915141.020    97772321.090          50.000  
E 7  26108377.760   137200407.340          50.000    26108383.580   102454833.914          50.000  
E 8  25348234.720   133205862.203          50.000    25348238.360    99471899.359          50.000  
E13  26587634.680   139718938.738          50.000    26587639.360   104335558.063          50.000  
E21  27313542.060   143533572.734          50.000    27313549.560   107184139.309          50.000  
E31  25832013.980   135748116.000          50.000    25832019.080   101370333.121          50.000  
E33  25144910.340   132137390.566          50.000    25144913.620    98674016.520          50.000  
> 2020  5 15  0 46 37.0000000  0 15       0.000000000000
G 2  24949417.120   131110085.891          50.000                                                  
G 5  21828536.740   114709729.285          50.000                                                  
G12  23499317.700   123489718.891          50.000                                                  
G15  24363729.840   128032218.891          50.000                                                  
G21  22265711.420   117007083.207          50.000                                                  
G25  21707972.960   114076101.445          50.000    21707976.000    85186696.297          50.000  
G26  23736767.720   124737487.680          50.000    23736769.420    93148120.273          50.000  
G29  20471995.740   107581059.750          50.000                                                  
E 1  24915482.840   130931726.355          50.000    24915487.220    97773679.648          50.000  
E 7  26108051.800   137198694.379          50.000    26108057.600   102453554.754          50.000  
E 8  25348331.460   133206370.563          50.000    25348335.080    99472278.980          50.000  
E13  26587986.940   139720789.887          50.000    26587991.620   104336940.410          50.000  
E21  27314139.320   143536711.266          50.000    27314146.800   107186483.016          50.000  
E31  25831847.260   135747239.883          50.000    25831852.360   101369678.879          50.000  
E33  25144675.280   132136155.324          50.000    25144678.560    98673094.098          50.000  
> 2020  5 15  0 46 38.0000000  0 15       0.000000000000
G 2  24949879.100   131112513.633          50.000                                                  
G 5  21828957.820   114711942.121          50.000                                                  
G12  23500028.560   123493454.457          50.000                                                  
G15  24363159.380   128029221.121          50.000                                                  
G21  22265442.500   117005670.000          50.000                                                  
G25  21708510.520   114078926.301          50.000    21708513.540    85188805.766          50.000  
G26  23736264.840   124734845.102          50.000    23736266.540    93146146.918          50.000  
G29  20471881.400   107580458.926          50.000                                                  
E 1  24915829.120   130933546.055          50.000    24915833.480    97775038.516          50.000  
E 7  26107725.900   137196981.746          50.000    26107731.700   102452275.844          50.000  
E 8  25348428.300   133206879.375          50.000    25348431.920    99472658.938          50.000  
E13  26588339.200   139722641.043          50.000    26588343.880   104338322.766          50.000  
E21  27314736.560   143539849.816          50.000    27314744.060   107188826.734          50.000  
E31  25831680.620   135746364.246          50.000    25831685.740   101369024.992          50.000  
E33  25144440.240   132134920.184          50.000    25144443.520    98672171.754          50.000  
> 2020  5 15  0 46 39.0000000  0 15       0.000000000000
G 2  24950341.080   131114941.328          50.000                                                  
G 5  21829379.020   114714155.477          50.000                                                  
G12  23500739.440   123497190.160          50.000                                                  
G15  24362588.920   128026223.367          50.000                                                  
G21  22265173.620   117004257.043          50.000                                                  
G25  21709048.140   114081751.563          50.000    21709051.180    85190915.535          50.000  
G26  23735762.060   124732202.930          50.000    23735763.760    93144173.871          50.000  
G29  20471767.120   107579858.426          50.000                                                  
E 1  24916175.460   130935366.113          50.000    24916179.840    97776397.652          50.000  
E 7  26107400.040   137195269.422          50.000    26107405.860   102450997.160          50.000  
E 8  25348525.200   133207388.645          50.000    25348528.820    99473039.234          50.000  
E13  26588691.460   139724492.188          50.000    26588696.140   104339705.113          50.000  
E21  27315333.820   143542988.371          50.000    27315341.300   107191170.461          50.000  
E31  25831514.080   135745489.070          50.000    25831519.200   101368371.453          50.000  
E33  25144205.220   132133685.137          50.000    25144208.500    98671249.477          50.000  
> 2020  5 15  0 46 40.0000000  0 15       0.000000000000
G 2  24950803.060   131117368.996          50.000                                                  
G 5  21829800.300   114716369.348          50.000                                                  
G12  23501450.340   123500926.016          50.000                                                  
G15  24362018.460   128023225.621          50.000                                                  
G21  22264904.780   117002844.305          50.000                                                  
G25  21709585.840   114084577.234          50.000    21709588.880    85193025.613          50.000  
G26  23735259.340   124729561.160          50.000    23735261.040    93142201.121          50.000  
G29  20471652.920   107579258.266          50.000                                                  
E 1  24916521.880   130937186.551          50.000    24916526.260    97777757.066          50.000  
E 7  26107074.260   137193557.418          50.000    26107080.080   102449718.719          50.000  
E 8  25348622.200   133207898.355          50.000    25348625.820    99473419.867          50.000  
E13  26589043.720   139726343.336          50.000    26589048.400   104341087.465          50.000  
E21  27315931.060   143546126.957          50.000    27315938.560   107193514.207          50.000  
E31  25831347.620   135744614.352          50.000    25831352.740   101367718.254          50.000  
E33  25143970.200   132132450.180          50.000    25143973.500    98670327.273          50.000  
> 2020  5 15  0 46 41.0000000  0 15       0.000000000000
G 2  24951265.020   131119796.609          50.000                                                  
G 5  21830221.680   114718583.734          50.000                                                  
G12  23502161.280   123504662.020          50.000                                                  
G15  24361448.020   128020227.902          50.000                                                  
G21  22264635.980   117001431.809          50.000                                                  
G25  21710123.640   114087403.316          50.000    21710126.680    85195136.000          50.000  
G26  23734756.700   124726919.789          50.000    23734758.400    93140228.672          50.000  
G29  20471538.780   107578658.445          50.000                                                  
E 1  24916868.380   130939007.375          50.000    24916872.740    97779116.773          50.000  
E 7  26106748.540   137191845.734          50.000    26106754.340   102448440.512          50.000  
E 8  25348719.280   133208408.520          50.000    25348722.900    99473800.832          50.000  
E13  26589395.980   139728194.480          50.000    26589400.660   104342469.813          50.000  
E21  27316528.320   143549265.523          50.000    27316535.820   107195857.941          50.000  
E31  25831181.260   135743740.102          50.000    25831186.380   101367065.406          50.000  
E33  25143735.220   132131215.324          50.000    25143738.520    98669405.141          50.000  
> 2020  5 15  0 46 42.0000000  0 15       0.000000000000
G 2  24951726.960   131122224.188          50.000                                                  
G 5  21830643.180   114720798.648          50.000                                                  
G12  23502872.260   123508398.176          50.000                                                  
G15  24360877.580   128017230.199          50.000                                                  
G21  22264367.240   117000019.539          50.000                                                  
G25  21710661.500   114090229.813          50.000    21710664.540    85197246.691          50.000  
G26  23734254.140   124724278.824          50.000    23734255.840    93138256.523          50.000  
G29  20471424.700   107578058.969          50.000                                                  
E 1  24917214.940   130940828.586          50.000    24917219.320    97780476.766          50.000  
E 7  26106422.880   137190134.355          50.000    26106428.680   102447162.539          50.000  
E 8  25348816.440   133208919.141          50.000    25348820.060    99474182.141          50.000  
E13  26589748.240   139730045.605          50.000    26589752.920   104343852.145          50.000  
E21  27317125.560   143552404.113          50.000    27317133.060   107198201.691          50.000  
E31  25831014.980   135742866.320          50.000    25831020.100   101366412.906          50.000  
E33  25143500.260   132129980.559          50.000    25143503.540    98668483.074          50.000  
> 2020  5 15  0 46 43.0000000  0 15       0.000000000000
G 2  24952188.920   131124651.727          50.000                                                  
G 5  21831064.760   114723014.074          50.000                                                  
G12  23503583.260   123512134.477          50.000                                                  
G15  24360307.140   128014232.527          50.000                                                  
G21  22264098.540   116998607.508          50.000                                                  
G25  21711199.440   114093056.730          50.000    21711202.480    85199357.703          50.000  
G26  23733751.660   124721638.254          50.000    23733753.360    93136284.672          50.000  
G29  20471310.700   107577459.828          50.000                                                  
E 1  24917561.580   130942650.172          50.000    24917565.940    97781837.043          50.000  
E 7  26106097.280   137188423.320          50.000    26106103.080   102445884.816          50.000  
E 8  25348913.700   133209430.207          50.000    25348917.320    99474563.781          50.000  
E13  26590100.500   139731896.742          50.000    26590105.180   104345234.488          50.000  
E21  27317722.820   143555542.723          50.000    27317730.320   107200545.453          50.000  
E31  25830848.800   135741992.996          50.000    25830853.920   101365760.750          50.000  
E33  25143265.300   132128745.883          50.000    25143268.600    98667561.078          50.000  
> 2020  5 15  0 46 44.0000000  0 15       0.000000000000
G 2  24952650.860   131127079.219          50.000                                                  
G 5  21831486.440   114725230.012          50.000                                                  
G12  23504294.280   123515870.941          50.000                                                  
G15  24359736.700   128011234.871          50.000                                                  
G21  22263829.880   116997195.703          50.000                                                  
G25  21711737.460   114095884.047          50.000    21711740.500    85201469.008          50.000  
G26  23733249.260   124718998.082          50.000    23733250.960    93134313.113          50.000  
G29  20471196.740   107576861.027          50.000                                                  
E 1  24917908.280   130944472.137          50.000    24917912.660    97783197.598          50.000  
E 7  26105771.740   137186712.582          50.000    26105777.540   102444607.316          50.000  
E 8  25349011.040   133209941.723          50.000    25349014.660    99474945.754          50.000  
E13  26590452.760   139733747.863          50.000    26590457.440   104346616.816          50.000  
E21  27318320.080   143558681.332          50.000    27318327.580   107202889.219          50.000  
E31  25830682.700   135741120.141          50.000    25830687.820   101365108.941          50.000  
E33  25143030.380   132127511.309          50.000    25143033.660    98666639.156          50.000  
> 2020  5 15  0 46 45.0000000  0 15       0.000000000000
G 2  24953112.780   131129506.676          50.000                                                  
G 5  21831908.220   114727446.500          50.000                                                  
G12  23505005.340   123519607.547          50.000                                                  
G15  24359166.260   128008237.230          50.000                                                  
G21  22263561.280   116995784.148          50.000                                                  
G25  21712275.560   114098711.770          50.000    21712278.600    85203580.621          50.000  
G26  23732746.920   124716358.316          50.000    23732748.620    93132341.863          50.000  
G29  20471082.860   107576262.566          50.000                                                  
E 1  24918255.080   130946294.492          50.000    24918259.440    97784558.449          50.000  
E 7  26105446.260   137185002.168          50.000    26105452.060   102443330.063          50.000  
E 8  25349108.460   133210453.699          50.000    25349112.080    99475328.074          50.000  
E13  26590805.020   139735598.980          50.000    26590809.700   104347999.145          50.000  
E21  27318917.360   143561819.965          50.000    27318924.840   107205233.000          50.000  
E31  25830516.700   135740247.754          50.000    25830521.800   101364457.484          50.000  
E33  25142795.460   132126276.828          50.000    25142798.740    98665717.305          50.000  
> 2020  5 15  0 46 46.0000000  0 15       0.000000000000
G 2  24953574.700   131131934.090          50.000                                                  
G 5  21832330.100   114729663.504          50.000                                                  
G12  23505716.420   123523344.301          50.000                                                  
G15  24358595.840   128005239.605          50.000                                                  
G21  22263292.700   116994372.824          50.000                                                  
G25  21712813.740   114101539.910          50.000    21712816.780    85205692.543          50.000  
G26  23732244.660   124713718.945          50.000    23732246.360    93130370.902          50.000  
G29  20470969.040   107575664.438          50.000                                                  
E 1  24918601.920   130948117.215          50.000    24918606.300    97785919.574          50.000  
E 7  26105120.820   137183292.070          50.000    26105126.640   102442053.043          50.000  
E 8  25349205.980   133210966.117          50.000    25349209.600    99475710.727          50.000  
E13  26591157.260   139737450.102          50.000    26591161.960   104349381.473          50.000  
E21  27319514.620   143564958.602          50.000    27319522.120   107207576.785          50.000  
E31  25830350.760   135739375.828          50.000    25830355.880   101363806.371          50.000  
E33  25142560.560   132125042.445          50.000    25142563.860    98664795.523          50.000  
> 2020  5 15  0 46 47.0000000  0 15       0.000000000000
G 2  24954036.620   131134361.457          50.000                                                  
G 5  21832752.080   114731881.031          50.000                                                  
G12  23506427.520   123527081.203          50.000                                                  
G15  24358025.400   128002242.008          50.000                                                  
G21  22263024.180   116992961.734          50.000                                                  
G25  21713352.000   114104368.457          50.000    21713355.040    85207804.766          50.000  
G26  23731742.480   124711079.988          50.000    23731744.180    93128400.258          50.000  
G29  20470855.280   107575066.652          50.000                                                  
E 1  24918948.860   130949940.324          50.000    24918953.220    97787280.984          50.000  
E 7  26104795.460   137181582.293          50.000    26104801.280   102440776.262          50.000  
E 8  25349303.560   133211478.992          50.000    25349307.200    99476093.719          50.000  
E13  26591509.520   139739301.199          50.000    26591514.200   104350763.789          50.000  
E21  27320111.880   143568097.254          50.000    27320119.380   107209920.582          50.000  
E31  25830184.940   135738504.367          50.000    25830190.060   101363155.605          50.000  
E33  25142325.680   132123808.156          50.000    25142328.980    98663873.816          50.000  
> 2020  5 15  0 46 48.0000000  0 15       0.000000000000
G 2  24954498.520   131136788.781          50.000                                                  
G 5  21833174.160   114734099.051          50.000                                                  
G12  23507138.660   123530818.250          50.000                                                  
G15  24357454.980   127999244.426          50.000                                                  
G21  22262755.700   116991550.887          50.000                                                  
G25  21713890.340   114107197.414          50.000    21713893.380    85209917.301          50.000  
G26  23731240.380   124708441.426          50.000    23731242.080    93126429.902          50.000  
G29  20470741.600   107574469.203          50.000                                                  
E 1  24919295.860   130951763.820          50.000    24919300.220    97788642.688          50.000  
E 7  26104470.160   137179872.828          50.000    26104475.980   102439499.715          50.000  
E 8  25349401.240   133211992.305          50.000    25349404.880    99476477.035          50.000  
E13  26591861.780   139741152.289          50.000    26591866.460   104352146.094          50.000  
E21  27320709.160   143571235.918          50.000    27320716.660   107212264.387          50.000  
E31  25830019.200   135737633.367          50.000    25830024.300   101362505.184          50.000  
E33  25142090.820   132122573.957          50.000    25142094.120    98662952.176          50.000  
> 2020  5 15  0 46 49.0000000  0 15       0.000000000000
G 2  24954960.420   131139216.070          50.000                                                  
G 5  21833596.340   114736317.605          50.000                                                  
G12  23507849.840   123534555.449          50.000                                                  
G15  24356884.560   127996246.859          50.000                                                  
G21  22262487.280   116990140.262          50.000                                                  
G25  21714428.740   114110026.785          50.000    21714431.780    85212030.141          50.000  
G26  23730738.360   124705803.254          50.000    23730740.060    93124459.844          50.000  
G29  20470627.960   107573872.098          50.000                                                  
E 1  24919642.920   130953587.695          50.000    24919647.300    97790004.668          50.000  
E 7  26104144.920   137178163.688          50.000    26104150.740   102438223.410          50.000  
E 8  25349499.020   133212506.082          50.000    25349502.640    99476860.699          50.000  
E13  26592214.020   139743003.395          50.000    26592218.700   104353528.410          50.000  
E21  27321306.420   143574374.586          50.000    27321313.920   107214608.199          50.000  
E31  25829853.540   135736762.840          50.000    25829858.660   101361855.117          50.000  
E33  25141855.980   132121339.859          50.000    25141859.280    98662030.609          50.000  
> 2020  5 15  0 46 50.0000000  0 15       0.000000000000
G 2  24955422.320   131141643.313          50.000                                                  
G 5  21834018.600   114738536.668          50.000                                                  
G12  23508561.040   123538292.805          50.000                                                  
G15  24356314.140   127993249.320          50.000                                                  
G21  22262218.880   116988729.883          50.000                                                  
G25  21714967.240   114112856.559          50.000    21714970.280    85214143.285          50.000  
G26  23730236.400   124703165.492          50.000    23730238.100    93122490.086          50.000  
G29  20470514.400   107573275.328          50.000                                                  
E 1  24919990.060   130955411.945          50.000    24919994.440    97791366.934          50.000  
E 7  26103819.740   137176454.855          50.000    26103825.560   102436947.336          50.000  
E 8  25349596.880   133213020.305          50.000    25349600.500    99477244.695          50.000  
E13  26592566.280   139744854.484          50.000    26592570.960   104354910.719          50.000  
E21  27321903.700   143577513.277          50.000    27321911.200   107216952.023          50.000  
E31  25829687.960   135735892.766          50.000    25829693.080   101361205.383          50.000  
E33  25141621.160   132120105.848          50.000    25141624.440    98661109.109          50.000  
> 2020  5 15  0 46 51.0000000  0 15       0.000000000000
G 2  24955884.200   131144070.508          50.000                                                  
G 5  21834440.980   114740756.246          50.000                                                  
G12  23509272.260   123542030.305          50.000                                                  
G15  24355743.740   127990251.801          50.000                                                  
G21  22261950.540   116987319.719          50.000                                                  
G25  21715505.800   114115686.754          50.000    21715508.840    85216256.738          50.000  
G26  23729734.540   124700528.133          50.000    23729736.240    93120520.629          50.000  
G29  20470400.900   107572678.895          50.000                                                  
E 1  24920337.280   130957236.574          50.000    24920341.660    97792729.480          50.000  
E 7  26103494.620   137174746.355          50.000    26103500.440   102435671.508          50.000  
E 8  25349694.820   133213534.984          50.000    25349698.440    99477629.035          50.000  
E13  26592918.520   139746705.570          50.000    26592923.220   104356293.023          50.000  
E21  27322500.960   143580651.965          50.000    27322508.480   107219295.848          50.000  
E31  25829522.480   135735023.160          50.000    25829527.600   101360556.004          50.000  
E33  25141386.360   132118871.934          50.000    25141389.640    98660187.676          50.000  
> 2020  5 15  0 46 52.0000000  0 15       0.000000000000
G 2  24956346.080   131146497.668          50.000                                                  
G 5  21834863.460   114742976.355          50.000                                                  
G12  23509983.500   123545767.957          50.000                                                  
G15  24355173.340   127987254.297          50.000                                                  
G21  22261682.240   116985909.805          50.000                                                  
G25  21716044.440   114118517.352          50.000    21716047.480    85218370.496          50.000  
G26  23729232.740   124697891.172          50.000    23729234.440    93118551.473          50.000  
G29  20470287.480   107572082.805          50.000                                                  
E 1  24920684.580   130959061.590          50.000    24920688.940    97794092.316          50.000  
E 7  26103169.580   137173038.176          50.000    26103175.380   102434395.918          50.000  
E 8  25349792.840   133214050.105          50.000    25349796.460    99478013.703          50.000  
E13  26593270.780   139748556.656          50.000    26593275.460   104357675.324          50.000  
E21  27323098.240   143583790.668          50.000    27323105.740   107221639.680          50.000  
E31  25829357.100   135734154.016          50.000    25829362.200   101359906.969          50.000  
E33  25141151.560   132117638.121          50.000    25141154.860    98659266.328          50.000  
> 2020  5 15  0 46 53.0000000  0 15       0.000000000000
G 2  24956807.940   131148924.789          50.000                                                  
G 5  21835286.020   114745196.973          50.000                                                  
G12  23510694.800   123549505.762          50.000                                                  
G15  24354602.920   127984256.809          50.000                                                  
G21  22261413.980   116984500.121          50.000                                                  
G25  21716583.160   114121348.352          50.000    21716586.200    85220484.551          50.000  
G26  23728731.020   124695254.617          50.000    23728732.720    93116582.617          50.000  
G29  20470174.100   107571487.047          50.000                                                  
E 1  24921031.940   130960886.980          50.000    24921036.300    97795455.434          50.000  
E 7  26102844.580   137171330.301          50.000    26102850.380   102433120.559          50.000  
E 8  25349890.940   133214565.680          50.000    25349894.560    99478398.711          50.000  
E13  26593623.020   139750407.727          50.000    26593627.720   104359057.621          50.000  
E21  27323695.520   143586929.371          50.000    27323703.020   107223983.516          50.000  
E31  25829191.780   135733285.340          50.000    25829196.900   101359258.281          50.000  
E33  25140916.800   132116404.402          50.000    25140920.080    98658345.043          50.000  
> 2020  5 15  0 46 54.0000000  0 15       0.000000000000
G 2  24957269.800   131151351.863          50.000                                                  
G 5  21835708.680   114747418.102          50.000                                                  
G12  23511406.100   123553243.703          50.000                                                  
G15  24354032.520   127981259.344          50.000                                                  
G21  22261145.780   116983090.668          50.000                                                  
G25  21717121.980   114124179.777          50.000    21717125.020    85222598.930          50.000  
G26  23728229.360   124692618.473          50.000    23728231.060    93114614.070          50.000  
G29  20470060.800   107570891.625          50.000                                                  
E 1  24921379.360   130962712.762          50.000    24921383.740    97796818.840          50.000  
E 7  26102519.640   137169622.750          50.000    26102525.440   102431845.445          50.000  
E 8  25349989.140   133215081.707          50.000    25349992.760    99478784.055          50.000  
E13  26593975.280   139752258.801          50.000    26593979.960   104360439.914          50.000  
E21  27324292.800   143590068.098          50.000    27324300.300   107226327.367          50.000  
E31  25829026.580   135732417.125          50.000    25829031.680   101358609.941          50.000  
E33  25140682.040   132115170.770          50.000    25140685.340    98657423.824          50.000  
> 2020  5 15  0 46 55.0000000  0 15       0.000000000000
G 2  24957731.640   131153778.895          50.000                                                  
G 5  21836131.460   114749639.750          50.000                                                  
G12  23512117.440   123556981.801          50.000                                                  
G15  24353462.140   127978261.895          50.000                                                  
G21  22260877.620   116981681.449          50.000                                                  
G25  21717660.840   114127011.598          50.000    21717663.900    85224713.602          50.000  
G26  23727727.800   124689982.719          50.000    23727729.500    93112645.813          50.000  
G29  20469947.560   107570296.555          50.000                                                  
E 1  24921726.880   130964538.914          50.000    24921731.240    97798182.523          50.000  
E 7  26102194.760   137167915.523          50.000    26102200.560   102430570.566          50.000  
E 8  25350087.420   133215598.184          50.000    25350091.040    99479169.734          50.000  
E13  26594327.520   139754109.867          50.000    26594332.200   104361822.203          50.000  
E21  27324890.080   143593206.840          50.000    27324897.600   107228671.230          50.000  
E31  25828861.440   135731549.379          50.000    25828866.560   101357961.949          50.000  
E33  25140447.300   132113937.234          50.000    25140450.600    98656502.676          50.000  
> 2020  5 15  0 46 56.0000000  0 15       0.000000000000
G 2  24958193.480   131156205.883          50.000                                                  
G 5  21836554.320   114751861.918          50.000                                                  
G12  23512828.800   123560720.055          50.000                                                  
G15  24352891.740   127975264.469          50.000                                                  
G21  22260609.500   116980272.465          50.000                                                  
G25  21718199.800   114129843.832          50.000    21718202.840    85226828.578          50.000  
G26  23727226.300   124687347.363          50.000    23727228.000    93110677.855          50.000  
G29  20469834.380   107569701.816          50.000                                                  
E 1  24922074.460   130966365.449          50.000    24922078.820    97799546.496          50.000  
E 7  26101869.940   137166208.621          50.000    26101875.760   102429295.934          50.000  
E 8  25350185.800   133216115.113          50.000    25350189.420    99479555.754          50.000  
E13  26594679.760   139755960.930          50.000    26594684.460   104363204.488          50.000  
E21  27325487.360   143596345.574          50.000    27325494.880   107231015.090          50.000  
E31  25828696.400   135730682.102          50.000    25828701.520   101357314.309          50.000  
E33  25140212.600   132112703.797          50.000    25140215.880    98655581.605          50.000  
> 2020  5 15  0 46 57.0000000  0 15       0.000000000000
G 2  24958655.320   131158632.836          50.000                                                  
G 5  21836977.280   114754084.598          50.000                                                  
G12  23513540.200   123564458.457          50.000                                                  
G15  24352321.340   127972267.063          50.000                                                  
G21  22260341.420   116978863.723          50.000                                                  
G25  21718738.840   114132676.484          50.000    21718741.880    85228943.867          50.000  
G26  23726724.900   124684712.422          50.000    23726726.600    93108710.207          50.000  
G29  20469721.280   107569107.414          50.000                                                  
E 1  24922422.100   130968192.375          50.000    24922426.480    97800910.758          50.000  
E 7  26101545.200   137164502.027          50.000    26101551.000   102428021.527          50.000  
E 8  25350284.240   133216632.492          50.000    25350287.880    99479942.109          50.000  
E13  26595032.020   139757811.984          50.000    26595036.700   104364586.770          50.000  
E21  27326084.660   143599484.340          50.000    27326092.160   107233358.969          50.000  
E31  25828531.460   135729815.293          50.000    25828536.580   101356667.016          50.000  
E33  25139977.900   132111470.453          50.000    25139981.180    98654660.602          50.000  
> 2020  5 15  0 46 58.0000000  0 15       0.000000000000
G 2  24959117.140   131161059.738          50.000                                                  
G 5  21837400.340   114756307.793          50.000                                                  
G12  23514251.620   123568196.992          50.000                                                  
G15  24351750.960   127969269.676          50.000                                                  
G21  22260073.380   116977455.203          50.000                                                  
G25  21719277.960   114135509.527          50.000    21719281.000    85231059.453          50.000  
G26  23726223.560   124682077.879          50.000    23726225.260    93106742.855          50.000  
G29  20469608.240   107568513.352          50.000                                                  
E 1  24922769.820   130970019.664          50.000    24922774.200    97802275.293          50.000  
E 7  26101220.500   137162795.754          50.000    26101226.300   102426747.367          50.000  
E 8  25350382.780   133217150.320          50.000    25350386.420    99480328.797          50.000  
E13  26595384.260   139759663.039          50.000    26595388.940   104365969.051          50.000  
E21  27326681.940   143602623.098          50.000    27326689.460   107235702.848          50.000  
E31  25828366.600   135728948.945          50.000    25828371.720   101356020.066          50.000  
E33  25139743.220   132110237.199          50.000    25139746.500    98653739.668          50.000  
> 2020  5 15  0 46 59.0000000  0 15       0.000000000000
G 2  24959578.960   131163486.605          50.000                                                  
G 5  21837823.500   114758531.520          50.000                                                  
G12  23514963.080   123571935.688          50.000                                                  
G15  24351180.580   127966272.316          50.000                                                  
G21  22259805.400   116976046.922          50.000                                                  
G25  21719817.140   114138342.988          50.000    21719820.180    85233175.348          50.000  
G26  23725722.300   124679443.738          50.000    23725724.000    93104775.801          50.000  
G29  20469495.260   107567919.637          50.000                                                  
E 1  24923117.620   130971847.336          50.000    24923122.000    97803640.109          50.000  
E 7  26100895.860   137161089.793          50.000    26100901.660   102425473.438          50.000  
E 8  25350481.420   133217668.605          50.000    25350485.040    99480715.828          50.000  
E13  26595736.500   139761514.094          50.000    26595741.180   104367351.328          50.000  
E21  27327279.240   143605761.871          50.000    27327286.740   107238046.734          50.000  
E31  25828201.820   135728083.059          50.000    25828206.940   101355373.465          50.000  
E33  25139508.560   132109004.043          50.000    25139511.840    98652818.805          50.000  
> 2020  5 15  0 47  0.0000000  0 15       0.000000000000
G 2  24960040.780   131165913.426          50.000                                                  
G 5  21838246.760   114760755.762          50.000                                                  
G12  23515674.560   123575674.520          50.000                                                  
G15  24350610.200   127963274.973          50.000                                                  
G21  22259537.460   116974638.883          50.000                                                  
G25  21720356.420   114141176.855          50.000    21720359.460    85235291.547          50.000  
G26  23725221.120   124676809.996          50.000    23725222.800    93102809.047          50.000  
G29  20469382.340   107567326.254          50.000                                                  
E 1  24923465.500   130973675.395          50.000    24923469.860    97805005.219          50.000  
E 7  26100571.300   137159384.164          50.000    26100577.100   102424199.754          50.000  
E 8  25350580.120   133218187.336          50.000    25350583.740    99481103.191          50.000  
E13  26596088.740   139763365.121          50.000    26596093.420   104368733.590          50.000  
E21  27327876.520   143608900.660          50.000    27327884.040   107240390.633          50.000  
E31  25828037.140   135727217.637          50.000    25828042.260   101354727.207          50.000  
E33  25139273.900   132107770.988          50.000    25139277.200    98651898.016          50.000  
> 2020  5 15  0 47  1.0000000  0 15       0.000000000000
G 2  24960502.580   131168340.203          50.000                                                  
G 5  21838670.120   114762980.516          50.000                                                  
G12  23516386.060   123579413.504          50.000                                                  
G15  24350039.840   127960277.645          50.000                                                  
G21  22259269.560   116973231.074          50.000                                                  
G25  21720895.760   114144011.141          50.000    21720898.800    85237408.059          50.000  
G26  23724720.000   124674176.660          50.000    23724721.700    93100842.598          50.000  
G29  20469269.480   107566733.219          50.000                                                  
E 1  24923813.440   130975503.828          50.000    24923817.800    97806370.605          50.000  
E 7  26100246.780   137157678.848          50.000    26100252.580   102422926.301          50.000  
E 8  25350678.920   133218706.516          50.000    25350682.540    99481490.891          50.000  
E13  26596440.980   139765216.156          50.000    26596445.660   104370115.855          50.000  
E21  27328473.820   143612039.449          50.000    27328481.320   107242734.531          50.000  
E31  25827872.540   135726352.691          50.000    25827877.660   101354081.309          50.000  
E33  25139039.280   132106538.016          50.000    25139042.560    98650977.289          50.000  
> 2020  5 15  0 47  2.0000000  0 15       0.000000000000
G 2  24960964.360   131170766.926          50.000                                                  
G 5  21839093.580   114765205.789          50.000                                                  
G12  23517097.600   123583152.637          50.000                                                  
G15  24349469.460   127957280.340          50.000                                                  
G21  22259001.700   116971823.504          50.000                                                  
G25  21721435.180   114146845.824          50.000    21721438.220    85239524.867          50.000  
G26  23724218.980   124671543.723          50.000    23724220.660    93098876.445          50.000  
G29  20469156.700   107566140.516          50.000                                                  
E 1  24924161.440   130977332.648          50.000    24924165.820    97807736.281          50.000  
E 7  26099922.340   137155973.848          50.000    26099928.140   102421653.090          50.000  
E 8  25350777.800   133219226.148          50.000    25350781.420    99481878.930          50.000  
E13  26596793.220   139767067.180          50.000    26596797.900   104371498.113          50.000  
E21  27329071.120   143615178.262          50.000    27329078.620   107245078.449          50.000  
E31  25827708.040   135725488.199          50.000    25827713.160   101353435.742          50.000  
E33  25138804.680   132105305.145          50.000    25138807.960    98650056.641          50.000  
> 2020  5 15  0 47  3.0000000  0 15       0.000000000000
G 2  24961426.160   131173193.629          50.000                                                  
G 5  21839517.120   114767431.574          50.000                                                  
G12  23517809.160   123586891.914          50.000                                                  
G15  24348899.100   127954283.066          50.000                                                  
G21  22258733.900   116970416.160          50.000                                                  
G25  21721974.680   114149680.918          50.000    21721977.720    85241641.980          50.000  
G26  23723718.020   124668911.195          50.000    23723719.720    93096910.598          50.000  
G29  20469043.980   107565548.168          50.000                                                  
E 1  24924509.520   130979161.844          50.000    24924513.900    97809102.238          50.000  
E 7  26099597.940   137154269.176          50.000    26099603.740   102420380.121          50.000  
E 8  25350876.780   133219746.238          50.000    25350880.400    99482267.309          50.000  
E13  26597145.460   139768918.219          50.000    26597150.140   104372880.383          50.000  
E21  27329668.420   143618317.074          50.000    27329675.920   107247422.363          50.000  
E31  25827543.620   135724624.172          50.000    25827548.740   101352790.527          50.000  
E33  25138570.080   132104072.371          50.000    25138573.380    98649136.066          50.000  
> 2020  5 15  0 47  4.0000000  0 15       0.000000000000
G 2  24961887.940   131175620.285          50.000                                                  
G 5  21839940.780   114769657.879          50.000                                                  
G12  23518520.740   123590631.340          50.000                                                  
G15  24348328.740   127951285.793          50.000                                                  
G21  22258466.140   116969009.070          50.000                                                  
G25  21722514.260   114152516.422          50.000    21722517.300    85243759.402          50.000  
G26  23723217.140   124666279.066          50.000    23723218.840    93094945.047          50.000  
G29  20468931.320   107564956.145          50.000                                                  
E 1  24924857.680   130980991.426          50.000    24924862.060    97810468.484          50.000  
E 7  26099273.620   137152564.820          50.000    26099279.420   102419107.391          50.000  
E 8  25350975.820   133220266.770          50.000    25350979.460    99482656.016          50.000  
E13  26597497.700   139770769.242          50.000    26597502.380   104374262.641          50.000  
E21  27330265.720   143621455.914          50.000    27330273.220   107249766.301          50.000  
E31  25827379.300   135723760.613          50.000    25827384.400   101352145.664          50.000  
E33  25138335.520   132102839.699          50.000    25138338.800    98648215.563          50.000  
> 2020  5 15  0 47  5.0000000  0 15       0.000000000000
G 2  24962349.700   131178046.879          50.000                                                  
G 5  21840364.520   114771884.688          50.000                                                  
G12  23519232.360   123594370.910          50.000                                                  
G15  24347758.380   127948288.555          50.000                                                  
G21  22258198.420   116967602.195          50.000                                                  
G25  21723053.920   114155352.328          50.000    21723056.960    85245877.121          50.000  
G26  23722716.340   124663647.344          50.000    23722718.040    93092979.801          50.000  
G29  20468818.720   107564364.465          50.000                                                  
E 1  24925205.920   130982821.379          50.000    24925210.280    97811835.008          50.000  
E 7  26098949.340   137150860.773          50.000    26098955.140   102417834.891          50.000  
E 8  25351074.960   133220787.754          50.000    25351078.600    99483045.063          50.000  
E13  26597849.940   139772620.250          50.000    26597854.620   104375644.883          50.000  
E21  27330863.020   143624594.734          50.000    27330870.520   107252110.223          50.000  
E31  25827215.040   135722897.520          50.000    25827220.160   101351501.145          50.000  
E33  25138100.960   132101607.105          50.000    25138104.240    98647295.121          50.000  
> 2020  5 15  0 47  6.0000000  0 15       0.000000000000
G 2  24962811.460   131180473.441          50.000                                                  
G 5  21840788.380   114774112.027          50.000                                                  
G12  23519944.020   123598110.641          50.000                                                  
G15  24347188.020   127945291.336          50.000                                                  
G21  22257930.740   116966195.574          50.000                                                  
G25  21723593.660   114158188.660          50.000    21723596.700    85247995.160          50.000  
G26  23722215.620   124661016.020          50.000    23722217.300    93091014.855          50.000  
G29  20468706.200   107563773.129          50.000                                                  
E 1  24925554.220   130984651.711          50.000    24925558.580    97813201.816          50.000  
E 7  26098625.140   137149157.063          50.000    26098630.940   102416562.637          50.000  
E 8  25351174.200   133221309.188          50.000    25351177.820    99483434.445          50.000  
E13  26598202.180   139774471.270          50.000    26598206.860   104377027.137          50.000  
E21  27331460.320   143627733.586          50.000    27331467.840   107254454.168          50.000  
E31  25827050.900   135722034.898          50.000    25827056.020   101350856.980          50.000  
E33  25137866.420   132100374.613          50.000    25137869.700    98646374.754          50.000  
> 2020  5 15  0 47  7.0000000  0 15       0.000000000000
G 2  24963273.220   131182899.961          50.000                                                  
G 5  21841212.320   114776339.879          50.000                                                  
G12  23520655.680   123601850.504          50.000                                                  
G15  24346617.680   127942294.137          50.000                                                  
G21  22257663.120   116964789.172          50.000                                                  
G25  21724133.460   114161025.391          50.000    21724136.520    85250113.496          50.000  
G26  23721714.960   124658385.102          50.000    23721716.660    93089050.211          50.000  
G29  20468593.740   107563182.125          50.000                                                  
E 1  24925902.600   130986482.426          50.000    24925906.960    97814568.906          50.000  
E 7  26098301.000   137147453.660          50.000    26098306.780   102415290.617          50.000  
E 8  25351273.500   133221831.074          50.000    25351277.120    99483824.168          50.000  
E13  26598554.400   139776322.281          50.000    26598559.100   104378409.387          50.000  
E21  27332057.620   143630872.438          50.000    27332065.140   107256798.117          50.000  
E31  25826886.840   135721172.730          50.000    25826891.940   101350213.152          50.000  
E33  25137631.900   132099142.211          50.000    25137635.180    98645454.453          50.000  
> 2020  5 15  0 47  8.0000000  0 15       0.000000000000
G 2  24963734.960   131185326.441          50.000                                                  
G 5  21841636.360   114778568.250          50.000                                                  
G12  23521367.400   123605590.520          50.000                                                  
G15  24346047.340   127939296.961          50.000                                                  
G21  22257395.520   116963383.008          50.000                                                  
G25  21724673.360   114163862.535          50.000    21724676.400    85252232.145          50.000  
G26  23721214.400   124655754.582          50.000    23721216.080    93087085.859          50.000  
G29  20468481.340   107562591.469          50.000                                                  
E 1  24926251.040   130988313.527          50.000    24926255.400    97815936.285          50.000  
E 7  26097976.900   137145750.586          50.000    26097982.700   102414018.844          50.000  
E 8  25351372.900   133222353.422          50.000    25351376.520    99484214.230          50.000  
E13  26598906.640   139778173.273          50.000    26598911.320   104379791.621          50.000  
E21  27332654.940   143634011.301          50.000    27332662.440   107259142.066          50.000  
E31  25826722.860   135720311.035          50.000    25826727.980   101349569.680          50.000  
E33  25137397.400   132097909.906          50.000    25137400.680    98644534.227          50.000  
> 2020  5 15  0 47  9.0000000  0 15       0.000000000000
G 2  24964196.700   131187752.871          50.000                                                  
G 5  21842060.500   114780797.121          50.000                                                  
G12  23522079.120   123609330.680          50.000                                                  
G15  24345477.000   127936299.809          50.000                                                  
G21  22257127.980   116961977.074          50.000                                                  
G25  21725213.320   114166700.078          50.000    21725216.360    85254351.090          50.000  
G26  23720713.900   124653124.469          50.000    23720715.580    93085121.816          50.000  
G29  20468369.000   107562001.137          50.000                                                  
E 1  24926599.560   130990145.000          50.000    24926603.920    97817303.945          50.000  
E 7  26097652.880   137144047.820          50.000    26097658.680   102412747.297          50.000  
E 8  25351472.380   133222876.203          50.000    25351476.020    99484604.617          50.000  
E13  26599258.880   139780024.270          50.000    26599263.560   104381173.859          50.000  
E21  27333252.240   143637150.164          50.000    27333259.760   107261486.023          50.000  
E31  25826558.980   135719449.813          50.000    25826564.080   101348926.559          50.000  
E33  25137162.920   132096677.699          50.000    25137166.200    98643614.074          50.000  
> 2020  5 15  0 47 10.0000000  0 15       0.000000000000
G 2  24964658.420   131190179.270          50.000                                                  
G 5  21842484.740   114783026.520          50.000                                                  
G12  23522790.880   123613070.988          50.000                                                  
G15  24344906.660   127933302.676          50.000                                                  
G21  22256860.480   116960571.375          50.000                                                  
G25  21725753.360   114169538.035          50.000    21725756.420    85256470.340          50.000  
G26  23720213.480   124650494.762          50.000    23720215.180    93083158.078          50.000  
G29  20468256.720   107561411.152          50.000                                                  
E 1  24926948.140   130991976.863          50.000    24926952.520    97818671.895          50.000  
E 7  26097328.920   137142345.379          50.000    26097334.720   102411475.996          50.000  
E 8  25351571.960   133223399.449          50.000    25351575.580    99484995.355          50.000  
E13  26599611.100   139781875.262          50.000    26599615.800   104382556.094          50.000  
E21  27333849.560   143640289.059          50.000    27333857.060   107263830.000          50.000  
E31  25826395.180   135718589.047          50.000    25826400.280   101348283.781          50.000  
E33  25136928.460   132095445.590          50.000    25136931.740    98642693.992          50.000  
> 2020  5 15  0 47 11.0000000  0 15       0.000000000000
G 2  24965120.140   131192605.617          50.000                                                  
G 5  21842909.080   114785256.422          50.000                                                  
G12  23523502.660   123616811.445          50.000                                                  
G15  24344336.320   127930305.570          50.000                                                  
G21  22256593.040   116959165.914          50.000                                                  
G25  21726293.500   114172376.391          50.000    21726296.540    85258589.891          50.000  
G26  23719713.140   124647865.457          50.000    23719714.820    93081194.637          50.000  
G29  20468144.520   107560821.512          50.000                                                  
E 1  24927296.800   130993809.090          50.000    24927301.180    97820040.113          50.000  
E 7  26097005.020   137140643.258          50.000    26097010.800   102410204.934          50.000  
E 8  25351671.620   133223923.133          50.000    25351675.240    99485386.418          50.000  
E13  26599963.340   139783726.246          50.000    26599968.020   104383938.320          50.000  
E21  27334446.860   143643427.945          50.000    27334454.380   107266173.973          50.000  
E31  25826231.460   135717728.742          50.000    25826236.580   101347641.344          50.000  
E33  25136694.020   132094213.566          50.000    25136697.300    98641773.977          50.000  
> 2020  5 15  0 47 12.0000000  0 15       0.000000000000
G 2  24965581.860   131195031.930          50.000                                                  
G 5  21843333.520   114787486.848          50.000                                                  
G12  23524214.480   123620552.047          50.000                                                  
G15  24343766.000   127927308.488          50.000                                                  
G21  22256325.640   116957760.684          50.000                                                  
G25  21726833.700   114175215.156          50.000    21726836.740    85260709.750          50.000  
G26  23719212.880   124645236.551          50.000    23719214.560    93079231.492          50.000  
G29  20468032.380   107560232.203          50.000                                                  
E 1  24927645.540   130995641.703          50.000    24927649.920    97821408.621          50.000  
E 7  26096681.160   137138941.461          50.000    26096686.960   102408934.109          50.000  
E 8  25351771.360   133224447.277          50.000    25351774.980    99485777.824          50.000  
E13  26600315.560   139785577.230          50.000    26600320.260   104385320.547          50.000  
E21  27335044.180   143646566.855          50.000    27335051.700   107268517.965          50.000  
E31  25826067.840   135716868.902          50.000    25826072.960   101346999.258          50.000  
E33  25136459.580   132092981.633          50.000    25136462.860    98640854.027          50.000  
> 2020  5 15  0 47 13.0000000  0 15       0.000000000000
G 2  24966043.560   131197458.195          50.000                                                  
G 5  21843758.060   114789717.793          50.000                                                  
G12  23524926.320   123624292.789          50.000                                                  
G15  24343195.660   127924311.418          50.000                                                  
G21  22256058.260   116956355.684          50.000                                                  
G25  21727373.980   114178054.344          50.000    21727377.020    85262829.918          50.000  
G26  23718712.680   124642608.055          50.000    23718714.380    93077268.656          50.000  
G29  20467920.300   107559643.234          50.000                                                  
E 1  24927994.360   130997474.695          50.000    24927998.720    97822777.414          50.000  
E 7  26096357.380   137137239.977          50.000    26096363.180   102407663.523          50.000  
E 8  25351871.180   133224971.871          50.000    25351874.800    99486169.566          50.000  
E13  26600667.800   139787428.199          50.000    26600672.480   104386702.766          50.000  
E21  27335641.500   143649705.777          50.000    27335649.020   107270861.961          50.000  
E31  25825904.300   135716009.539          50.000    25825909.420   101346357.523          50.000  
E33  25136225.180   132091749.805          50.000    25136228.460    98639934.156          50.000  
> 2020  5 15  0 47 14.0000000  0 15       0.000000000000
G 2  24966505.260   131199884.422          50.000                                                  
G 5  21844182.680   114791949.258          50.000                                                  
G12  23525638.200   123628033.688          50.000                                                  
G15  24342625.360   127921314.387          50.000                                                  
G21  22255790.940   116954950.918          50.000                                                  
G25  21727914.320   114180893.938          50.000    21727917.380    85264950.395          50.000  
G26  23718212.580   124639979.953          50.000    23718214.260    93075306.113          50.000  
G29  20467808.280   107559054.605          50.000                                                  
E 1  24928343.240   130999308.082          50.000    24928347.600    97824146.508          50.000  
E 7  26096033.660   137135538.813          50.000    26096039.460   102406393.176          50.000  
E 8  25351971.100   133225496.902          50.000    25351974.720    99486561.629          50.000  
E13  26601020.020   139789279.160          50.000    26601024.720   104388084.969          50.000  
E21  27336238.820   143652844.699          50.000    27336246.340   107273205.961          50.000  
E31  25825740.860   135715150.645          50.000    25825745.980   101345716.145          50.000  
E33  25135990.780   132090518.074          50.000    25135994.060    98639014.355          50.000  
> 2020  5 15  0 47 15.0000000  0 15       0.000000000000
G 2  24966966.940   131202310.609          50.000                                                  
G 5  21844607.420   114794181.238          50.000                                                  
G12  23526350.100   123631774.723          50.000                                                  
G15  24342055.040   127918317.371          50.000                                                  
G21  22255523.680   116953546.387          50.000                                                  
G25  21728454.760   114183733.922          50.000    21728457.800    85267071.160          50.000  
G26  23717712.540   124637352.266          50.000    23717714.240    93073343.883          50.000  
G29  20467696.340   107558466.320          50.000                                                  
E 1  24928692.180   131001141.840          50.000    24928696.560    97825515.871          50.000  
E 7  26095710.000   137133837.973          50.000    26095715.800   102405123.070          50.000  
E 8  25352071.100   133226022.402          50.000    25352074.720    99486954.055          50.000  
E13  26601372.260   139791130.129          50.000    26601376.940   104389467.188          50.000  
E21  27336836.140   143655983.641          50.000    27336843.660   107275549.973          50.000  
E31  25825577.500   135714292.207          50.000    25825582.620   101345075.105          50.000  
E33  25135756.400   132089286.434          50.000    25135759.700    98638094.629          50.000  
> 2020  5 15  0 47 16.0000000  0 15       0.000000000000
G 2  24967428.620   131204736.758          50.000                                                  
G 5  21845032.260   114796413.738          50.000                                                  
G12  23527062.020   123635515.914          50.000                                                  
G15  24341484.720   127915320.367          50.000                                                  
G21  22255256.440   116952142.102          50.000                                                  
G25  21728995.280   114186574.328          50.000    21728998.320    85269192.242          50.000  
G26  23717212.580   124634724.980          50.000    23717214.280    93071381.949          50.000  
G29  20467584.460   107557878.371          50.000                                                  
E 1  24929041.200   131002975.957          50.000    24929045.580    97826885.504          50.000  
E 7  26095386.400   137132137.457          50.000    26095392.200   102403853.203          50.000  
E 8  25352171.180   133226548.348          50.000    25352174.800    99487346.801          50.000  
E13  26601724.480   139792981.086          50.000    26601729.160   104390849.395          50.000  
E21  27337433.460   143659122.582          50.000    27337440.980   107277893.988          50.000  
E31  25825414.240   135713434.230          50.000    25825419.360   101344434.410          50.000  
E33  25135522.040   132088054.883          50.000    25135525.340    98637174.965          50.000  
> 2020  5 15  0 47 17.0000000  0 15       0.000000000000
G 2  24967890.300   131207162.859          50.000                                                  
G 5  21845457.180   114798646.746          50.000                                                  
G12  23527773.980   123639257.250          50.000                                                  
G15  24340914.420   127912323.395          50.000                                                  
G21  22254989.260   116950738.051          50.000                                                  
G25  21729535.860   114189415.148          50.000    21729538.900    85271313.633          50.000  
G26  23716712.700   124632098.090          50.000    23716714.380    93069420.313          50.000  
G29  20467472.640   107557290.773          50.000                                                  
E 1  24929390.300   131004810.473          50.000    24929394.680    97828255.434          50.000  
E 7  26095062.860   137130437.254          50.000    26095068.660   102402583.574          50.000  
E 8  25352271.340   133227074.750          50.000    25352274.960    99487739.895          50.000  
E13  26602076.700   139794832.051          50.000    26602081.400   104392231.609          50.000  
E21  27338030.780   143662261.523          50.000    27338038.300   107280238.000          50.000  
E31  25825251.060   135712576.727          50.000    25825256.180   101343794.066          50.000  
E33  25135287.720   132086823.438          50.000    25135291.000    98636255.379          50.000  
> 2020  5 15  0 47 18.0000000  0 15       0.000000000000
G 2  24968351.960   131209588.914          50.000                                                  
G 5  21845882.200   114800880.281          50.000                                                  
G12  23528485.960   123642998.727          50.000                                                  
G15  24340344.120   127909326.449          50.000                                                  
G21  22254722.120   116949334.238          50.000                                                  
G25  21730076.520   114192256.363          50.000    21730079.580    85273435.320          50.000  
G26  23716212.900   124629471.613          50.000    23716214.580    93067458.984          50.000  
G29  20467360.880   107556703.500          50.000                                                  
E 1  24929739.460   131006645.359          50.000    24929743.840    97829625.641          50.000  
E 7  26094739.400   137128737.371          50.000    26094745.180   102401314.184          50.000  
E 8  25352371.600   133227601.586          50.000    25352375.220    99488133.313          50.000  
E13  26602428.920   139796682.996          50.000    26602433.620   104393613.809          50.000  
E21  27338628.100   143665400.480          50.000    27338635.620   107282582.023          50.000  
E31  25825087.980   135711719.680          50.000    25825093.080   101343154.063          50.000  
E33  25135053.400   132085592.078          50.000    25135056.680    98635335.859          50.000  
> 2020  5 15  0 47 19.0000000  0 15       0.000000000000
G 2  24968813.620   131212014.926          50.000                                                  
G 5  21846307.340   114803114.328          50.000                                                  
G12  23529197.960   123646740.348          50.000                                                  
G15  24339773.820   127906329.508          50.000                                                  
G21  22254455.040   116947930.652          50.000                                                  
G25  21730617.260   114195097.980          50.000    21730620.320    85275557.305          50.000  
G26  23715713.180   124626845.535          50.000    23715714.860    93065497.953          50.000  
G29  20467249.200   107556116.578          50.000                                                  
E 1  24930088.720   131008480.633          50.000    24930093.080    97830996.137          50.000  
E 7  26094415.980   137127037.805          50.000    26094421.760   102400045.027          50.000  
E 8  25352471.940   133228128.879          50.000    25352475.560    99488527.070          50.000  
E13  26602781.160   139798533.941          50.000    26602785.840   104394996.008          50.000  
E21  27339225.440   143668539.445          50.000    27339232.960   107284926.055          50.000  
E31  25824924.980   135710863.102          50.000    25824930.080   101342514.410          50.000  
E33  25134819.080   132084360.809          50.000    25134822.380    98634416.406          50.000  
> 2020  5 15  0 47 20.0000000  0 15       0.000000000000
G 2  24969275.260   131214440.883          50.000                                                  
G 5  21846732.560   114805348.871          50.000                                                  
G12  23529910.000   123650482.105          50.000                                                  
G15  24339203.520   127903332.609          50.000                                                  
G21  22254187.980   116946527.301          50.000                                                  
G25  21731158.080   114197940.004          50.000    21731161.140    85277679.594          50.000  
G26  23715213.520   124624219.855          50.000    23715215.200    93063537.223          50.000  
G29  20467137.580   107555529.992          50.000                                                  
E 1  24930438.020   131010316.273          50.000    24930442.400    97832366.906          50.000  
E 7  26094092.620   137125338.563          50.000    26094098.420   102398776.113          50.000  
E 8  25352572.360   133228656.621          50.000    25352575.980    99488921.164          50.000  
E13  26603133.380   139800384.887          50.000    26603138.060   104396378.207          50.000  
E21  27339822.760   143671678.430          50.000    27339830.280   107287270.098          50.000  
E31  25824762.060   135710006.980          50.000    25824767.180   101341875.102          50.000  
E33  25134584.800   132083129.645          50.000    25134588.100    98633497.031          50.000  
> 2020  5 15  0 47 21.0000000  0 15       0.000000000000
G 2  24969736.900   131216866.813          50.000                                                  
G 5  21847157.880   114807583.945          50.000                                                  
G12  23530622.060   123654224.027          50.000                                                  
G15  24338633.240   127900335.734          50.000                                                  
G21  22253920.980   116945124.188          50.000                                                  
G25  21731698.980   114200782.438          50.000    21731702.040    85279802.188          50.000  
G26  23714713.940   124621594.594          50.000    23714715.640    93061576.797          50.000  
G29  20467026.020   107554943.754          50.000                                                  
E 1  24930787.400   131012152.305          50.000    24930791.780    97833737.969          50.000  
E 7  26093769.320   137123639.645          50.000    26093775.120   102397507.441          50.000  
E 8  25352672.880   133229184.828          50.000    25352676.500    99489315.602          50.000  
E13  26603485.600   139802235.828          50.000    26603490.280   104397760.398          50.000  
E21  27340420.100   143674817.414          50.000    27340427.620   107289614.145          50.000  
E31  25824599.240   135709151.344          50.000    25824604.340   101341236.148          50.000  
E33  25134350.540   132081898.566          50.000    25134353.820    98632577.719          50.000  
> 2020  5 15  0 47 22.0000000  0 15       0.000000000000
G 2  24970198.520   131219292.785          50.000                                                  
G 5  21847583.300   114809819.473          50.000                                                  
G12  23531334.140   123657966.090          50.000                                                  
G15  24338062.880   127897339.211          50.000                                                  
G21  22253654.020   116943721.336          50.000                                                  
G25  21732239.960   114203625.281          50.000    21732242.960    85281925.285          50.000  
G26  23714214.480   124618969.582          50.000    23714216.140    93059616.672          50.000  
G29  20466914.520   107554357.813          50.000                                                  
E 1  24931136.860   131013988.734          50.000    24931141.220    97835109.348          50.000  
E 7  26093446.080   137121941.051          50.000    26093451.880   102396239.012          50.000  
E 8  25352773.540   133229713.117          50.000    25352777.220    99489709.898          50.000  
E13  26603837.820   139804086.715          50.000    26603842.520   104399142.539          50.000  
E21  27341017.460   143677956.203          50.000    27341025.000   107291957.930          50.000  
E31  25824436.500   135708296.188          50.000    25824441.600   101340597.570          50.000  
E33  25134116.280   132080667.676          50.000    25134119.540    98631658.598          50.000  
> 2020  5 15  0 47 23.0000000  0 15       0.000000000000
G 2  24970660.140   131221718.625          50.000                                                  
G 5  21848008.820   114812055.574          50.000                                                  
G12  23532046.260   123661708.297          50.000                                                  
G15  24337492.600   127894342.383          50.000                                                  
G21  22253387.100   116942318.688          50.000                                                  
G25  21732781.020   114206468.543          50.000    21732784.020    85284048.504          50.000  
G26  23713715.060   124616345.125          50.000    23713716.720    93057656.852          50.000  
G29  20466803.100   107553772.250          50.000                                                  
E 1  24931486.380   131015825.520          50.000    24931490.740    97836480.969          50.000  
E 7  26093122.920   137120242.773          50.000    26093128.700   102394970.820          50.000  
E 8  25352874.220   133230242.227          50.000    25352877.900    99490105.012          50.000  
E13  26604190.040   139805937.652          50.000    26604194.740   104400524.730          50.000  
E21  27341614.800   143681095.219          50.000    27341622.340   107294301.996          50.000  
E31  25824273.840   135707441.477          50.000    25824278.960   101339959.313          50.000  
E33  25133882.040   132079436.789          50.000    25133885.320    98630739.430          50.000  
> 2020  5 15  0 47 24.0000000  0 15       0.000000000000
G 2  24971121.760   131224144.430          50.000                                                  
G 5  21848434.420   114814292.199          50.000                                                  
G12  23532758.420   123665450.656          50.000                                                  
G15  24336922.320   127891345.574          50.000                                                  
G21  22253120.220   116940916.273          50.000                                                  
G25  21733322.140   114209312.203          50.000    21733325.140    85286172.016          50.000  
G26  23713215.720   124613721.074          50.000    23713217.380    93055697.336          50.000  
G29  20466691.740   107553187.035          50.000                                                  
E 1  24931835.980   131017662.691          50.000    24931840.360    97837852.883          50.000  
E 7  26092799.800   137118544.824          50.000    26092805.600   102393702.871          50.000  
E 8  25352975.000   133230771.777          50.000    25352978.680    99490500.457          50.000  
E13  26604542.260   139807788.586          50.000    26604546.960   104401906.918          50.000  
E21  27342212.120   143684234.227          50.000    27342219.680   107296646.059          50.000  
E31  25824111.280   135706587.234          50.000    25824116.400   101339321.406          50.000  
E33  25133647.820   132078206.000          50.000    25133651.100    98629820.336          50.000  
> 2020  5 15  0 47 25.0000000  0 15       0.000000000000
G 2  24971583.360   131226570.191          50.000                                                  
G 5  21848860.140   114816529.324          50.000                                                  
G12  23533470.580   123669193.156          50.000                                                  
G15  24336352.060   127888348.785          50.000                                                  
G21  22252853.400   116939514.094          50.000                                                  
G25  21733863.360   114212156.277          50.000    21733866.360    85288295.836          50.000  
G26  23712716.460   124611097.434          50.000    23712718.100    93053738.121          50.000  
G29  20466580.440   107552602.156          50.000                                                  
E 1  24932185.660   131019500.238          50.000    24932190.020    97839225.078          50.000  
E 7  26092476.760   137116847.188          50.000    26092482.540   102392435.156          50.000  
E 8  25353075.840   133231301.777          50.000    25353079.520    99490896.234          50.000  
E13  26604894.480   139809639.504          50.000    26604899.180   104403289.098          50.000  
E21  27342809.460   143687373.254          50.000    27342817.020   107298990.137          50.000  
E31  25823948.820   135705733.457          50.000    25823953.920   101338683.848          50.000  
E33  25133413.640   132076975.309          50.000    25133416.900    98628901.313          50.000  
> 2020  5 15  0 47 26.0000000  0 15       0.000000000000
G 2  24972044.960   131228995.910          50.000                                                  
G 5  21849285.940   114818766.961          50.000                                                  
G12  23534182.800   123672935.809          50.000                                                  
G15  24335781.780   127885352.027          50.000                                                  
G21  22252586.600   116938112.148          50.000                                                  
G25  21734404.640   114215000.754          50.000    21734407.640    85290419.953          50.000  
G26  23712217.260   124608474.191          50.000    23712218.920    93051779.211          50.000  
G29  20466469.200   107552017.617          50.000                                                  
E 1  24932535.400   131021338.156          50.000    24932539.760    97840597.547          50.000  
E 7  26092153.760   137115149.879          50.000    26092159.560   102391167.688          50.000  
E 8  25353176.780   133231832.238          50.000    25353180.460    99491292.355          50.000  
E13  26605246.700   139811490.422          50.000    26605251.400   104404671.277          50.000  
E21  27343406.800   143690512.273          50.000    27343414.340   107301334.207          50.000  
E31  25823786.440   135704880.137          50.000    25823791.540   101338046.629          50.000  
E33  25133179.460   132075744.711          50.000    25133182.720    98627982.359          50.000  
> 2020  5 15  0 47 27.0000000  0 15       0.000000000000
G 2  24972506.540   131231421.590          50.000                                                  
G 5  21849711.840   114821005.121          50.000                                                  
G12  23534895.020   123676678.602          50.000                                                  
G15  24335211.520   127882355.293          50.000                                                  
G21  22252319.860   116936710.430          50.000                                                  
G25  21734946.000   114217845.648          50.000    21734949.000    85292544.387          50.000  
G26  23711718.160   124605851.363          50.000    23711719.800    93049820.605          50.000  
G29  20466358.020   107551433.422          50.000                                                  
E 1  24932885.220   131023176.473          50.000    24932889.580    97841970.316          50.000  
E 7  26091830.840   137113452.895          50.000    26091836.620   102389900.461          50.000  
E 8  25353277.820   133232363.145          50.000    25353281.500    99491688.813          50.000  
E13  26605598.920   139813341.336          50.000    26605603.600   104406053.449          50.000  
E21  27344004.140   143693651.324          50.000    27344011.680   107303678.301          50.000  
E31  25823624.140   135704027.305          50.000    25823629.260   101337409.773          50.000  
E33  25132945.300   132074514.211          50.000    25132948.560    98627063.480          50.000  
> 2020  5 15  0 47 28.0000000  0 15       0.000000000000
G 2  24972968.120   131233847.227          50.000                                                  
G 5  21850137.840   114823243.785          50.000                                                  
G12  23535607.280   123680421.531          50.000                                                  
G15  24334641.260   127879358.574          50.000                                                  
G21  22252053.180   116935308.949          50.000                                                  
G25  21735487.440   114220690.930          50.000    21735490.440    85294669.109          50.000  
G26  23711219.120   124603228.934          50.000    23711220.780    93047862.301          50.000  
G29  20466246.920   107550849.566          50.000                                                  
E 1  24933235.100   131025015.137          50.000    24933239.460    97843343.344          50.000  
E 7  26091507.960   137111756.223          50.000    26091513.760   102388633.465          50.000  
E 8  25353378.920   133232894.496          50.000    25353382.600    99492085.598          50.000  
E13  26605951.120   139815192.242          50.000    26605955.820   104407435.621          50.000  
E21  27344601.480   143696790.375          50.000    27344609.020   107306022.395          50.000  
E31  25823461.940   135703174.918          50.000    25823467.040   101336773.250          50.000  
E33  25132711.160   132073283.793          50.000    25132714.420    98626144.664          50.000  
> 2020  5 15  0 47 29.0000000  0 15       0.000000000000
G 2  24973429.700   131236272.820          50.000                                                  
G 5  21850563.960   114825482.969          50.000                                                  
G12  23536319.560   123684164.617          50.000                                                  
G15  24334071.000   127876361.887          50.000                                                  
G21  22251786.520   116933907.707          50.000                                                  
G25  21736028.960   114223536.617          50.000    21736031.960    85296794.137          50.000  
G26  23710720.160   124600606.902          50.000    23710721.820    93045904.289          50.000  
G29  20466135.880   107550266.051          50.000                                                  
E 1  24933585.060   131026854.211          50.000    24933589.440    97844716.676          50.000  
E 7  26091185.160   137110059.875          50.000    26091190.960   102387366.715          50.000  
E 8  25353480.120   133233426.309          50.000    25353483.800    99492482.730          50.000  
E13  26606303.340   139817043.145          50.000    26606308.040   104408817.789          50.000  
E21  27345198.820   143699929.434          50.000    27345206.380   107308366.496          50.000  
E31  25823299.820   135702323.008          50.000    25823304.940   101336137.082          50.000  
E33  25132477.020   132072053.473          50.000    25132480.300    98625225.922          50.000  
> 2020  5 15  0 47 30.0000000  0 15       0.000000000000
G 2  24973891.260   131238698.363          50.000                                                  
G 5  21850990.140   114827722.668          50.000                                                  
G12  23537031.880   123687907.840          50.000                                                  
G15  24333500.760   127873365.219          50.000                                                  
G21  22251519.920   116932506.691          50.000                                                  
G25  21736570.540   114226382.719          50.000    21736573.540    85298919.469          50.000  
G26  23710221.280   124597985.281          50.000    23710222.940    93043946.586          50.000  
G29  20466024.900   107549682.875          50.000                                                  
E 1  24933935.100   131028693.648          50.000    24933939.460    97846090.285          50.000  
E 7  26090862.420   137108363.844          50.000    26090868.200   102386100.195          50.000  
E 8  25353581.400   133233958.559          50.000    25353585.080    99492880.191          50.000  
E13  26606655.560   139818894.043          50.000    26606660.240   104410199.949          50.000  
E21  27345796.160   143703068.496          50.000    27345803.720   107310710.598          50.000  
E31  25823137.800   135701471.551          50.000    25823142.900   101335501.254          50.000  
E33  25132242.920   132070823.250          50.000    25132246.200    98624307.246          50.000  
> 2020  5 15  0 47 31.0000000  0 15       0.000000000000
G 2  24974352.820   131241123.879          50.000                                                  
G 5  21851416.440   114829962.875          50.000                                                  
G12  23537744.220   123691651.207          50.000                                                  
G15  24332930.520   127870368.578          50.000                                                  
G21  22251253.360   116931105.910          50.000                                                  
G25  21737112.220   114229229.227          50.000    21737115.220    85301045.109          50.000  
G26  23709722.480   124595364.055          50.000    23709724.120    93041989.180          50.000  
G29  20465913.980   107549100.043          50.000                                                  
E 1  24934285.200   131030533.461          50.000    24934289.560    97847464.168          50.000  
E 7  26090539.720   137106668.137          50.000    26090545.520   102384833.922          50.000  
E 8  25353682.780   133234491.266          50.000    25353686.460    99493277.992          50.000  
E13  26607007.760   139820744.938          50.000    26607012.460   104411582.109          50.000  
E21  27346393.500   143706207.570          50.000    27346401.060   107313054.711          50.000  
E31  25822975.860   135700620.574          50.000    25822980.960   101334865.785          50.000  
E33  25132008.840   132069593.117          50.000    25132012.100    98623388.641          50.000  
> 2020  5 15  0 47 32.0000000  0 15       0.000000000000
G 2  24974814.380   131243549.340          50.000                                                  
G 5  21851842.840   114832203.594          50.000                                                  
G12  23538456.580   123695394.727          50.000                                                  
G15  24332360.260   127867371.957          50.000                                                  
G21  22250986.840   116929705.359          50.000                                                  
G25  21737653.960   114232076.137          50.000    21737656.960    85303171.047          50.000  
G26  23709223.740   124592743.250          50.000    23709225.400    93040032.086          50.000  
G29  20465803.140   107548517.547          50.000                                                  
E 1  24934635.380   131032373.656          50.000    24934639.740    97848838.340          50.000  
E 7  26090217.100   137104972.746          50.000    26090222.900   102383567.887          50.000  
E 8  25353784.240   133235024.426          50.000    25353787.900    99493676.133          50.000  
E13  26607359.980   139822595.820          50.000    26607364.660   104412964.262          50.000  
E21  27346990.860   143709346.652          50.000    27346998.400   107315398.828          50.000  
E31  25822814.000   135699770.051          50.000    25822819.120   101334230.652          50.000  
E33  25131774.760   132068363.082          50.000    25131778.040    98622470.109          50.000  
> 2020  5 15  0 47 33.0000000  0 15       0.000000000000
G 2  24975275.920   131245974.758          50.000                                                  
G 5  21852269.320   114834444.828          50.000                                                  
G12  23539168.980   123699138.379          50.000                                                  
G15  24331790.040   127864375.367          50.000                                                  
G21  22250720.360   116928305.059          50.000                                                  
G25  21738195.780   114234923.449          50.000    21738198.800    85305297.285          50.000  
G26  23708725.100   124590122.848          50.000    23708726.760    93038075.293          50.000  
G29  20465692.360   107547935.395          50.000                                                  
E 1  24934985.620   131034214.230          50.000    24934990.000    97850212.793          50.000  
E 7  26089894.540   137103277.684          50.000    26089900.340   102382302.094          50.000  
E 8  25353885.780   133235558.035          50.000    25353889.440    99494074.605          50.000  
E13  26607712.180   139824446.703          50.000    26607716.880   104414346.414          50.000  
E21  27347588.200   143712485.738          50.000    27347595.760   107317742.949          50.000  
E31  25822652.240   135698920.004          50.000    25822657.360   101333595.879          50.000  
E33  25131540.700   132067133.141          50.000    25131543.980    98621551.648          50.000  
> 2020  5 15  0 47 34.0000000  0 15       0.000000000000
G 2  24975737.440   131248400.125          50.000                                                  
G 5  21852695.920   114836686.574          50.000                                                  
G12  23539881.400   123702882.184          50.000                                                  
G15  24331219.800   127861378.789          50.000                                                  
G21  22250453.940   116926904.977          50.000                                                  
G25  21738737.700   114237771.180          50.000    21738740.700    85307423.836          50.000  
G26  23708226.520   124587502.848          50.000    23708228.180    93036118.801          50.000  
G29  20465581.640   107547353.582          50.000                                                  
E 1  24935335.940   131036055.176          50.000    24935340.300    97851587.523          50.000  
E 7  26089572.040   137101582.945          50.000    26089577.820   102381036.539          50.000  
E 8  25353987.400   133236092.094          50.000    25353991.080    99494473.414          50.000  
E13  26608064.400   139826297.586          50.000    26608069.080   104415728.566          50.000  
E21  27348185.560   143715624.840          50.000    27348193.100   107320087.082          50.000  
E31  25822490.560   135698070.414          50.000    25822495.680   101332961.445          50.000  
E33  25131306.680   132065903.297          50.000    25131309.940    98620633.258          50.000  
> 2020  5 15  0 47 35.0000000  0 15       0.000000000000
G 2  24976198.980   131250825.449          50.000                                                  
G 5  21853122.600   114838928.824          50.000                                                  
G12  23540593.840   123706626.133          50.000                                                  
G15  24330649.580   127858382.238          50.000                                                  
G21  22250187.560   116925505.137          50.000                                                  
G25  21739279.680   114240619.305          50.000    21739282.680    85309550.680          50.000  
G26  23707728.020   124584883.254          50.000    23707729.680    93034162.613          50.000  
G29  20465471.000   107546772.113          50.000                                                  
E 1  24935686.340   131037896.512          50.000    24935690.700    97852962.547          50.000  
E 7  26089249.600   137099888.520          50.000    26089255.380   102379771.223          50.000  
E 8  25354089.120   133236626.602          50.000    25354092.780    99494872.563          50.000  
E13  26608416.600   139828148.453          50.000    26608421.300   104417110.707          50.000  
E21  27348782.900   143718763.938          50.000    27348790.460   107322431.207          50.000  
E31  25822328.980   135697221.301          50.000    25822334.100   101332327.367          50.000  
E33  25131072.660   132064673.543          50.000    25131075.920    98619714.938          50.000  
> 2020  5 15  0 47 36.0000000  0 15       0.000000000000
G 2  24976660.480   131253250.738          50.000                                                  
G 5  21853549.380   114841171.605          50.000                                                  
G12  23541306.320   123710370.230          50.000                                                  
G15  24330079.360   127855385.719          50.000                                                  
G21  22249921.220   116924105.523          50.000                                                  
G25  21739821.720   114243467.844          50.000    21739824.740    85311677.836          50.000  
G26  23707229.620   124582264.066          50.000    23707231.260    93032206.727          50.000  
G29  20465360.400   107546190.992          50.000                                                  
E 1  24936036.800   131039738.215          50.000    24936041.160    97854337.844          50.000  
E 7  26088927.220   137098194.426          50.000    26088933.000   102378506.156          50.000  
E 8  25354190.900   133237161.563          50.000    25354194.580    99495272.043          50.000  
E13  26608768.800   139829999.324          50.000    26608773.500   104418492.848          50.000  
E21  27349380.260   143721903.047          50.000    27349387.820   107324775.348          50.000  
E31  25822167.480   135696372.648          50.000    25822172.600   101331693.633          50.000  
E33  25130838.660   132063443.887          50.000    25130841.940    98618796.688          50.000  
> 2020  5 15  0 47 37.0000000  0 15       0.000000000000
G 2  24977122.000   131255675.980          50.000                                                  
G 5  21853976.260   114843414.891          50.000                                                  
G12  23542018.820   123714114.461          50.000                                                  
G15  24329509.140   127852389.215          50.000                                                  
G21  22249654.920   116922706.152          50.000                                                  
G25  21740363.860   114246316.781          50.000    21740366.860    85313805.285          50.000  
G26  23706731.280   124579645.289          50.000    23706732.920    93030251.148          50.000  
G29  20465249.880   107545610.215          50.000                                                  
E 1  24936387.340   131041580.316          50.000    24936391.700    97855713.441          50.000  
E 7  26088604.900   137096500.641          50.000    26088610.700   102377241.316          50.000  
E 8  25354292.800   133237696.977          50.000    25354296.460    99495671.867          50.000  
E13  26609121.020   139831850.188          50.000    26609125.700   104419874.988          50.000  
E21  27349977.620   143725042.176          50.000    27349985.160   107327119.500          50.000  
E31  25822006.080   135695524.473          50.000    25822011.200   101331060.254          50.000  
E33  25130604.680   132062214.320          50.000    25130607.940    98617878.504          50.000  
> 2020  5 15  0 47 38.0000000  0 15       0.000000000000
G 2  24977583.500   131258101.176          50.000                                                  
G 5  21854403.240   114845658.684          50.000                                                  
G12  23542731.360   123717858.848          50.000                                                  
G15  24328938.920   127849392.750          50.000                                                  
G21  22249388.660   116921307.008          50.000                                                  
G25  21740906.080   114249166.121          50.000    21740909.080    85315933.043          50.000  
G26  23706233.000   124577026.910          50.000    23706234.660    93028295.867          50.000  
G29  20465139.420   107545029.777          50.000                                                  
E 1  24936737.940   131043422.762          50.000    24936742.300    97857089.293          50.000  
E 7  26088282.640   137094807.184          50.000    26088288.440   102375976.727          50.000  
E 8  25354394.760   133238232.836          50.000    25354398.440    99496072.023          50.000  
E13  26609473.220   139833701.043          50.000    26609477.920   104421257.121          50.000  
E21  27350574.960   143728181.293          50.000    27350582.520   107329463.645          50.000  
E31  25821844.760   135694676.746          50.000    25821849.880   101330427.215          50.000  
E33  25130370.720   132060984.855          50.000    25130373.980    98616960.398          50.000  
> 2020  5 15  0 47 39.0000000  0 15       0.000000000000
G 2  24978044.980   131260526.336          50.000                                                  
G 5  21854830.320   114847903.012          50.000                                                  
G12  23543443.920   123721603.387          50.000                                                  
G15  24328368.720   127846396.309          50.000                                                  
G21  22249122.460   116919908.094          50.000                                                  
G25  21741448.360   114252015.875          50.000    21741451.360    85318061.102          50.000  
G26  23705734.820   124574408.941          50.000    23705736.480    93026340.891          50.000  
G29  20465029.040   107544449.688          50.000                                                  
E 1  24937088.620   131045265.609          50.000    24937092.980    97858465.441          50.000  
E 7  26087960.440   137093114.055          50.000    26087966.240   102374712.375          50.000  
E 8  25354496.820   133238769.152          50.000    25354500.500    99496472.516          50.000  
E13  26609825.420   139835551.898          50.000    26609830.120   104422639.254          50.000  
E21  27351172.320   143731320.438          50.000    27351179.880   107331807.809          50.000  
E31  25821683.540   135693829.492          50.000    25821688.640   101329794.523          50.000  
E33  25130136.780   132059755.484          50.000    25130140.040    98616042.363          50.000  
> 2020  5 15  0 47 40.0000000  0 15       0.000000000000
G 2  24978506.480   131262951.457          50.000                                                  
G 5  21855257.500   114850147.840          50.000                                                  
G12  23544156.500   123725348.047          50.000                                                  
G15  24327798.500   127843399.879          50.000                                                  
G21  22248856.300   116918509.422          50.000                                                  
G25  21741990.720   114254866.020          50.000    21741993.720    85320189.457          50.000  
G26  23705236.720   124571791.375          50.000    23705238.360    93024386.219          50.000  
G29  20464918.720   107543869.918          50.000                                                  
E 1  24937439.380   131047108.832          50.000    24937443.740    97859841.875          50.000  
E 7  26087638.320   137091421.242          50.000    26087644.100   102373448.262          50.000  
E 8  25354598.960   133239305.914          50.000    25354602.640    99496873.348          50.000  
E13  26610177.620   139837402.758          50.000    26610182.320   104424021.383          50.000  
E21  27351769.680   143734459.582          50.000    27351777.240   107334151.973          50.000  
E31  25821522.400   135692982.703          50.000    25821527.500   101329162.180          50.000  
E33  25129902.840   132058526.207          50.000    25129906.120    98615124.395          50.000  
> 2020  5 15  0 47 41.0000000  0 15       0.000000000000
G 2  24978967.940   131265376.527          50.000                                                  
G 5  21855684.780   114852393.184          50.000                                                  
G12  23544869.120   123729092.859          50.000                                                  
G15  24327228.320   127840403.484          50.000                                                  
G21  22248590.180   116917110.977          50.000                                                  
G25  21742533.160   114257716.574          50.000    21742536.160    85322318.117          50.000  
G26  23704738.680   124569174.227          50.000    23704740.340    93022431.855          50.000  
G29  20464808.440   107543290.500          50.000                                                  
E 1  24937790.200   131048952.430          50.000    24937794.560    97861218.586          50.000  
E 7  26087316.240   137089728.742          50.000    26087322.020   102372184.387          50.000  
E 8  25354701.180   133239843.133          50.000    25354704.860    99497274.512          50.000  
E13  26610529.820   139839253.594          50.000    26610534.520   104425403.500          50.000  
E21  27352367.040   143737598.723          50.000    27352374.600   107336496.133          50.000  
E31  25821361.340   135692136.387          50.000    25821366.460   101328530.191          50.000  
E33  25129668.940   132057297.020          50.000    25129672.200    98614206.496          50.000  
> 2020  5 15  0 47 42.0000000  0 15       0.000000000000
G 2  24979429.420   131267801.559          50.000                                                  
G 5  21856112.140   114854639.051          50.000                                                  
G12  23545581.760   123732837.824          50.000                                                  
G15  24326658.120   127837407.117          50.000                                                  
G21  22248324.120   116915712.777          50.000                                                  
G25  21743075.680   114260567.539          50.000    21743078.680    85324447.082          50.000  
G26  23704240.720   124566557.477          50.000    23704242.380    93020477.789          50.000  
G29  20464698.260   107542711.418          50.000                                                  
E 1  24938141.100   131050796.410          50.000    24938145.460    97862595.586          50.000  
E 7  26086994.220   137088036.570          50.000    26087000.020   102370920.750          50.000  
E 8  25354803.500   133240380.801          50.000    25354807.180    99497676.020          50.000  
E13  26610882.040   139841104.434          50.000    26610886.720   104426785.621          50.000  
E21  27352964.400   143740737.879          50.000    27352971.960   107338840.309          50.000  
E31  25821200.380   135691290.531          50.000    25821205.500   101327898.547          50.000  
E33  25129435.040   132056067.922          50.000    25129438.320    98613288.664          50.000  
> 2020  5 15  0 47 43.0000000  0 15       0.000000000000
G 2  24979890.880   131270226.547          50.000                                                  
G 5  21856539.620   114856885.426          50.000                                                  
G12  23546294.440   123736582.930          50.000                                                  
G15  24326087.920   127834410.777          50.000                                                  
G21  22248058.080   116914314.793          50.000                                                  
G25  21743618.280   114263418.918          50.000    21743621.280    85326576.359          50.000  
G26  23703742.860   124563941.125          50.000    23703744.500    93018524.023          50.000  
G29  20464588.120   107542132.684          50.000                                                  
E 1  24938492.060   131052640.770          50.000    24938496.440    97863972.867          50.000  
E 7  26086672.280   137086344.727          50.000    26086678.060   102369657.363          50.000  
E 8  25354905.900   133240918.910          50.000    25354909.580    99498077.855          50.000  
E13  26611234.240   139842955.277          50.000    26611238.940   104428167.746          50.000  
E21  27353561.760   143743877.043          50.000    27353569.320   107341184.484          50.000  
E31  25821039.500   135690445.141          50.000    25821044.620   101327267.250          50.000  
E33  25129201.180   132054838.930          50.000    25129204.440    98612370.910          50.000  
> 2020  5 15  0 47 44.0000000  0 15       0.000000000000
G 2  24980352.320   131272651.484          50.000                                                  
G 5  21856967.180   114859132.313          50.000                                                  
G12  23547007.120   123740328.160          50.000                                                  
G15  24325517.740   127831414.457          50.000                                                  
G21  22247792.100   116912917.055          50.000                                                  
G25  21744160.960   114266270.691          50.000    21744163.960    85328705.930          50.000  
G26  23703245.060   124561325.191          50.000    23703246.700    93016570.566          50.000  
G29  20464478.060   107541554.289          50.000                                                  
E 1  24938843.100   131054485.504          50.000    24938847.480    97865350.426          50.000  
E 7  26086350.380   137084653.191          50.000    26086356.180   102368394.203          50.000  
E 8  25355008.380   133241457.469          50.000    25355012.060    99498480.023          50.000  
E13  26611586.420   139844806.094          50.000    26611591.120   104429549.848          50.000  
E21  27354159.120   143747016.211          50.000    27354166.680   107343528.668          50.000  
E31  25820878.720   135689600.215          50.000    25820883.840   101326636.297          50.000  
E33  25128967.320   132053610.016          50.000    25128970.580    98611453.215          50.000  
> 2020  5 15  0 47 45.0000000  0 15       0.000000000000
G 2  24980813.760   131275076.387          50.000                                                  
G 5  21857394.840   114861379.715          50.000                                                  
G12  23547719.840   123744073.543          50.000                                                  
G15  24324947.560   127828418.160          50.000                                                  
G21  22247526.160   116911519.547          50.000                                                  
G25  21744703.700   114269122.871          50.000    21744706.720    85330835.801          50.000  
G26  23702747.340   124558709.656          50.000    23702748.980    93014617.406          50.000  
G29  20464368.040   107540976.215          50.000                                                  
E 1  24939194.200   131056330.602          50.000    24939198.580    97866728.258          50.000  
E 7  26086028.560   137082961.980          50.000    26086034.340   102367131.289          50.000  
E 8  25355110.940   133241996.484          50.000    25355114.620    99498882.535          50.000  
E13  26611938.620   139846656.914          50.000    26611943.320   104430931.953          50.000  
E21  27354756.500   143750155.379          50.000    27354764.060   107345872.848          50.000  
E31  25820718.020   135688755.758          50.000    25820723.140   101326005.695          50.000  
E33  25128733.480   132052381.203          50.000    25128736.740    98610535.598          50.000  
> 2020  5 15  0 47 46.0000000  0 15       0.000000000000
G 2  24981275.200   131277501.242          50.000                                                  
G 5  21857822.600   114863627.633          50.000                                                  
G12  23548432.600   123747819.070          50.000                                                  
G15  24324377.400   127825421.895          50.000                                                  
G21  22247260.260   116910122.262          50.000                                                  
G25  21745246.540   114271975.457          50.000    21745249.540    85332965.977          50.000  
G26  23702249.680   124556094.527          50.000    23702251.340    93012664.555          50.000  
G29  20464258.100   107540398.500          50.000                                                  
E 1  24939545.380   131058176.082          50.000    24939549.760    97868106.375          50.000  
E 7  26085706.800   137081271.098          50.000    26085712.580   102365868.617          50.000  
E 8  25355213.600   133242535.949          50.000    25355217.280    99499285.383          50.000  
E13  26612290.820   139848507.734          50.000    26612295.520   104432314.059          50.000  
E21  27355353.860   143753294.570          50.000    27355361.420   107348217.047          50.000  
E31  25820557.420   135687911.770          50.000    25820562.520   101325375.445          50.000  
E33  25128499.660   132051152.484          50.000    25128502.940    98609618.047          50.000  
> 2020  5 15  0 47 47.0000000  0 15       0.000000000000
G 2  24981736.620   131279926.059          50.000                                                  
G 5  21858250.460   114865876.063          50.000                                                  
G12  23549145.380   123751564.742          50.000                                                  
G15  24323807.220   127822425.660          50.000                                                  
G21  22246994.400   116908725.219          50.000                                                  
G25  21745789.440   114274828.434          50.000    21745792.440    85335096.449          50.000  
G26  23701752.120   124553479.809          50.000    23701753.760    93010712.004          50.000  
G29  20464148.240   107539821.125          50.000                                                  
E 1  24939896.640   131060021.949          50.000    24939901.020    97869484.781          50.000  
E 7  26085385.080   137079580.539          50.000    26085390.880   102364606.188          50.000  
E 8  25355316.340   133243075.859          50.000    25355320.020    99499688.563          50.000  
E13  26612643.020   139850358.543          50.000    26612647.720   104433696.156          50.000  
E21  27355951.220   143756433.758          50.000    27355958.780   107350561.246          50.000  
E31  25820396.900   135687068.238          50.000    25820402.000   101324745.535          50.000  
E33  25128265.860   132049923.855          50.000    25128269.120    98608700.566          50.000  
> 2020  5 15  0 47 48.0000000  0 15       0.000000000000
G 2  24982198.040   131282350.832          50.000                                                  
G 5  21858678.420   114868125.012          50.000                                                  
G12  23549858.180   123755310.563          50.000                                                  
G15  24323237.060   127819429.445          50.000                                                  
G21  22246728.600   116907328.406          50.000                                                  
G25  21746332.420   114277681.836          50.000    21746335.420    85337227.234          50.000  
G26  23701254.620   124550865.496          50.000    23701256.280    93008759.758          50.000  
G29  20464038.420   107539244.098          50.000                                                  
E 1  24940247.960   131061868.180          50.000    24940252.340    97870863.461          50.000  
E 7  26085063.440   137077890.301          50.000    26085069.220   102363343.996          50.000  
E 8  25355419.160   133243616.223          50.000    25355422.840    99500092.078          50.000  
E13  26612995.220   139852209.355          50.000    26612999.920   104435078.254          50.000  
E21  27356548.600   143759572.957          50.000    27356556.160   107352905.449          50.000  
E31  25820236.460   135686225.176          50.000    25820241.580   101324115.977          50.000  
E33  25128032.080   132048695.324          50.000    25128035.340    98607783.156          50.000  
> 2020  5 15  0 47 49.0000000  0 15       0.000000000000
G 2  24982659.460   131284775.566          50.000                                                  
G 5  21859106.480   114870374.465          50.000                                                  
G12  23550571.020   123759056.527          50.000                                                  
G15  24322666.900   127816433.262          50.000                                                  
G21  22246462.840   116905931.832          50.000                                                  
G25  21746875.480   114280535.621          50.000    21746878.480    85339358.309          50.000  
G26  23700757.220   124548251.594          50.000    23700758.860    93006807.820          50.000  
G29  20463928.680   107538667.406          50.000                                                  
E 1  24940599.360   131063714.793          50.000    24940603.740    97872242.426          50.000  
E 7  26084741.860   137076200.383          50.000    26084747.640   102362082.047          50.000  
E 8  25355522.080   133244157.043          50.000    25355525.760    99500495.938          50.000  
E13  26613347.420   139854060.160          50.000    26613352.120   104436460.348          50.000  
E21  27357145.960   143762712.172          50.000    27357153.520   107355249.664          50.000  
E31  25820076.120   135685382.586          50.000    25820081.240   101323486.770          50.000  
E33  25127798.300   132047466.887          50.000    25127801.580    98606865.816          50.000  
> 2020  5 15  0 47 50.0000000  0 15       0.000000000000
G 2  24983120.860   131287200.258          50.000                                                  
G 5  21859534.640   114872624.426          50.000                                                  
G12  23551283.880   123762802.641          50.000                                                  
G15  24322096.740   127813437.102          50.000                                                  
G21  22246197.120   116904535.492          50.000                                                  
G25  21747418.620   114283389.828          50.000    21747421.620    85341489.691          50.000  
G26  23700259.880   124545638.098          50.000    23700261.540    93004856.188          50.000  
G29  20463819.020   107538091.074          50.000                                                  
E 1  24940950.840   131065561.801          50.000    24940955.220    97873621.684          50.000  
E 7  26084420.340   137074510.793          50.000    26084426.120   102360820.340          50.000  
E 8  25355625.080   133244698.313          50.000    25355628.760    99500900.133          50.000  
E13  26613699.600   139855910.969          50.000    26613704.300   104437842.445          50.000  
E21  27357743.340   143765851.383          50.000    27357750.900   107357593.879          50.000  
E31  25819915.880   135684540.469          50.000    25819920.980   101322857.914          50.000  
E33  25127564.560   132046238.543          50.000    25127567.820    98605948.547          50.000  
> 2020  5 15  0 47 51.0000000  0 15       0.000000000000
G 2  24983582.240   131289624.902          50.000                                                  
G 5  21859962.880   114874874.902          50.000                                                  
G12  23551996.760   123766548.879          50.000                                                  
G15  24321526.600   127810440.969          50.000                                                  
G21  22245931.460   116903139.383          50.000                                                  
G25  21747961.820   114286244.430          50.000    21747964.820    85343621.375          50.000  
G26  23699762.620   124543025.008          50.000    23699764.280    93002904.852          50.000  
G29  20463709.400   107537515.066          50.000                                                  
E 1  24941302.380   131067409.172          50.000    24941306.760    97875001.211          50.000  
E 7  26084098.880   137072821.523          50.000    26084104.660   102359558.875          50.000  
E 8  25355728.160   133245240.027          50.000    25355731.840    99501304.660          50.000  
E13  26614051.800   139857761.754          50.000    26614056.500   104439224.523          50.000  
E21  27358340.700   143768990.594          50.000    27358348.280   107359938.094          50.000  
E31  25819755.700   135683698.805          50.000    25819760.820   101322229.402          50.000  
E33  25127330.840   132045010.301          50.000    25127334.100    98605031.355          50.000  
> 2020  5 15  0 47 52.0000000  0 15       0.000000000000
G 2  24984043.640   131292049.508          50.000                                                  
G 5  21860391.240   114877125.887          50.000                                                  
G12  23552709.680   123770295.277          50.000                                                  
G15  24320956.460   127807444.859          50.000                                                  
G21  22245665.820   116901743.512          50.000                                                  
G25  21748505.120   114289099.441          50.000    21748508.120    85345753.363          50.000  
G26  23699265.440   124540412.324          50.000    23699267.100    93000953.824          50.000  
G29  20463599.860   107536939.402          50.000                                                  
E 1  24941654.000   131069256.910          50.000    24941658.360    97876381.016          50.000  
E 7  26083777.480   137071132.570          50.000    26083783.260   102358297.645          50.000  
E 8  25355831.340   133245782.191          50.000    25355835.000    99501709.523          50.000  
E13  26614404.000   139859612.551          50.000    26614408.700   104440606.613          50.000  
E21  27358938.080   143772129.828          50.000    27358945.640   107362282.324          50.000  
E31  25819595.640   135682857.613          50.000    25819600.740   101321601.238          50.000  
E33  25127097.120   132043782.152          50.000    25127100.380    98604114.230          50.000  
> 2020  5 15  0 47 53.0000000  0 15       0.000000000000
G 2  24984505.020   131294474.070          50.000                                                  
G 5  21860819.680   114879377.387          50.000                                                  
G12  23553422.620   123774041.816          50.000                                                  
G15  24320386.320   127804448.777          50.000                                                  
G21  22245400.240   116900347.863          50.000                                                  
G25  21749048.480   114291954.855          50.000    21749051.480    85347885.652          50.000  
G26  23698768.340   124537800.047          50.000    23698770.000    92999003.102          50.000  
G29  20463490.380   107536364.086          50.000                                                  
E 1  24942005.680   131071105.043          50.000    24942010.060    97877761.113          50.000  
E 7  26083456.140   137069443.945          50.000    26083461.920   102357036.660          50.000  
E 8  25355934.580   133246324.813          50.000    25355938.260    99502114.727          50.000  
E13  26614756.180   139861463.340          50.000    26614760.880   104441988.691          50.000  
E21  27359535.460   143775269.066          50.000    27359543.020   107364626.559          50.000  
E31  25819435.640   135682016.895          50.000    25819440.760   101320973.430          50.000  
E33  25126863.420   132042554.086          50.000    25126866.700    98603197.172          50.000  
> 2020  5 15  0 47 54.0000000  0 15       0.000000000000
G 2  24984966.380   131296898.578          50.000                                                  
G 5  21861248.220   114881629.398          50.000                                                  
G12  23554135.580   123777788.492          50.000                                                  
G15  24319816.180   127801452.719          50.000                                                  
G21  22245134.700   116898952.473          50.000                                                  
G25  21749591.920   114294810.664          50.000    21749594.920    85350018.234          50.000  
G26  23698271.320   124535188.176          50.000    23698272.960    92997052.680          50.000  
G29  20463380.960   107535789.105          50.000                                                  
E 1  24942357.440   131072953.563          50.000    24942361.820    97879141.500          50.000  
E 7  26083134.860   137067755.645          50.000    26083140.640   102355775.914          50.000  
E 8  25356037.920   133246867.879          50.000    25356041.600    99502520.262          50.000  
E13  26615108.380   139863314.117          50.000    26615113.080   104443370.766          50.000  
E21  27360132.840   143778408.309          50.000    27360140.400   107366970.797          50.000  
E31  25819275.740   135681176.641          50.000    25819280.860   101320345.965          50.000  
E33  25126629.740   132041326.129          50.000    25126633.020    98602280.188          50.000  
> 2020  5 15  0 47 55.0000000  0 15       0.000000000000
G 2  24985427.740   131299323.055          50.000                                                  
G 5  21861676.860   114883881.938          50.000                                                  
G12  23554848.580   123781535.328          50.000                                                  
G15  24319246.060   127798456.691          50.000                                                  
G21  22244869.200   116897557.289          50.000                                                  
G25  21750135.440   114297666.887          50.000    21750138.440    85352151.129          50.000  
G26  23697774.360   124532576.715          50.000    23697776.020    92995102.559          50.000  
G29  20463271.600   107535214.465          50.000                                                  
E 1  24942709.260   131074802.441          50.000    24942713.640    97880522.160          50.000  
E 7  26082813.640   137066067.652          50.000    26082819.440   102354515.402          50.000  
E 8  25356141.360   133247411.395          50.000    25356145.040    99502926.137          50.000  
E13  26615460.560   139865164.895          50.000    26615465.260   104444752.840          50.000  
E21  27360730.220   143781547.551          50.000    27360737.780   107369315.031          50.000  
E31  25819115.940   135680336.844          50.000    25819121.060   101319718.848          50.000  
E33  25126396.100   132040098.258          50.000    25126399.360    98601363.273          50.000  
> 2020  5 15  0 47 56.0000000  0 15       0.000000000000
G 2  24985889.100   131301747.488          50.000                                                  
G 5  21862105.600   114886134.980          50.000                                                  
G12  23555561.620   123785282.301          50.000                                                  
G15  24318675.920   127795460.676          50.000                                                  
G21  22244603.760   116896162.359          50.000                                                  
G25  21750679.040   114300523.508          50.000    21750682.040    85354284.320          50.000  
G26  23697277.500   124529965.652          50.000    23697279.140    92993152.746          50.000  
G29  20463162.320   107534640.164          50.000                                                  
E 1  24943061.160   131076651.695          50.000    24943065.540    97881903.094          50.000  
E 7  26082492.500   137064379.996          50.000    26082498.280   102353255.141          50.000  
E 8  25356244.860   133247955.363          50.000    25356248.540    99503332.344          50.000  
E13  26615812.760   139867015.660          50.000    26615817.460   104446134.906          50.000  
E21  27361327.600   143784686.805          50.000    27361335.160   107371659.281          50.000  
E31  25818956.220   135679497.512          50.000    25818961.320   101319092.074          50.000  
E33  25126162.440   132038870.465          50.000    25126165.720    98600446.418          50.000  
> 2020  5 15  0 47 57.0000000  0 15       0.000000000000
G 2  24986350.440   131304171.879          50.000                                                  
G 5  21862534.440   114888388.535          50.000                                                  
G12  23556274.660   123789029.414          50.000                                                  
G15  24318105.820   127792464.703          50.000                                                  
G21  22244338.340   116894767.652          50.000                                                  
G25  21751222.700   114303380.535          50.000    21751225.720    85356417.813          50.000  
G26  23696780.700   124527355.004          50.000    23696782.360    92991203.234          50.000  
G29  20463053.100   107534066.207          50.000                                                  
E 1  24943413.140   131078501.320          50.000    24943417.500    97883284.309          50.000  
E 7  26082171.400   137062692.652          50.000    26082177.180   102351995.113          50.000  
E 8  25356348.460   133248499.785          50.000    25356352.140    99503738.891          50.000  
E13  26616164.940   139868866.434          50.000    26616169.640   104447516.973          50.000  
E21  27361924.980   143787826.059          50.000    27361932.540   107374003.527          50.000  
E31  25818796.580   135678658.656          50.000    25818801.700   101318465.656          50.000  
E33  25125928.820   132037642.789          50.000    25125932.100    98599529.645          50.000  
> 2020  5 15  0 47 58.0000000  0 15       0.000000000000
G 2  24986811.780   131306596.234          50.000                                                  
G 5  21862963.360   114890642.598          50.000                                                  
G12  23556987.740   123792776.672          50.000                                                  
G15  24317535.700   127789468.777          50.000                                                  
G21  22244072.980   116893373.172          50.000                                                  
G25  21751766.460   114306237.969          50.000    21751769.460    85358551.609          50.000  
G26  23696283.980   124524744.762          50.000    23696285.640    92989254.027          50.000  
G29  20462943.940   107533492.598          50.000                                                  
E 1  24943765.180   131080351.332          50.000    24943769.560    97884665.809          50.000  
E 7  26081850.360   137061005.637          50.000    26081856.160   102350735.332          50.000  
E 8  25356452.140   133249044.652          50.000    25356455.820    99504145.773          50.000  
E13  26616517.120   139870717.188          50.000    26616521.820   104448899.031          50.000  
E21  27362522.360   143790965.332          50.000    27362529.920   107376347.785          50.000  
E31  25818637.040   135677820.262          50.000    25818642.160   101317839.578          50.000  
E33  25125695.220   132036415.199          50.000    25125698.480    98598612.938          50.000  
> 2020  5 15  0 47 59.0000000  0 15       0.000000000000
G 2  24987273.120   131309020.539          50.000                                                  
G 5  21863392.400   114892897.172          50.000                                                  
G12  23557700.840   123796524.063          50.000                                                  
G15  24316965.600   127786472.859          50.000                                                  
G21  22243807.660   116891978.930          50.000                                                  
G25  21752310.280   114309095.801          50.000    21752313.300    85360685.703          50.000  
G26  23695787.360   124522134.926          50.000    23695789.000    92987305.129          50.000  
G29  20462834.840   107532919.332          50.000                                                  
E 1  24944117.300   131082201.727          50.000    24944121.680    97886047.598          50.000  
E 7  26081529.400   137059318.945          50.000    26081535.180   102349475.785          50.000  
E 8  25356555.920   133249589.977          50.000    25356559.600    99504552.996          50.000  
E13  26616869.320   139872567.953          50.000    26616874.020   104450281.094          50.000  
E21  27363119.740   143794104.598          50.000    27363127.300   107378692.039          50.000  
E31  25818477.580   135676982.332          50.000    25818482.700   101317213.855          50.000  
E33  25125461.640   132035187.703          50.000    25125464.900    98597696.305          50.000  
> 2020  5 15  0 48  0.0000000  0 15       0.000000000000
G 2  24987734.440   131311444.801          50.000                                                  
G 5  21863821.520   114895152.258          50.000                                                  
G12  23558413.980   123800271.598          50.000                                                  
G15  24316395.500   127783476.969          50.000                                                  
G21  22243542.400   116890584.926          50.000                                                  
G25  21752854.180   114311954.031          50.000    21752857.200    85362820.094          50.000  
G26  23695290.800   124519525.496          50.000    23695292.440    92985356.531          50.000  
G29  20462725.820   107532346.402          50.000                                                  
E 1  24944469.480   131084052.488          50.000    24944473.860    97887429.656          50.000  
E 7  26081208.500   137057632.574          50.000    26081214.280   102348216.484          50.000  
E 8  25356659.760   133250135.746          50.000    25356663.440    99504960.551          50.000  
E13  26617221.500   139874418.699          50.000    26617226.200   104451663.145          50.000  
E21  27363717.120   143797243.863          50.000    27363724.680   107381036.297          50.000  
E31  25818318.220   135676144.871          50.000    25818323.340   101316588.477          50.000  
E33  25125228.060   132033960.301          50.000    25125231.340    98596779.734          50.000  
> 2020  5 15  0 48  1.0000000  0 15       0.000000000000
G 2  24988195.740   131313869.023          50.000                                                  
G 5  21864250.740   114897407.852          50.000                                                  
G12  23559127.140   123804019.266          50.000                                                  
G15  24315825.400   127780481.102          50.000                                                  
G21  22243277.160   116889191.152          50.000                                                  
G25  21753398.160   114314812.656          50.000    21753401.180    85364954.781          50.000  
G26  23694794.300   124516916.473          50.000    23694795.960    92983408.234          50.000  
G29  20462616.860   107531773.809          50.000                                                  
E 1  24944821.740   131085903.621          50.000    24944826.120    97888811.996          50.000  
E 7  26080887.640   137055946.523          50.000    26080893.420   102346957.422          50.000  
E 8  25356763.700   133250681.957          50.000    25356767.380    99505368.438          50.000  
E13  26617573.680   139876269.438          50.000    26617578.380   104453045.191          50.000  
E21  27364314.500   143800383.148          50.000    27364322.080   107383380.563          50.000  
E31  25818158.940   135675307.875          50.000    25818164.060   101315963.445          50.000  
E33  25124994.520   132032732.988          50.000    25124997.780    98595863.234          50.000  
> 2020  5 15  0 48  2.0000000  0 15       0.000000000000
G 2  24988657.040   131316293.195          50.000                                                  
G 5  21864680.060   114899663.953          50.000                                                  
G12  23559840.320   123807767.082          50.000                                                  
G15  24315255.300   127777485.277          50.000                                                  
G21  22243011.980   116887797.609          50.000                                                  
G25  21753942.220   114317671.703          50.000    21753945.220    85367089.781          50.000  
G26  23694297.900   124514307.871          50.000    23694299.540    92981460.254          50.000  
G29  20462507.960   107531201.563          50.000                                                  
E 1  24945174.080   131087755.141          50.000    24945178.440    97890194.621          50.000  
E 7  26080566.860   137054260.793          50.000    26080572.640   102345698.602          50.000  
E 8  25356867.740   133251228.629          50.000    25356871.420    99505776.664          50.000  
E13  26617925.860   139878120.180          50.000    26617930.560   104454427.238          50.000  
E21  27364911.900   143803522.445          50.000    27364919.460   107385724.840          50.000  
E31  25817999.760   135674471.344          50.000    25818004.860   101315338.766          50.000  
E33  25124760.980   132031505.770          50.000    25124764.240    98594946.809          50.000  
> 2020  5 15  0 48  3.0000000  0 15       0.000000000000
G 2  24989118.340   131318717.332          50.000                                                  
G 5  21865109.480   114901920.563          50.000                                                  
G12  23560553.540   123811515.035          50.000                                                  
G15  24314685.220   127774489.488          50.000                                                  
G21  22242746.840   116886404.289          50.000                                                  
G25  21754486.360   114320531.141          50.000    21754489.360    85369225.078          50.000  
G26  23693801.580   124511699.656          50.000    23693803.220    92979512.559          50.000  
G29  20462399.120   107530629.664          50.000                                                  
E 1  24945526.480   131089607.020          50.000    24945530.840    97891577.520          50.000  
E 7  26080246.140   137052575.395          50.000    26080251.920   102344440.023          50.000  
E 8  25356971.840   133251775.742          50.000    25356975.520    99506185.223          50.000  
E13  26618278.040   139879970.918          50.000    26618282.740   104455809.281          50.000  
E21  27365509.280   143806661.734          50.000    27365516.860   107388069.117          50.000  
E31  25817840.660   135673635.281          50.000    25817845.760   101314714.434          50.000  
E33  25124527.460   132030278.645          50.000    25124530.720    98594030.449          50.000  
> 2020  5 15  0 48  4.0000000  0 15       0.000000000000
G 2  24989579.640   131321141.434          50.000                                                  
G 5  21865539.000   114904177.680          50.000                                                  
G12  23561266.780   123815263.133          50.000                                                  
G15  24314115.140   127771493.711          50.000                                                  
G21  22242481.740   116885011.207          50.000                                                  
G25  21755030.560   114323390.980          50.000    21755033.560    85371360.672          50.000  
G26  23693305.320   124509091.859          50.000    23693306.960    92977565.184          50.000  
G29  20462290.360   107530058.102          50.000                                                  
E 1  24945878.940   131091459.305          50.000    24945883.320    97892960.719          50.000  
E 7  26079925.480   137050890.324          50.000    26079931.260   102343181.691          50.000  
E 8  25357076.040   133252323.320          50.000    25357079.720    99506594.129          50.000  
E13  26618630.220   139881821.652          50.000    26618634.920   104457191.320          50.000  
E21  27366106.660   143809801.031          50.000    27366114.240   107390413.391          50.000  
E31  25817681.640   135672799.691          50.000    25817686.760   101314090.453          50.000  
E33  25124293.960   132029051.617          50.000    25124297.240    98593114.164          50.000  
> 2020  5 15  0 48  5.0000000  0 15       0.000000000000
G 2  24990040.920   131323565.484          50.000                                                  
G 5  21865968.600   114906435.309          50.000                                                  
G12  23561980.040   123819011.371          50.000                                                  
G15  24313545.060   127768497.961          50.000                                                  
G21  22242216.680   116883618.371          50.000                                                  
G25  21755574.840   114326251.230          50.000    21755577.860    85373496.570          50.000  
G26  23692809.160   124506484.469          50.000    23692810.800    92975618.105          50.000  
G29  20462181.660   107529486.887          50.000                                                  
E 1  24946231.480   131093311.934          50.000    24946235.860    97894344.176          50.000  
E 7  26079604.880   137049205.563          50.000    26079610.660   102341923.594          50.000  
E 8  25357180.320   133252871.344          50.000    25357184.000    99507003.363          50.000  
E13  26618982.400   139883672.375          50.000    26618987.100   104458573.355          50.000  
E21  27366704.060   143812940.336          50.000    27366711.620   107392757.676          50.000  
E31  25817522.720   135671964.566          50.000    25817527.840   101313466.820          50.000  
E33  25124060.480   132027824.680          50.000    25124063.740    98592197.945          50.000  
> 2020  5 15  0 48  6.0000000  0 15       0.000000000000
G 2  24990502.180   131325989.492          50.000                                                  
G 5  21866398.320   114908693.445          50.000                                                  
G12  23562693.340   123822759.742          50.000                                                  
G15  24312975.000   127765502.230          50.000                                                  
G21  22241951.680   116882225.754          50.000                                                  
G25  21756119.200   114329111.883          50.000    21756122.220    85375632.770          50.000  
G26  23692313.060   124503877.500          50.000    23692314.700    92973671.344          50.000  
G29  20462073.020   107528916.012          50.000                                                  
E 1  24946584.100   131095164.965          50.000    24946588.480    97895727.930          50.000  
E 7  26079284.340   137047521.129          50.000    26079290.120   102340665.738          50.000  
E 8  25357284.700   133253419.797          50.000    25357288.380    99507412.926          50.000  
E13  26619334.580   139885523.094          50.000    26619339.280   104459955.383          50.000  
E21  27367301.440   143816079.648          50.000    27367309.020   107395101.965          50.000  
E31  25817363.900   135671129.910          50.000    25817369.000   101312843.539          50.000  
E33  25123827.020   132026597.848          50.000    25123830.280    98591281.801          50.000  
> 2020  5 15  0 48  7.0000000  0 15       0.000000000000
G 2  24990963.460   131328413.457          50.000                                                  
G 5  21866828.120   114910952.094          50.000                                                  
G12  23563406.660   123826508.266          50.000                                                  
G15  24312404.920   127762506.535          50.000                                                  
G21  22241686.720   116880833.375          50.000                                                  
G25  21756663.640   114331972.938          50.000    21756666.660    85377769.270          50.000  
G26  23691817.040   124501270.938          50.000    23691818.680    92971724.887          50.000  
G29  20461964.460   107528345.484          50.000                                                  
E 1  24946936.800   131097018.367          50.000    24946941.180    97897111.965          50.000  
E 7  26078963.860   137045837.020          50.000    26078969.640   102339408.125          50.000  
E 8  25357389.140   133253968.727          50.000    25357392.820    99507822.840          50.000  
E13  26619686.760   139887373.809          50.000    26619691.460   104461337.410          50.000  
E21  27367898.840   143819218.949          50.000    27367906.400   107397446.246          50.000  
E31  25817205.160   135670295.719          50.000    25817210.260   101312220.605          50.000  
E33  25123593.580   132025371.094          50.000    25123596.840    98590365.723          50.000  
> 2020  5 15  0 48  8.0000000  0 15       0.000000000000
G 2  24991424.700   131330837.379          50.000                                                  
G 5  21867258.020   114913211.246          50.000                                                  
G12  23564120.000   123830256.945          50.000                                                  
G15  24311834.860   127759510.867          50.000                                                  
G21  22241421.800   116879441.223          50.000                                                  
G25  21757208.160   114334834.398          50.000    21757211.180    85379906.074          50.000  
G26  23691321.100   124498664.766          50.000    23691322.740    92969778.723          50.000  
G29  20461855.940   107527775.301          50.000                                                  
E 1  24947289.560   131098872.129          50.000    24947293.940    97898496.270          50.000  
E 7  26078643.440   137044153.238          50.000    26078649.220   102338150.758          50.000  
E 8  25357493.680   133254518.090          50.000    25357497.360    99508233.078          50.000  
E13  26620038.940   139889224.523          50.000    26620043.640   104462719.438          50.000  
E21  27368496.240   143822358.277          50.000    27368503.800   107399790.551          50.000  
E31  25817046.500   135669461.984          50.000    25817051.600   101311598.008          50.000  
E33  25123360.140   132024144.434          50.000    25123363.420    98589449.711          50.000  
> 2020  5 15  0 48  9.0000000  0 15       0.000000000000
G 2  24991885.960   131333261.258          50.000                                                  
G 5  21867688.020   114915470.914          50.000                                                  
G12  23564833.380   123834005.742          50.000                                                  
G15  24311264.820   127756515.230          50.000                                                  
G21  22241156.920   116878049.313          50.000                                                  
G25  21757752.760   114337696.258          50.000    21757755.760    85382043.176          50.000  
G26  23690825.240   124496059.020          50.000    23690826.880    92967832.875          50.000  
G29  20461747.500   107527205.457          50.000                                                  
E 1  24947642.380   131100726.297          50.000    24947646.760    97899880.871          50.000  
E 7  26078323.080   137042469.781          50.000    26078328.860   102336893.629          50.000  
E 8  25357598.320   133255067.910          50.000    25357602.000    99508643.660          50.000  
E13  26620391.120   139891075.230          50.000    26620395.820   104464101.457          50.000  
E21  27369093.620   143825497.617          50.000    27369101.200   107402134.859          50.000  
E31  25816887.940   135668628.730          50.000    25816893.040   101310975.777          50.000  
E33  25123126.740   132022917.883          50.000    25123130.000    98588533.777          50.000  
> 2020  5 15  0 48 10.0000000  0 15       0.000000000000
G 2  24992347.200   131335685.094          50.000                                                  
G 5  21868118.120   114917731.102          50.000                                                  
G12  23565546.780   123837754.691          50.000                                                  
G15  24310694.760   127753519.617          50.000                                                  
G21  22240892.100   116876657.629          50.000                                                  
G25  21758297.420   114340558.520          50.000    21758300.440    85384180.578          50.000  
G26  23690329.460   124493453.676          50.000    23690331.100    92965887.324          50.000  
G29  20461639.140   107526635.953          50.000                                                  
E 1  24947995.300   131102580.824          50.000    24947999.660    97901265.746          50.000  
E 7  26078002.800   137040786.648          50.000    26078008.580   102335636.746          50.000  
E 8  25357703.020   133255618.188          50.000    25357706.700    99509054.582          50.000  
E13  26620743.300   139892925.934          50.000    26620748.000   104465483.477          50.000  
E21  27369691.020   143828636.949          50.000    27369698.600   107404479.160          50.000  
E31  25816729.460   135667795.938          50.000    25816734.560   101310353.883          50.000  
E33  25122893.360   132021691.418          50.000    25122896.620    98587617.914          50.000  
> 2020  5 15  0 48 11.0000000  0 15       0.000000000000
G 2  24992808.440   131338108.891          50.000                                                  
G 5  21868548.320   114919991.805          50.000                                                  
G12  23566260.200   123841503.773          50.000                                                  
G15  24310124.720   127750524.039          50.000                                                  
G21  22240627.300   116875266.188          50.000                                                  
G25  21758842.180   114343421.191          50.000    21758845.180    85386318.285          50.000  
G26  23689833.760   124490848.738          50.000    23689835.400    92963942.082          50.000  
G29  20461530.820   107526066.789          50.000                                                  
E 1  24948348.260   131104435.715          50.000    24948352.640    97902650.891          50.000  
E 7  26077682.560   137039103.832          50.000    26077688.340   102334380.098          50.000  
E 8  25357807.820   133256168.906          50.000    25357811.500    99509465.828          50.000  
E13  26621095.460   139894776.633          50.000    26621100.160   104466865.488          50.000  
E21  27370288.420   143831776.281          50.000    27370295.980   107406823.465          50.000  
E31  25816571.060   135666963.613          50.000    25816576.180   101309732.344          50.000  
E33  25122659.980   132020465.047          50.000    25122663.240    98586702.117          50.000  
> 2020  5 15  0 48 12.0000000  0 15       0.000000000000
G 2  24993269.660   131340532.648          50.000                                                  
G 5  21868978.600   114922253.020          50.000                                                  
G12  23566973.660   123845253.008          50.000                                                  
G15  24309554.680   127747528.488          50.000                                                  
G21  22240362.560   116873874.977          50.000                                                  
G25  21759387.000   114346284.246          50.000    21759390.000    85388456.281          50.000  
G26  23689338.120   124488244.207          50.000    23689339.760    92961997.141          50.000  
G29  20461422.580   107525497.969          50.000                                                  
E 1  24948701.320   131106291.016          50.000    24948705.700    97904036.340          50.000  
E 7  26077362.400   137037421.344          50.000    26077368.180   102333123.695          50.000  
E 8  25357912.700   133256720.082          50.000    25357916.380    99509877.422          50.000  
E13  26621447.640   139896627.328          50.000    26621452.340   104468247.500          50.000  
E21  27370885.820   143834915.637          50.000    27370893.380   107409167.789          50.000  
E31  25816412.760   135666131.758          50.000    25816417.880   101309111.152          50.000  
E33  25122426.620   132019238.773          50.000    25122429.880    98585786.395          50.000  
> 2020  5 15  0 48 13.0000000  0 15       0.000000000000
G 2  24993730.880   131342956.363          50.000                                                  
G 5  21869409.000   114924514.746          50.000                                                  
G12  23567687.140   123849002.371          50.000                                                  
G15  24308984.660   127744532.969          50.000                                                  
G21  22240097.860   116872484.000          50.000                                                  
G25  21759931.880   114349147.711          50.000    21759934.900    85390594.582          50.000  
G26  23688842.580   124485640.090          50.000    23688844.220    92960052.508          50.000  
G29  20461314.400   107524929.500          50.000                                                  
E 1  24949054.440   131108146.668          50.000    24949058.800    97905422.055          50.000  
E 7  26077042.280   137035739.172          50.000    26077048.060   102331867.531          50.000  
E 8  25358017.680   133257271.703          50.000    25358021.360    99510289.344          50.000  
E13  26621799.820   139898478.020          50.000    26621804.520   104469629.508          50.000  
E21  27371483.220   143838054.984          50.000    27371490.780   107411512.105          50.000  
E31  25816254.560   135665300.375          50.000    25816259.660   101308490.313          50.000  
E33  25122193.280   132018012.586          50.000    25122196.560    98584870.734          50.000  
> 2020  5 15  0 48 14.0000000  0 15       0.000000000000
G 2  24994192.080   131345380.020          50.000                                                  
G 5  21869839.480   114926776.969          50.000                                                  
G12  23568400.640   123852751.875          50.000                                                  
G15  24308414.620   127741537.477          50.000                                                  
G21  22239833.220   116871093.258          50.000                                                  
G25  21760476.860   114352011.574          50.000    21760479.880    85392733.180          50.000  
G26  23688347.100   124483036.383          50.000    23688348.740    92958108.184          50.000  
G29  20461206.280   107524361.363          50.000                                                  
E 1  24949407.620   131110002.695          50.000    24949412.000    97906808.051          50.000  
E 7  26076722.240   137034057.332          50.000    26076728.020   102330611.609          50.000  
E 8  25358122.720   133257823.773          50.000    25358126.400    99510701.605          50.000  
E13  26622151.980   139900328.703          50.000    26622156.680   104471011.512          50.000  
E21  27372080.600   143841194.332          50.000    27372088.180   107413856.422          50.000  
E31  25816096.440   135664469.445          50.000    25816101.540   101307869.816          50.000  
E33  25121959.960   132016786.488          50.000    25121963.220    98583955.145          50.000  
> 2020  5 15  0 48 15.0000000  0 15       0.000000000000
G 2  24994653.280   131347803.645          50.000                                                  
G 5  21870270.060   114929039.734          50.000                                                  
G12  23569114.180   123856501.508          50.000                                                  
G15  24307844.600   127738542.008          50.000                                                  
G21  22239568.600   116869702.734          50.000                                                  
G25  21761021.920   114354875.844          50.000    21761024.920    85394872.078          50.000  
G26  23687851.700   124480433.090          50.000    23687853.360    92956164.168          50.000  
G29  20461098.240   107523793.570          50.000                                                  
E 1  24949760.880   131111859.102          50.000    24949765.260    97908194.328          50.000  
E 7  26076402.260   137032375.813          50.000    26076408.040   102329355.934          50.000  
E 8  25358227.860   133258376.289          50.000    25358231.540    99511114.199          50.000  
E13  26622504.160   139902179.371          50.000    26622508.860   104472393.504          50.000  
E21  27372678.000   143844333.684          50.000    27372685.580   107416200.742          50.000  
E31  25815938.400   135663638.980          50.000    25815943.520   101307249.664          50.000  
E33  25121726.660   132015560.492          50.000    25121729.920    98583039.625          50.000  
> 2020  5 15  0 48 16.0000000  0 15       0.000000000000
G 2  24995114.460   131350227.227          50.000                                                  
G 5  21870700.760   114931303.016          50.000                                                  
G12  23569827.740   123860251.281          50.000                                                  
G15  24307274.580   127735546.566          50.000                                                  
G21  22239304.040   116868312.457          50.000                                                  
G25  21761567.040   114357740.516          50.000    21761570.060    85397011.285          50.000  
G26  23687356.400   124477830.191          50.000    23687358.040    92954220.445          50.000  
G29  20460990.260   107523226.121          50.000                                                  
E 1  24950114.220   131113715.887          50.000    24950118.600    97909580.887          50.000  
E 7  26076082.320   137030694.617          50.000    26076088.100   102328100.496          50.000  
E 8  25358333.100   133258929.258          50.000    25358336.760    99511527.129          50.000  
E13  26622856.320   139904030.047          50.000    26622861.020   104473775.504          50.000  
E21  27373275.400   143847473.047          50.000    27373282.980   107418545.066          50.000  
E31  25815780.460   135662808.996          50.000    25815785.560   101306629.867          50.000  
E33  25121493.380   132014334.582          50.000    25121496.640    98582124.176          50.000  
> 2020  5 15  0 48 17.0000000  0 15       0.000000000000
G 2  24995575.660   131352650.758          50.000                                                  
G 5  21871131.540   114933566.809          50.000                                                  
G12  23570541.320   123864001.211          50.000                                                  
G15  24306704.580   127732551.168          50.000                                                  
G21  22239039.520   116866922.406          50.000                                                  
G25  21762112.240   114360605.598          50.000    21762115.260    85399150.789          50.000  
G26  23686861.160   124475227.715          50.000    23686862.800    92952277.039          50.000  
G29  20460882.340   107522659.020          50.000                                                  
E 1  24950467.620   131115573.051          50.000    24950472.000    97910967.730          50.000  
E 7  26075762.460   137029013.750          50.000    26075768.240   102326845.301          50.000  
E 8  25358438.400   133259482.680          50.000    25358442.080    99511940.402          50.000  
E13  26623208.500   139905880.719          50.000    26623213.200   104475157.496          50.000  
E21  27373872.820   143850612.426          50.000    27373880.380   107420889.406          50.000  
E31  25815622.600   135661979.473          50.000    25815627.720   101306010.422          50.000  
E33  25121260.120   132013108.773          50.000    25121263.380    98581208.797          50.000  
> 2020  5 15  0 48 18.0000000  0 15       0.000000000000
G 2  24996036.820   131355074.316          50.000                                                  
G 5  21871562.420   114935831.098          50.000                                                  
G12  23571254.940   123867751.262          50.000                                                  
G15  24306134.540   127729555.957          50.000                                                  
G21  22238775.040   116865532.586          50.000                                                  
G25  21762657.520   114363471.063          50.000    21762660.540    85401290.582          50.000  
G26  23686366.000   124472625.609          50.000    23686367.640    92950333.891          50.000  
G29  20460774.480   107522092.250          50.000                                                  
E 1  24950821.100   131117430.563          50.000    24950825.480    97912354.828          50.000  
E 7  26075442.660   137027333.195          50.000    26075448.440   102325590.340          50.000  
E 8  25358543.800   133260036.578          50.000    25358547.460    99512354.039          50.000  
E13  26623560.660   139907731.379          50.000    26623565.360   104476539.480          50.000  
E21  27374470.260   143853751.531          50.000    27374477.880   107423233.387          50.000  
E31  25815464.840   135661150.406          50.000    25815469.940   101305391.309          50.000  
E33  25121026.860   132011883.063          50.000    25121030.120    98580293.500          50.000  
> 2020  5 15  0 48 19.0000000  0 15       0.000000000000
G 2  24996497.980   131357497.762          50.000                                                  
G 5  21871993.400   114938095.898          50.000                                                  
G12  23571968.580   123871501.469          50.000                                                  
G15  24305564.540   127726560.617          50.000                                                  
G21  22238510.620   116864143.000          50.000                                                  
G25  21763202.880   114366336.926          50.000    21763205.900    85403430.672          50.000  
G26  23685870.920   124470023.941          50.000    23685872.560    92948391.086          50.000  
G29  20460666.700   107521525.836          50.000                                                  
E 1  24951174.640   131119288.473          50.000    24951179.020    97913742.227          50.000  
E 7  26075122.920   137025652.961          50.000    26075128.700   102324335.617          50.000  
E 8  25358649.280   133260590.895          50.000    25358652.960    99512767.977          50.000  
E13  26623912.840   139909582.039          50.000    26623917.540   104477921.465          50.000  
E21  27375067.660   143856890.910          50.000    27375075.280   107425577.727          50.000  
E31  25815307.160   135660321.816          50.000    25815312.280   101304772.555          50.000  
E33  25120793.640   132010657.438          50.000    25120796.900    98579378.262          50.000  
> 2020  5 15  0 48 20.0000000  0 15       0.000000000000
G 2  24996959.140   131359921.156          50.000                                                  
G 5  21872424.460   114940361.207          50.000                                                  
G12  23572682.240   123875251.809          50.000                                                  
G15  24304994.560   127723565.301          50.000                                                  
G21  22238246.220   116862753.645          50.000                                                  
G25  21763748.320   114369203.203          50.000    21763751.340    85405571.074          50.000  
G26  23685375.920   124467422.684          50.000    23685377.560    92946448.594          50.000  
G29  20460558.980   107520959.762          50.000                                                  
E 1  24951528.260   131121146.738          50.000    24951532.640    97915129.895          50.000  
E 7  26074803.240   137023973.059          50.000    26074809.040   102323081.148          50.000  
E 8  25358754.840   133261145.664          50.000    25358758.520    99513182.254          50.000  
E13  26624265.000   139911432.688          50.000    26624269.700   104479303.441          50.000  
E21  27375665.060   143860030.289          50.000    27375672.680   107427922.066          50.000  
E31  25815149.580   135659493.691          50.000    25815154.680   101304154.152          50.000  
E33  25120560.420   132009431.906          50.000    25120563.680    98578463.090          50.000  
> 2020  5 15  0 48 21.0000000  0 15       0.000000000000
G 2  24997420.300   131362344.531          50.000                                                  
G 5  21872855.640   114942627.023          50.000                                                  
G12  23573395.940   123879002.293          50.000                                                  
G15  24304424.560   127720570.020          50.000                                                  
G21  22237981.880   116861364.523          50.000                                                  
G25  21764293.820   114372069.887          50.000    21764296.840    85407711.777          50.000  
G26  23684880.980   124464821.844          50.000    23684882.620    92944506.410          50.000  
G29  20460451.320   107520394.027          50.000                                                  
E 1  24951881.940   131123005.414          50.000    24951886.320    97916517.863          50.000  
E 7  26074483.640   137022293.484          50.000    26074489.420   102321826.922          50.000  
E 8  25358860.500   133261700.887          50.000    25358864.180    99513596.867          50.000  
E13  26624617.160   139913283.340          50.000    26624621.860   104480685.422          50.000  
E21  27376262.480   143863169.680          50.000    27376270.100   107430266.414          50.000  
E31  25814992.080   135658666.039          50.000    25814997.180   101303536.098          50.000  
E33  25120327.220   132008206.461          50.000    25120330.480    98577547.988          50.000  
> 2020  5 15  0 48 22.0000000  0 15       0.000000000000
G 2  24997881.440   131364767.855          50.000                                                  
G 5  21873286.900   114944893.340          50.000                                                  
G12  23574109.660   123882752.914          50.000                                                  
G15  24303854.580   127717574.758          50.000                                                  
G21  22237717.580   116859975.629          50.000                                                  
G25  21764839.420   114374936.957          50.000    21764842.420    85409852.770          50.000  
G26  23684386.140   124462221.406          50.000    23684387.780    92942564.523          50.000  
G29  20460343.720   107519828.641          50.000                                                  
E 1  24952235.700   131124864.449          50.000    24952240.080    97917906.102          50.000  
E 7  26074164.080   137020614.230          50.000    26074169.860   102320572.934          50.000  
E 8  25358966.240   133262256.551          50.000    25358969.900    99514011.809          50.000  
E13  26624969.320   139915133.984          50.000    26624974.040   104482067.398          50.000  
E21  27376859.880   143866309.078          50.000    27376867.500   107432610.770          50.000  
E31  25814834.660   135657838.848          50.000    25814839.780   101302918.391          50.000  
E33  25120094.040   132006981.129          50.000    25120097.300    98576632.965          50.000  
> 2020  5 15  0 48 23.0000000  0 15       0.000000000000
G 2  24998342.560   131367191.133          50.000                                                  
G 5  21873718.260   114947160.176          50.000                                                  
G12  23574823.400   123886503.695          50.000                                                  
G15  24303284.600   127714579.535          50.000                                                  
G21  22237453.320   116858586.973          50.000                                                  
G25  21765385.080   114377804.434          50.000    21765388.080    85411994.070          50.000  
G26  23683891.360   124459621.383          50.000    23683893.000    92940622.949          50.000  
G29  20460236.200   107519263.602          50.000                                                  
E 1  24952589.540   131126723.848          50.000    24952593.920    97919294.613          50.000  
E 7  26073844.600   137018935.313          50.000    26073850.380   102319319.199          50.000  
E 8  25359072.060   133262812.676          50.000    25359075.740    99514427.098          50.000  
E13  26625321.480   139916984.613          50.000    26625326.200   104483449.359          50.000  
E21  27377457.280   143869448.473          50.000    27377464.900   107434955.117          50.000  
E31  25814677.340   135657012.137          50.000    25814682.460   101302301.043          50.000  
E33  25119860.880   132005755.871          50.000    25119864.140    98575718.000          50.000  
> 2020  5 15  0 48 24.0000000  0 15       0.000000000000
G 2  24998803.700   131369614.375          50.000                                                  
G 5  21874149.720   114949427.516          50.000                                                  
G12  23575537.180   123890254.598          50.000                                                  
G15  24302714.640   127711584.340          50.000                                                  
G21  22237189.120   116857198.559          50.000                                                  
G25  21765930.820   114380672.316          50.000    21765933.820    85414135.668          50.000  
G26  23683396.680   124457021.770          50.000    23683398.320    92938681.680          50.000  
G29  20460128.740   107518698.902          50.000                                                  
E 1  24952943.440   131128583.641          50.000    24952947.820    97920683.422          50.000  
E 7  26073525.160   137017256.703          50.000    26073530.940   102318065.691          50.000  
E 8  25359177.960   133263369.250          50.000    25359181.640    99514842.719          50.000  
E13  26625673.660   139918835.258          50.000    26625678.360   104484831.332          50.000  
E21  27378054.700   143872587.871          50.000    27378062.320   107437299.473          50.000  
E31  25814520.100   135656185.887          50.000    25814525.220   101301684.039          50.000  
E33  25119627.740   132004530.719          50.000    25119631.000    98574803.117          50.000  
> 2020  5 15  0 48 25.0000000  0 15       0.000000000000
G 2  24999264.800   131372037.563          50.000                                                  
G 5  21874581.280   114951695.367          50.000                                                  
G12  23576250.980   123894005.641          50.000                                                  
G15  24302144.680   127708589.180          50.000                                                  
G21  22236924.960   116855810.371          50.000                                                  
G25  21766476.620   114383540.598          50.000    21766479.640    85416277.566          50.000  
G26  23682902.060   124454422.563          50.000    23682903.700    92936740.715          50.000  
G29  20460021.340   107518134.547          50.000                                                  
E 1  24953297.420   131130443.805          50.000    24953301.800    97922072.500          50.000  
E 7  26073205.800   137015578.422          50.000    26073211.560   102316812.434          50.000  
E 8  25359283.960   133263926.273          50.000    25359287.640    99515258.680          50.000  
E13  26626025.820   139920685.891          50.000    26626030.520   104486213.297          50.000  
E21  27378652.100   143875727.273          50.000    27378659.720   107439643.828          50.000  
E31  25814362.960   135655360.090          50.000    25814368.080   101301067.371          50.000  
E33  25119394.620   132003305.656          50.000    25119397.880    98573888.297          50.000  
> 2020  5 15  0 48 26.0000000  0 15       0.000000000000
G 2  24999725.920   131374460.723          50.000                                                  
G 5  21875012.920   114953963.727          50.000                                                  
G12  23576964.800   123897756.824          50.000                                                  
G15  24301574.720   127705594.047          50.000                                                  
G21  22236660.820   116854422.410          50.000                                                  
G25  21767022.520   114386409.273          50.000    21767025.540    85418419.758          50.000  
G26  23682407.520   124451823.762          50.000    23682409.160    92934800.055          50.000  
G29  20459914.020   107517570.535          50.000                                                  
E 1  24953651.460   131132304.340          50.000    24953655.840    97923461.863          50.000  
E 7  26072886.480   137013900.477          50.000    26072892.260   102315559.418          50.000  
E 8  25359390.040   133264483.738          50.000    25359393.720    99515674.969          50.000  
E13  26626377.980   139922536.520          50.000    26626382.680   104487595.258          50.000  
E21  27379249.520   143878866.684          50.000    27379257.140   107441988.191          50.000  
E31  25814205.900   135654534.773          50.000    25814211.020   101300451.063          50.000  
E33  25119161.520   132002080.684          50.000    25119164.780    98572973.547          50.000  
> 2020  5 15  0 48 27.0000000  0 15       0.000000000000
G 2  25000187.020   131376883.824          50.000                                                  
G 5  21875444.680   114956232.598          50.000                                                  
G12  23577678.660   123901508.141          50.000                                                  
G15  24301004.760   127702598.945          50.000                                                  
G21  22236396.760   116853034.688          50.000                                                  
G25  21767568.480   114389278.355          50.000    21767571.500    85420562.250          50.000  
G26  23681913.060   124449225.379          50.000    23681914.700    92932859.703          50.000  
G29  20459806.740   107517006.863          50.000                                                  
E 1  24954005.580   131134165.254          50.000    24954009.960    97924851.504          50.000  
E 7  26072567.240   137012222.852          50.000    26072573.020   102314306.652          50.000  
E 8  25359496.220   133265041.668          50.000    25359499.900    99516091.602          50.000  
E13  26626730.140   139924387.137          50.000    26626734.840   104488977.215          50.000  
E21  27379846.920   143882006.109          50.000    27379854.540   107444332.566          50.000  
E31  25814048.940   135653709.914          50.000    25814054.060   101299835.098          50.000  
E33  25118928.420   132000855.809          50.000    25118931.680    98572058.867          50.000  
> 2020  5 15  0 48 28.0000000  0 15       0.000000000000
G 2  25000648.120   131379306.883          50.000                                                  
G 5  21875876.520   114958501.969          50.000                                                  
G12  23578392.540   123905259.602          50.000                                                  
G15  24300434.820   127699603.875          50.000                                                  
G21  22236132.720   116851647.195          50.000                                                  
G25  21768114.520   114392147.840          50.000    21768117.540    85422705.047          50.000  
G26  23681418.680   124446627.398          50.000    23681420.320    92930919.656          50.000  
G29  20459699.540   107516443.543          50.000                                                  
E 1  24954359.780   131136026.539          50.000    24954364.160    97926241.426          50.000  
E 7  26072248.060   137010545.543          50.000    26072253.840   102313054.117          50.000  
E 8  25359602.460   133265600.031          50.000    25359606.140    99516508.563          50.000  
E13  26627082.300   139926237.754          50.000    26627087.000   104490359.168          50.000  
E21  27380444.340   143885145.520          50.000    27380451.960   107446676.930          50.000  
E31  25813892.060   135652885.539          50.000    25813897.180   101299219.492          50.000  
E33  25118695.360   131999631.027          50.000    25118698.620    98571144.258          50.000  
> 2020  5 15  0 48 29.0000000  0 15       0.000000000000
G 2  25001109.200   131381729.902          50.000                                                  
G 5  21876308.460   114960771.859          50.000                                                  
G12  23579106.440   123909011.215          50.000                                                  
G15  24299864.880   127696608.832          50.000                                                  
G21  22235868.720   116850259.934          50.000                                                  
G25  21768660.640   114395017.703          50.000    21768663.660    85424848.129          50.000  
G26  23680924.380   124444029.848          50.000    23680926.020    92928979.926          50.000  
G29  20459592.420   107515880.559          50.000                                                  
E 1  24954714.040   131137888.207          50.000    24954718.420    97927631.629          50.000  
E 7  26071928.940   137008868.563          50.000    26071934.720   102311801.824          50.000  
E 8  25359708.800   133266158.855          50.000    25359712.480    99516925.863          50.000  
E13  26627434.460   139928088.355          50.000    26627439.160   104491741.109          50.000  
E21  27381041.740   143888284.938          50.000    27381049.360   107449021.297          50.000  
E31  25813735.280   135652061.629          50.000    25813740.380   101298604.234          50.000  
E33  25118462.300   131998406.340          50.000    25118465.560    98570229.719          50.000  
> 2020  5 15  0 48 30.0000000  0 15       0.000000000000
G 2  25001570.280   131384152.887          50.000                                                  
G 5  21876740.500   114963042.254          50.000                                                  
G12  23579820.380   123912762.953          50.000                                                  
G15  24299294.940   127693613.820          50.000                                                  
G21  22235604.780   116848872.910          50.000                                                  
G25  21769206.840   114397887.992          50.000    21769209.860    85426991.523          50.000  
G26  23680430.140   124441432.684          50.000    23680431.800    92927040.488          50.000  
G29  20459485.340   107515317.918          50.000                                                  
E 1  24955068.360   131139750.238          50.000    24955072.740    97929022.109          50.000  
E 7  26071609.880   137007191.906          50.000    26071615.660   102310549.777          50.000  
E 8  25359815.220   133266718.125          50.000    25359818.900    99517343.504          50.000  
E13  26627786.600   139929938.965          50.000    26627791.320   104493123.059          50.000  
E21  27381639.160   143891424.355          50.000    27381646.780   107451365.664          50.000  
E31  25813578.580   135651238.180          50.000    25813583.700   101297989.324          50.000  
E33  25118229.260   131997181.742          50.000    25118232.520    98569315.246          50.000  
> 2020  5 15  0 48 31.0000000  0 15       0.000000000000
G 2  25002031.340   131386575.813          50.000                                                  
G 5  21877172.640   114965313.156          50.000                                                  
G12  23580534.340   123916514.832          50.000                                                  
G15  24298725.020   127690618.848          50.000                                                  
G21  22235340.880   116847486.117          50.000                                                  
G25  21769753.100   114400758.676          50.000    21769756.120    85429135.215          50.000  
G26  23679936.000   124438835.941          50.000    23679937.640    92925101.363          50.000  
G29  20459378.340   107514755.625          50.000                                                  
E 1  24955422.780   131141612.652          50.000    24955427.160    97930412.871          50.000  
E 7  26071290.880   137005515.570          50.000    26071296.660   102309297.973          50.000  
E 8  25359921.740   133267277.844          50.000    25359925.420    99517761.473          50.000  
E13  26628138.760   139931789.570          50.000    26628143.480   104494505.000          50.000  
E21  27382236.560   143894563.789          50.000    27382244.200   107453710.047          50.000  
E31  25813421.960   135650415.191          50.000    25813427.080   101297374.754          50.000  
E33  25117996.240   131995957.238          50.000    25117999.500    98568400.844          50.000  
> 2020  5 15  0 48 32.0000000  0 15       0.000000000000
G 2  25002492.400   131388998.707          50.000                                                  
G 5  21877604.880   114967584.559          50.000                                                  
G12  23581248.320   123920266.848          50.000                                                  
G15  24298155.100   127687623.898          50.000                                                  
G21  22235077.020   116846099.555          50.000                                                  
G25  21770299.460   114403629.762          50.000    21770302.480    85431279.207          50.000  
G26  23679441.940   124436239.598          50.000    23679443.580    92923162.535          50.000  
G29  20459271.400   107514193.664          50.000                                                  
E 1  24955777.240   131143475.434          50.000    24955781.620    97931803.910          50.000  
E 7  26070971.940   137003839.574          50.000    26070977.720   102308046.414          50.000  
E 8  25360028.340   133267838.020          50.000    25360032.000    99518179.785          50.000  
E13  26628490.920   139933640.168          50.000    26628495.620   104495886.941          50.000  
E21  27382833.980   143897703.223          50.000    27382841.600   107456054.426          50.000  
E31  25813265.440   135649592.676          50.000    25813270.560   101296760.539          50.000  
E33  25117763.240   131994732.824          50.000    25117766.500    98567486.508          50.000  
> 2020  5 15  0 48 33.0000000  0 15       0.000000000000
G 2  25002953.460   131391421.555          50.000                                                  
G 5  21878037.200   114969856.477          50.000                                                  
G12  23581962.340   123924019.004          50.000                                                  
G15  24297585.180   127684628.984          50.000                                                  
G21  22234813.220   116844713.219          50.000                                                  
G25  21770845.880   114406501.246          50.000    21770848.900    85433423.496          50.000  
G26  23678947.940   124433643.684          50.000    23678949.580    92921224.027          50.000  
G29  20459164.540   107513632.055          50.000                                                  
E 1  24956131.800   131145338.613          50.000    24956136.180    97933195.242          50.000  
E 7  26070653.060   137002163.887          50.000    26070658.840   102306795.090          50.000  
E 8  25360135.020   133268398.641          50.000    25360138.700    99518598.430          50.000  
E13  26628843.080   139935490.758          50.000    26628847.780   104497268.875          50.000  
E21  27383431.400   143900842.656          50.000    27383439.020   107458398.805          50.000  
E31  25813109.020   135648770.637          50.000    25813114.120   101296146.676          50.000  
E33  25117530.260   131993508.504          50.000    25117533.520    98566572.246          50.000  
> 2020  5 15  0 48 34.0000000  0 15       0.000000000000
G 2  25003414.500   131393844.371          50.000                                                  
G 5  21878469.640   114972128.902          50.000                                                  
G12  23582676.380   123927771.309          50.000                                                  
G15  24297015.260   127681634.094          50.000                                                  
G21  22234549.440   116843327.125          50.000                                                  
G25  21771392.380   114409373.137          50.000    21771395.400    85435568.086          50.000  
G26  23678454.040   124431048.176          50.000    23678455.680    92919285.828          50.000  
G29  20459057.720   107513070.781          50.000                                                  
E 1  24956486.420   131147202.129          50.000    24956490.800    97934586.832          50.000  
E 7  26070334.260   137000488.531          50.000    26070340.040   102305544.016          50.000  
E 8  25360241.780   133268959.711          50.000    25360245.460    99519017.414          50.000  
E13  26629195.220   139937341.344          50.000    26629199.940   104498650.805          50.000  
E21  27384028.820   143903982.102          50.000    27384036.440   107460743.191          50.000  
E31  25812952.660   135647949.047          50.000    25812957.780   101295533.152          50.000  
E33  25117297.300   131992284.285          50.000    25117300.560    98565658.055          50.000  
> 2020  5 15  0 48 35.0000000  0 15       0.000000000000
G 2  25003875.540   131396267.129          50.000                                                  
G 5  21878902.160   114974401.832          50.000                                                  
G12  23583390.440   123931523.746          50.000                                                  
G15  24296445.360   127678639.242          50.000                                                  
G21  22234285.720   116841941.258          50.000                                                  
G25  21771938.960   114412245.410          50.000    21771941.980    85437712.965          50.000  
G26  23677960.200   124428453.074          50.000    23677961.840    92917347.926          50.000  
G29  20458950.980   107512509.859          50.000                                                  
E 1  24956841.100   131149066.047          50.000    24956845.480    97935978.715          50.000  
E 7  26070015.500   136998813.492          50.000    26070021.280   102304293.176          50.000  
E 8  25360348.640   133269521.230          50.000    25360352.300    99519436.727          50.000  
E13  26629547.380   139939191.926          50.000    26629552.100   104500032.730          50.000  
E21  27384626.220   143907121.539          50.000    27384633.860   107463087.578          50.000  
E31  25812796.420   135647127.938          50.000    25812801.520   101294919.984          50.000  
E33  25117064.360   131991060.152          50.000    25117067.620    98564743.930          50.000  
> 2020  5 15  0 48 36.0000000  0 15       0.000000000000
G 2  25004336.560   131398689.844          50.000                                                  
G 5  21879334.780   114976675.266          50.000                                                  
G12  23584104.520   123935276.324          50.000                                                  
G15  24295875.460   127675644.430          50.000                                                  
G21  22234022.040   116840555.621          50.000                                                  
G25  21772485.600   114415118.090          50.000    21772488.620    85439858.148          50.000  
G26  23677466.440   124425858.379          50.000    23677468.080    92915410.332          50.000  
G29  20458844.300   107511949.281          50.000                                                  
E 1  24957195.860   131150930.324          50.000    24957200.240    97937370.871          50.000  
E 7  26069696.820   136997138.785          50.000    26069702.600   102303042.586          50.000  
E 8  25360455.560   133270083.203          50.000    25360459.240    99519856.383          50.000  
E13  26629899.540   139941042.504          50.000    26629904.240   104501414.656          50.000  
E21  27385223.640   143910260.992          50.000    27385231.260   107465431.969          50.000  
E31  25812640.240   135646307.293          50.000    25812645.360   101294307.164          50.000  
E33  25116831.420   131989836.105          50.000    25116834.680    98563829.871          50.000  
> 2020  5 15  0 48 37.0000000  0 15       0.000000000000
G 2  25004797.580   131401112.520          50.000                                                  
G 5  21879767.480   114978949.211          50.000                                                  
G12  23584818.640   123939029.039          50.000                                                  
G15  24295305.560   127672649.641          50.000                                                  
G21  22233758.400   116839170.223          50.000                                                  
G25  21773032.340   114417991.180          50.000    21773035.360    85442003.637          50.000  
G26  23676972.760   124423264.098          50.000    23676974.400    92913473.047          50.000  
G29  20458737.700   107511389.047          50.000                                                  
E 1  24957550.700   131152794.988          50.000    24957555.080    97938763.313          50.000  
E 7  26069378.180   136995464.406          50.000    26069383.960   102301792.234          50.000  
E 8  25360562.600   133270645.629          50.000    25360566.280    99520276.375          50.000  
E13  26630251.680   139942893.074          50.000    26630256.400   104502796.574          50.000  
E21  27385821.060   143913400.438          50.000    27385828.680   107467776.359          50.000  
E31  25812484.180   135645487.117          50.000    25812489.280   101293694.699          50.000  
E33  25116598.520   131988612.164          50.000    25116601.780    98562915.891          50.000  
> 2020  5 15  0 48 38.0000000  0 15       0.000000000000
G 2  25005258.600   131403535.152          50.000                                                  
G 5  21880200.300   114981223.668          50.000                                                  
G12  23585532.780   123942781.895          50.000                                                  
G15  24294735.680   127669654.879          50.000                                                  
G21  22233494.820   116837785.063          50.000                                                  
G25  21773579.140   114420864.656          50.000    21773582.160    85444149.414          50.000  
G26  23676479.160   124420670.227          50.000    23676480.800    92911536.066          50.000  
G29  20458631.140   107510829.160          50.000                                                  
E 1  24957905.600   131154660.027          50.000    24957909.980    97940156.035          50.000  
E 7  26069059.620   136993790.355          50.000    26069065.400   102300542.133          50.000  
E 8  25360669.700   133271208.496          50.000    25360673.380    99520696.699          50.000  
E13  26630603.840   139944743.645          50.000    26630608.540   104504178.492          50.000  
E21  27386418.480   143916539.891          50.000    27386426.100   107470120.754          50.000  
E31  25812328.180   135644667.406          50.000    25812333.300   101293082.578          50.000  
E33  25116365.620   131987388.316          50.000    25116368.880    98562001.980          50.000  
> 2020  5 15  0 48 39.0000000  0 15       0.000000000000
G 2  25005719.600   131405957.750          50.000                                                  
G 5  21880633.200   114983498.625          50.000                                                  
G12  23586246.960   123946534.887          50.000                                                  
G15  24294165.800   127666660.168          50.000                                                  
G21  22233231.280   116836400.125          50.000                                                  
G25  21774126.020   114423738.543          50.000    21774129.040    85446295.496          50.000  
G26  23675985.640   124418076.777          50.000    23675987.280    92909599.402          50.000  
G29  20458524.660   107510269.621          50.000                                                  
E 1  24958260.560   131156525.434          50.000    24958264.940    97941549.035          50.000  
E 7  26068741.120   136992116.621          50.000    26068746.900   102299292.270          50.000  
E 8  25360776.900   133271771.816          50.000    25360780.580    99521117.359          50.000  
E13  26630955.980   139946594.211          50.000    26630960.700   104505560.406          50.000  
E21  27387015.900   143919679.344          50.000    27387023.520   107472465.152          50.000  
E31  25812172.280   135643848.168          50.000    25812177.400   101292470.809          50.000  
E33  25116132.740   131986164.555          50.000    25116136.000    98561088.129          50.000  
> 2020  5 15  0 48 40.0000000  0 15       0.000000000000
G 2  25006180.580   131408380.289          50.000                                                  
G 5  21881066.220   114985774.090          50.000                                                  
G12  23586961.160   123950288.016          50.000                                                  
G15  24293595.920   127663665.461          50.000                                                  
G21  22232967.760   116835015.418          50.000                                                  
G25  21774672.980   114426612.816          50.000    21774676.000    85448441.867          50.000  
G26  23675492.200   124415483.727          50.000    23675493.840    92907663.031          50.000  
G29  20458418.260   107509710.414          50.000                                                  
E 1  24958615.620   131158391.219          50.000    24958620.000    97942942.316          50.000  
E 7  26068422.680   136990443.219          50.000    26068428.460   102298042.652          50.000  
E 8  25360884.180   133272335.582          50.000    25360887.860    99521538.352          50.000  
E13  26631308.120   139948444.762          50.000    26631312.840   104506942.313          50.000  
E21  27387613.320   143922818.813          50.000    27387620.940   107474809.555          50.000  
E31  25812016.480   135643029.398          50.000    25812021.600   101291859.391          50.000  
E33  25115899.880   131984940.895          50.000    25115903.140    98560174.359          50.000  
> 2020  5 15  0 48 41.0000000  0 15       0.000000000000
G 2  25006641.580   131410802.789          50.000                                                  
G 5  21881499.320   114988050.070          50.000                                                  
G12  23587675.380   123954041.281          50.000                                                  
G15  24293026.060   127660670.809          50.000                                                  
G21  22232704.300   116833630.949          50.000                                                  
G25  21775220.000   114429487.484          50.000    21775223.020    85450588.535          50.000  
G26  23674998.840   124412891.086          50.000    23675000.480    92905726.973          50.000  
G29  20458311.900   107509151.563          50.000                                                  
E 1  24958970.740   131160257.387          50.000    24958975.120    97944335.883          50.000  
E 7  26068104.300   136988770.137          50.000    26068110.080   102296793.273          50.000  
E 8  25360991.540   133272899.801          50.000    25360995.220    99521959.688          50.000  
E13  26631660.280   139950295.316          50.000    26631664.980   104508324.223          50.000  
E21  27388210.740   143925958.270          50.000    27388218.360   107477153.953          50.000  
E31  25811860.760   135642211.094          50.000    25811865.860   101291248.316          50.000  
E33  25115667.040   131983717.328          50.000    25115670.300    98559260.656          50.000  
> 2020  5 15  0 48 42.0000000  0 15       0.000000000000
G 2  25007102.560   131413225.242          50.000                                                  
G 5  21881932.520   114990326.551          50.000                                                  
G12  23588389.620   123957794.676          50.000                                                  
G15  24292456.200   127657676.180          50.000                                                  
G21  22232440.900   116832246.703          50.000                                                  
G25  21775767.120   114432362.570          50.000    21775770.140    85452735.512          50.000  
G26  23674505.540   124410298.859          50.000    23674507.180    92903791.219          50.000  
G29  20458205.620   107508593.043          50.000                                                  
E 1  24959325.920   131162123.902          50.000    24959330.300    97945729.707          50.000  
E 7  26067785.980   136987097.387          50.000    26067791.760   102295544.145          50.000  
E 8  25361099.000   133273464.469          50.000    25361102.680    99522381.352          50.000  
E13  26632012.420   139952145.867          50.000    26632017.140   104509706.125          50.000  
E21  27388808.160   143929097.738          50.000    27388815.780   107479498.359          50.000  
E31  25811705.120   135641393.258          50.000    25811710.240   101290637.594          50.000  
E33  25115434.220   131982493.848          50.000    25115437.480    98558347.020          50.000  
> 2020  5 15  0 48 43.0000000  0 15       0.000000000000
G 2  25007563.520   131415647.660          50.000                                                  
G 5  21882365.820   114992603.543          50.000                                                  
G12  23589103.900   123961548.219          50.000                                                  
G15  24291886.340   127654681.582          50.000                                                  
G21  22232177.520   116830862.699          50.000                                                  
G25  21776314.300   114435238.051          50.000    21776317.320    85454882.785          50.000  
G26  23674012.340   124407707.047          50.000    23674013.980    92901855.777          50.000  
G29  20458099.400   107508034.883          50.000                                                  
E 1  24959681.180   131163990.816          50.000    24959685.560    97947123.832          50.000  
E 7  26067467.720   136985424.953          50.000    26067473.500   102294295.246          50.000  
E 8  25361206.540   133274029.594          50.000    25361210.200    99522803.359          50.000  
E13  26632364.560   139953996.410          50.000    26632369.280   104511088.023          50.000  
E21  27389405.580   143932237.195          50.000    27389413.200   107481842.754          50.000  
E31  25811549.580   135640575.891          50.000    25811554.700   101290027.223          50.000  
E33  25115201.420   131981270.461          50.000    25115204.680    98557433.453          50.000  
> 2020  5 15  0 48 44.0000000  0 15       0.000000000000
G 2  25008024.480   131418070.043          50.000                                                  
G 5  21882799.200   114994881.039          50.000                                                  
G12  23589818.200   123965301.895          50.000                                                  
G15  24291316.500   127651687.016          50.000                                                  
G21  22231914.200   116829478.922          50.000                                                  
G25  21776861.560   114438113.910          50.000    21776864.580    85457030.344          50.000  
G26  23673519.200   124405115.645          50.000    23673520.840    92899920.641          50.000  
G29  20457993.260   107507477.059          50.000                                                  
E 1  24960036.500   131165858.094          50.000    24960040.880    97948518.227          50.000  
E 7  26067149.540   136983752.852          50.000    26067155.300   102293046.602          50.000  
E 8  25361314.160   133274595.156          50.000    25361317.820    99523225.695          50.000  
E13  26632716.720   139955846.957          50.000    26632721.420   104512469.922          50.000  
E21  27390003.000   143935376.672          50.000    27390010.620   107484187.168          50.000  
E31  25811394.140   135639758.980          50.000    25811399.240   101289417.195          50.000  
E33  25114968.640   131980047.172          50.000    25114971.900    98556519.957          50.000  
> 2020  5 15  0 48 45.0000000  0 15       0.000000000000
G 2  25008485.440   131420492.375          50.000                                                  
G 5  21883232.700   114997159.047          50.000                                                  
G12  23590532.520   123969055.707          50.000                                                  
G15  24290746.640   127648692.484          50.000                                                  
G21  22231650.920   116828095.375          50.000                                                  
G25  21777408.900   114440990.191          50.000    21777411.920    85459178.215          50.000  
G26  23673026.160   124402524.656          50.000    23673027.800    92897985.813          50.000  
G29  20457887.160   107506919.582          50.000                                                  
E 1  24960391.900   131167725.746          50.000    24960396.280    97949912.898          50.000  
E 7  26066831.400   136982081.078          50.000    26066837.180   102291798.199          50.000  
E 8  25361421.860   133275161.176          50.000    25361425.540    99523648.371          50.000  
E13  26633068.860   139957697.488          50.000    26633073.560   104513851.813          50.000  
E21  27390600.420   143938516.148          50.000    27390608.040   107486531.582          50.000  
E31  25811238.760   135638942.539          50.000    25811243.880   101288807.516          50.000  
E33  25114735.860   131978823.969          50.000    25114739.120    98555606.527          50.000  
> 2020  5 15  0 48 46.0000000  0 15       0.000000000000
G 2  25008946.380   131422914.672          50.000                                                  
G 5  21883666.280   114999437.563          50.000                                                  
G12  23591246.880   123972809.660          50.000                                                  
G15  24290176.800   127645697.984          50.000                                                  
G21  22231387.680   116826712.063          50.000                                                  
G25  21777956.300   114443866.863          50.000    21777959.320    85461326.379          50.000  
G26  23672533.180   124399934.086          50.000    23672534.820    92896051.293          50.000  
G29  20457781.140   107506362.441          50.000                                                  
E 1  24960747.380   131169593.770          50.000    24960751.760    97951307.852          50.000  
E 7  26066513.340   136980409.621          50.000    26066519.100   102290550.035          50.000  
E 8  25361529.660   133275727.637          50.000    25361533.340    99524071.379          50.000  
E13  26633421.000   139959548.012          50.000    26633425.700   104515233.695          50.000  
E21  27391197.840   143941655.625          50.000    27391205.460   107488875.992          50.000  
E31  25811083.500   135638126.586          50.000    25811088.600   101288198.199          50.000  
E33  25114503.120   131977600.867          50.000    25114506.380    98554693.172          50.000  
> 2020  5 15  0 48 47.0000000  0 15       0.000000000000
G 2  25009407.320   131425336.918          50.000                                                  
G 5  21884099.960   115001716.582          50.000                                                  
G12  23591961.260   123976563.742          50.000                                                  
G15  24289606.980   127642703.523          50.000                                                  
G21  22231124.480   116825328.977          50.000                                                  
G25  21778503.800   114446743.934          50.000    21778506.820    85463474.840          50.000  
G26  23672040.280   124397343.910          50.000    23672041.920    92894117.074          50.000  
G29  20457675.180   107505805.652          50.000                                                  
E 1  24961102.920   131171462.176          50.000    24961107.300    97952703.090          50.000  
E 7  26066195.320   136978738.496          50.000    26066201.100   102289302.117          50.000  
E 8  25361637.540   133276294.563          50.000    25361641.220    99524494.734          50.000  
E13  26633773.140   139961398.543          50.000    26633777.860   104516615.586          50.000  
E21  27391795.260   143944795.113          50.000    27391802.900   107491220.414          50.000  
E31  25810928.300   135637311.082          50.000    25810933.420   101287589.219          50.000  
E33  25114270.380   131976377.855          50.000    25114273.640    98553779.887          50.000  
> 2020  5 15  0 48 48.0000000  0 15       0.000000000000
G 2  25009868.260   131427759.125          50.000                                                  
G 5  21884533.740   115003996.109          50.000                                                  
G12  23592675.660   123980317.977          50.000                                                  
G15  24289037.160   127639709.090          50.000                                                  
G21  22230861.340   116823946.137          50.000                                                  
G25  21779051.360   114449621.391          50.000    21779054.380    85465623.586          50.000  
G26  23671547.460   124394754.156          50.000    23671549.100    92892183.172          50.000  
G29  20457569.300   107505249.195          50.000                                                  
E 1  24961458.540   131173330.949          50.000    24961462.920    97954098.602          50.000  
E 7  26065877.380   136977067.691          50.000    26065883.160   102288054.441          50.000  
E 8  25361745.500   133276861.922          50.000    25361749.180    99524918.410          50.000  
E13  26634125.280   139963249.051          50.000    26634130.000   104517997.461          50.000  
E21  27392392.680   143947934.582          50.000    27392400.320   107493564.820          50.000  
E31  25810773.200   135636496.051          50.000    25810778.320   101286980.590          50.000  
E33  25114037.660   131975154.934          50.000    25114040.920    98552866.664          50.000  
> 2020  5 15  0 48 49.0000000  0 15       0.000000000000
G 2  25010329.180   131430181.293          50.000                                                  
G 5  21884967.600   115006276.137          50.000                                                  
G12  23593390.100   123984072.352          50.000                                                  
G15  24288467.340   127636714.695          50.000                                                  
G21  22230598.220   116822563.516          50.000                                                  
G25  21779599.000   114452499.258          50.000    21779602.020    85467772.645          50.000  
G26  23671054.740   124392164.816          50.000    23671056.360    92890249.570          50.000  
G29  20457463.480   107504693.094          50.000                                                  
E 1  24961814.220   131175200.094          50.000    24961818.600    97955494.391          50.000  
E 7  26065559.500   136975397.219          50.000    26065565.280   102286807.012          50.000  
E 8  25361853.540   133277429.746          50.000    25361857.220    99525342.434          50.000  
E13  26634477.420   139965099.574          50.000    26634482.140   104519379.344          50.000  
E21  27392990.100   143951074.078          50.000    27392997.740   107495909.246          50.000  
E31  25810618.200   135635681.488          50.000    25810623.320   101286372.316          50.000  
E33  25113804.960   131973932.109          50.000    25113808.220    98551953.516          50.000  
> 2020  5 15  0 48 50.0000000  0 15       0.000000000000
G 2  25010790.080   131432603.414          50.000                                                  
G 5  21885401.580   115008556.676          50.000                                                  
G12  23594104.560   123987826.848          50.000                                                  
G15  24287897.520   127633720.336          50.000                                                  
G21  22230335.160   116821181.125          50.000                                                  
G25  21780146.700   114455377.539          50.000    21780149.740    85469922.008          50.000  
G26  23670562.080   124389575.879          50.000    23670563.700    92888316.277          50.000  
G29  20457357.720   107504137.340          50.000                                                  
E 1  24962169.980   131177069.605          50.000    24962174.360    97956890.453          50.000  
E 7  26065241.680   136973727.078          50.000    26065247.460   102285559.832          50.000  
E 8  25361961.680   133277998.008          50.000    25361965.360    99525766.785          50.000  
E13  26634829.560   139966950.086          50.000    26634834.280   104520761.215          50.000  
E21  27393587.540   143954213.563          50.000    27393595.160   107498253.668          50.000  
E31  25810463.280   135634867.391          50.000    25810468.400   101285764.383          50.000  
E33  25113572.280   131972709.371          50.000    25113575.540    98551040.438          50.000  
> 2020  5 15  0 48 51.0000000  0 15       0.000000000000
G 2  25011251.000   131435025.488          50.000                                                  
G 5  21885835.640   115010837.719          50.000                                                  
G12  23594819.040   123991581.508          50.000                                                  
G15  24287327.720   127630726.004          50.000                                                  
G21  22230072.140   116819798.965          50.000                                                  
G25  21780694.500   114458256.199          50.000    21780697.520    85472071.656          50.000  
G26  23670069.480   124386987.363          50.000    23670071.120    92886383.293          50.000  
G29  20457252.020   107503581.930          50.000                                                  
E 1  24962525.800   131178939.520          50.000    24962530.200    97958286.816          50.000  
E 7  26064923.920   136972057.262          50.000    26064929.700   102284312.891          50.000  
E 8  25362069.900   133278566.727          50.000    25362073.580    99526191.477          50.000  
E13  26635181.700   139968800.594          50.000    26635186.420   104522143.086          50.000  
E21  27394184.960   143957353.051          50.000    27394192.600   107500598.086          50.000  
E31  25810308.460   135634053.770          50.000    25810313.560   101285156.813          50.000  
E33  25113339.620   131971486.734          50.000    25113342.880    98550127.426          50.000  
> 2020  5 15  0 48 52.0000000  0 15       0.000000000000
G 2  25011711.900   131437447.531          50.000                                                  
G 5  21886269.820   115013119.273          50.000                                                  
G12  23595533.560   123995336.277          50.000                                                  
G15  24286757.920   127627731.699          50.000                                                  
G21  22229809.160   116818417.027          50.000                                                  
G25  21781242.360   114461135.258          50.000    21781245.380    85474221.605          50.000  
G26  23669576.980   124384399.258          50.000    23669578.620    92884450.625          50.000  
G29  20457146.400   107503026.855          50.000                                                  
E 1  24962881.700   131180809.793          50.000    24962886.100    97959683.449          50.000  
E 7  26064606.220   136970387.754          50.000    26064612.000   102283066.184          50.000  
E 8  25362178.220   133279135.895          50.000    25362181.880    99526616.504          50.000  
E13  26635533.840   139970651.098          50.000    26635538.540   104523524.957          50.000  
E21  27394782.380   143960492.555          50.000    27394790.020   107502942.520          50.000  
E31  25810153.700   135633240.609          50.000    25810158.820   101284549.582          50.000  
E33  25113106.980   131970264.188          50.000    25113110.240    98549214.488          50.000  
> 2020  5 15  0 48 53.0000000  0 15       0.000000000000
G 2  25012172.780   131439869.527          50.000                                                  
G 5  21886704.080   115015401.332          50.000                                                  
G12  23596248.100   123999091.199          50.000                                                  
G15  24286188.140   127624737.434          50.000                                                  
G21  22229546.240   116817035.328          50.000                                                  
G25  21781790.300   114464014.711          50.000    21781793.320    85476371.848          50.000  
G26  23669084.560   124381811.563          50.000    23669086.200    92882518.258          50.000  
G29  20457040.840   107502472.129          50.000                                                  
E 1  24963237.680   131182680.438          50.000    24963242.060    97961080.359          50.000  
E 7  26064288.580   136968718.586          50.000    26064294.360   102281819.727          50.000  
E 8  25362286.600   133279705.516          50.000    25362290.280    99527041.871          50.000  
E13  26635885.980   139972501.586          50.000    26635890.680   104524906.816          50.000  
E21  27395379.800   143963632.047          50.000    27395387.440   107505286.941          50.000  
E31  25809999.060   135632427.922          50.000    25810004.160   101283942.703          50.000  
E33  25112874.340   131969041.742          50.000    25112877.600    98548301.621          50.000  
> 2020  5 15  0 48 54.0000000  0 15       0.000000000000
G 2  25012633.660   131442291.480          50.000                                                  
G 5  21887138.440   115017683.895          50.000                                                  
G12  23596962.660   124002846.246          50.000                                                  
G15  24285618.340   127621743.211          50.000                                                  
G21  22229283.360   116815653.848          50.000                                                  
G25  21782338.320   114466894.563          50.000    21782341.340    85478522.391          50.000  
G26  23668592.220   124379224.270          50.000    23668593.860    92880586.195          50.000  
G29  20456935.340   107501917.746          50.000                                                  
E 1  24963593.720   131184551.441          50.000    24963598.100    97962477.539          50.000  
E 7  26063971.020   136967049.746          50.000    26063976.780   102280573.516          50.000  
E 8  25362395.080   133280275.582          50.000    25362398.760    99527467.574          50.000  
E13  26636238.120   139974352.086          50.000    26636242.820   104526288.688          50.000  
E21  27395977.240   143966771.547          50.000    27395984.880   107507631.375          50.000  
E31  25809844.500   135631615.691          50.000    25809849.600   101283336.172          50.000  
E33  25112641.740   131967819.367          50.000    25112645.000    98547388.816          50.000  
> 2020  5 15  0 48 55.0000000  0 15       0.000000000000
G 2  25013094.540   131444713.387          50.000                                                  
G 5  21887572.880   115019966.969          50.000                                                  
G12  23597677.240   124006601.434          50.000                                                  
G15  24285048.560   127618749.008          50.000                                                  
G21  22229020.520   116814272.609          50.000                                                  
G25  21782886.420   114469774.816          50.000    21782889.440    85480673.230          50.000  
G26  23668099.960   124376637.406          50.000    23668101.580    92878654.453          50.000  
G29  20456829.900   107501363.715          50.000                                                  
E 1  24963949.840   131186422.832          50.000    24963954.220    97963875.012          50.000  
E 7  26063653.500   136965381.219          50.000    26063659.280   102279327.547          50.000  
E 8  25362503.640   133280846.094          50.000    25362507.320    99527893.609          50.000  
E13  26636590.240   139976202.563          50.000    26636594.960   104527670.539          50.000  
E21  27396574.660   143969911.055          50.000    27396582.300   107509975.816          50.000  
E31  25809690.020   135630803.930          50.000    25809695.140   101282729.988          50.000  
E33  25112409.160   131966597.109          50.000    25112412.400    98546476.094          50.000  
> 2020  5 15  0 48 56.0000000  0 15       0.000000000000
G 2  25013555.400   131447135.246          50.000                                                  
G 5  21888007.440   115022250.547          50.000                                                  
G12  23598391.860   124010356.742          50.000                                                  
G15  24284478.800   127615754.840          50.000                                                  
G21  22228757.720   116812891.602          50.000                                                  
G25  21783434.580   114472655.461          50.000    21783437.600    85482824.367          50.000  
G26  23667607.760   124374050.938          50.000    23667609.400    92876723.004          50.000  
G29  20456724.540   107500810.023          50.000                                                  
E 1  24964306.020   131188294.586          50.000    24964310.400    97965272.754          50.000  
E 7  26063336.060   136963713.023          50.000    26063341.820   102278081.820          50.000  
E 8  25362612.300   133281417.047          50.000    25362615.980    99528319.973          50.000  
E13  26636942.380   139978053.039          50.000    26636947.100   104529052.391          50.000  
E21  27397172.100   143973050.543          50.000    27397179.720   107512320.238          50.000  
E31  25809535.640   135629992.633          50.000    25809540.740   101282124.152          50.000  
E33  25112176.580   131965374.914          50.000    25112179.820    98545563.422          50.000  
> 2020  5 15  0 48 57.0000000  0 15       0.000000000000
G 2  25014016.260   131449557.059          50.000                                                  
G 5  21888442.080   115024534.629          50.000                                                  
G12  23599106.500   124014112.203          50.000                                                  
G15  24283909.040   127612760.707          50.000                                                  
G21  22228494.960   116811510.824          50.000                                                  
G25  21783982.840   114475536.500          50.000    21783985.860    85484975.793          50.000  
G26  23667115.660   124371464.895          50.000    23667117.280    92874791.875          50.000  
G29  20456619.240   107500256.676          50.000                                                  
E 1  24964662.280   131190166.730          50.000    24964666.660    97966670.785          50.000  
E 7  26063018.680   136962045.152          50.000    26063024.440   102276836.336          50.000  
E 8  25362721.040   133281988.453          50.000    25362724.700    99528746.676          50.000  
E13  26637294.520   139979903.516          50.000    26637299.220   104530434.242          50.000  
E21  27397769.520   143976190.043          50.000    27397777.160   107514664.676          50.000  
E31  25809381.340   135629181.820          50.000    25809386.460   101281518.684          50.000  
E33  25111944.020   131964152.820          50.000    25111947.280    98544650.824          50.000  
> 2020  5 15  0 48 58.0000000  0 15       0.000000000000
G 2  25014477.120   131451978.832          50.000                                                  
G 5  21888876.820   115026819.223          50.000                                                  
G12  23599821.180   124017867.781          50.000                                                  
G15  24283339.260   127609766.602          50.000                                                  
G21  22228232.260   116810130.293          50.000                                                  
G25  21784531.160   114478417.938          50.000    21784534.180    85487127.520          50.000  
G26  23666623.620   124368879.270          50.000    23666625.260    92872861.055          50.000  
G29  20456514.020   107499703.676          50.000                                                  
E 1  24965018.600   131192039.234          50.000    24965022.980    97968069.090          50.000  
E 7  26062701.340   136960377.617          50.000    26062707.120   102275591.105          50.000  
E 8  25362829.860   133282560.316          50.000    25362833.540    99529173.723          50.000  
E13  26637646.640   139981753.992          50.000    26637651.360   104531816.094          50.000  
E21  27398366.940   143979329.551          50.000    27398374.580   107517009.113          50.000  
E31  25809227.140   135628371.465          50.000    25809232.240   101280913.551          50.000  
E33  25111711.480   131962930.836          50.000    25111714.740    98543738.305          50.000  
> 2020  5 15  0 48 59.0000000  0 15       0.000000000000
G 2  25014937.960   131454400.570          50.000                                                  
G 5  21889311.660   115029104.320          50.000                                                  
G12  23600535.860   124021623.516          50.000                                                  
G15  24282769.520   127606772.539          50.000                                                  
G21  22227969.580   116808749.973          50.000                                                  
G25  21785079.540   114481299.770          50.000    21785082.560    85489279.539          50.000  
G26  23666131.680   124366294.043          50.000    23666133.300    92870930.535          50.000  
G29  20456408.840   107499151.016          50.000                                                  
E 1  24965375.000   131193912.105          50.000    24965379.380    97969467.664          50.000  
E 7  26062384.080   136958710.398          50.000    26062389.860   102274346.109          50.000  
E 8  25362938.760   133283132.625          50.000    25362942.440    99529601.098          50.000  
E13  26637998.780   139983604.449          50.000    26638003.480   104533197.934          50.000  
E21  27398964.380   143982469.055          50.000    27398972.020   107519353.551          50.000  
E31  25809073.020   135627561.566          50.000    25809078.120   101280308.762          50.000  
E33  25111478.960   131961708.934          50.000    25111482.220    98542825.852          50.000  
> 2020  5 15  0 49  0.0000000  0 15       0.000000000000
G 2  25015398.780   131456822.250          50.000                                                  
G 5  21889746.600   115031389.926          50.000                                                  
G12  23601250.580   124025379.375          50.000                                                  
G15  24282199.760   127603778.500          50.000                                                  
G21  22227706.960   116807369.898          50.000                                                  
G25  21785628.020   114484182.008          50.000    21785631.040    85491431.863          50.000  
G26  23665639.800   124363709.234          50.000    23665641.420    92869000.324          50.000  
G29  20456303.740   107498598.707          50.000                                                  
E 1  24965731.460   131195785.359          50.000    24965735.840    97970866.523          50.000  
E 7  26062066.880   136957043.504          50.000    26062072.660   102273101.355          50.000  
E 8  25363047.760   133283705.383          50.000    25363051.420    99530028.813          50.000  
E13  26638350.900   139985454.898          50.000    26638355.620   104534579.766          50.000  
E21  27399561.800   143985608.563          50.000    27399569.440   107521697.992          50.000  
E31  25808919.000   135626752.148          50.000    25808924.100   101279704.328          50.000  
E33  25111246.460   131960487.121          50.000    25111249.700    98541913.465          50.000  
> 2020  5 15  0 49  1.0000000  0 15       0.000000000000
G 2  25015859.620   131459243.891          50.000                                                  
G 5  21890181.640   115033676.035          50.000                                                  
G12  23601965.320   124029135.383          50.000                                                  
G15  24281630.020   127600784.500          50.000                                                  
G21  22227444.380   116805990.043          50.000                                                  
G25  21786176.560   114487064.629          50.000    21786179.580    85493584.473          50.000  
G26  23665148.000   124361124.824          50.000    23665149.620    92867070.414          50.000  
G29  20456198.700   107498046.742          50.000                                                  
E 1  24966088.000   131197658.980          50.000    24966092.380    97972265.660          50.000  
E 7  26061749.740   136955376.938          50.000    26061755.520   102271856.848          50.000  
E 8  25363156.840   133284278.590          50.000    25363160.500    99530456.859          50.000  
E13  26638703.040   139987305.359          50.000    26638707.740   104535961.605          50.000  
E21  27400159.240   143988748.070          50.000    27400166.880   107524042.430          50.000  
E31  25808765.060   135625943.195          50.000    25808770.160   101279100.242          50.000  
E33  25111013.980   131959265.406          50.000    25111017.220    98541001.148          50.000  
> 2020  5 15  0 49  2.0000000  0 15       0.000000000000
G 2  25016320.420   131461665.484          50.000                                                  
G 5  21890616.760   115035962.652          50.000                                                  
G12  23602680.100   124032891.527          50.000                                                  
G15  24281060.300   127597790.531          50.000                                                  
G21  22227181.860   116804610.434          50.000                                                  
G25  21786725.200   114489947.664          50.000    21786728.200    85495737.395          50.000  
G26  23664656.300   124358540.859          50.000    23664657.920    92865140.832          50.000  
G29  20456093.740   107497495.125          50.000                                                  
E 1  24966444.620   131199532.973          50.000    24966448.980    97973665.074          50.000  
E 7  26061432.680   136953710.703          50.000    26061438.440   102270612.582          50.000  
E 8  25363266.000   133284852.246          50.000    25363269.660    99530885.242          50.000  
E13  26639055.160   139989155.809          50.000    26639059.880   104537343.438          50.000  
E21  27400756.660   143991887.578          50.000    27400764.300   107526386.867          50.000  
E31  25808611.200   135625134.707          50.000    25808616.300   101278496.508          50.000  
E33  25110781.500   131958043.793          50.000    25110784.760    98540088.910          50.000  
> 2020  5 15  0 49  3.0000000  0 15       0.000000000000
G 2  25016781.240   131464087.039          50.000                                                  
G 5  21891052.000   115038249.781          50.000                                                  
G12  23603394.900   124036647.809          50.000                                                  
G15  24280490.580   127594796.617          50.000                                                  
G21  22226919.360   116803231.047          50.000                                                  
G25  21787273.900   114492831.102          50.000    21787276.900    85497890.609          50.000  
G26  23664164.660   124355957.289          50.000    23664166.280    92863211.551          50.000  
G29  20455988.840   107496943.848          50.000                                                  
E 1  24966801.300   131201407.355          50.000    24966805.680    97975064.777          50.000  
E 7  26061115.660   136952044.793          50.000    26061121.420   102269368.566          50.000  
E 8  25363375.240   133285426.355          50.000    25363378.920    99531313.961          50.000  
E13  26639407.300   139991006.254          50.000    26639412.000   104538725.270          50.000  
E21  27401354.100   143995027.086          50.000    27401361.720   107528731.309          50.000  
E31  25808457.440   135624326.691          50.000    25808462.540   101277893.121          50.000  
E33  25110549.060   131956822.258          50.000    25110552.300    98539176.727          50.000  
> 2020  5 15  0 49  4.0000000  0 15       0.000000000000
G 2  25017242.040   131466508.547          50.000                                                  
G 5  21891487.320   115040537.410          50.000                                                  
G12  23604109.720   124040404.219          50.000                                                  
G15  24279920.840   127591802.715          50.000                                                  
G21  22226656.920   116801851.902          50.000                                                  
G25  21787822.660   114495714.914          50.000    21787825.680    85500044.109          50.000  
G26  23663673.100   124353374.129          50.000    23663674.720    92861282.570          50.000  
G29  20455884.000   107496392.918          50.000                                                  
E 1  24967158.040   131203282.090          50.000    24967162.420    97976464.746          50.000  
E 7  26060798.720   136950379.211          50.000    26060804.480   102268124.793          50.000  
E 8  25363484.580   133286000.910          50.000    25363488.240    99531743.020          50.000  
E13  26639759.420   139992856.691          50.000    26639764.120   104540107.090          50.000  
E21  27401951.520   143998166.594          50.000    27401959.160   107531075.750          50.000  
E31  25808303.780   135623519.148          50.000    25808308.880   101277290.090          50.000  
E33  25110316.620   131955600.820          50.000    25110319.860    98538264.617          50.000  
> 2020  5 15  0 49  5.0000000  0 15       0.000000000000
G 2  25017702.820   131468930.023          50.000                                                  
G 5  21891922.720   115042825.539          50.000                                                  
G12  23604824.580   124044160.766          50.000                                                  
G15  24279351.140   127588808.852          50.000                                                  
G21  22226394.520   116800472.988          50.000                                                  
G25  21788371.520   114498599.152          50.000    21788374.520    85502197.930          50.000  
G26  23663181.620   124350791.379          50.000    23663183.220    92859353.902          50.000  
G29  20455779.220   107495842.328          50.000                                                  
E 1  24967514.860   131205157.203          50.000    24967519.240    97977864.996          50.000  
E 7  26060481.820   136948713.953          50.000    26060487.580   102266881.262          50.000  
E 8  25363594.000   133286575.918          50.000    25363597.660    99532172.410          50.000  
E13  26640111.560   139994707.125          50.000    26640116.260   104541488.910          50.000  
E21  27402548.960   144001306.105          50.000    27402556.580   107533420.191          50.000  
E31  25808150.200   135622712.063          50.000    25808155.300   101276687.398          50.000  
E33  25110084.200   131954379.469          50.000    25110087.460    98537352.574          50.000  
> 2020  5 15  0 49  6.0000000  0 15       0.000000000000
G 2  25018163.600   131471351.438          50.000                                                  
G 5  21892358.240   115045114.184          50.000                                                  
G12  23605539.440   124047917.453          50.000                                                  
G15  24278781.420   127585815.027          50.000                                                  
G21  22226132.180   116799094.309          50.000                                                  
G25  21788920.440   114501483.770          50.000    21788923.460    85504352.027          50.000  
G26  23662690.220   124348209.055          50.000    23662691.820    92857425.547          50.000  
G29  20455674.520   107495292.090          50.000                                                  
E 1  24967871.760   131207032.699          50.000    24967876.140    97979265.531          50.000  
E 7  26060165.000   136947049.023          50.000    26060170.760   102265637.973          50.000  
E 8  25363703.500   133287151.383          50.000    25363707.180    99532602.145          50.000  
E13  26640463.680   139996557.563          50.000    26640468.380   104542870.734          50.000  
E21  27403146.380   144004445.609          50.000    27403154.020   107535764.629          50.000  
E31  25807996.700   135621905.457          50.000    25808001.800   101276085.070          50.000  
E33  25109851.820   131953158.230          50.000    25109855.060    98536440.617          50.000  
> 2020  5 15  0 49  7.0000000  0 15       0.000000000000
G 2  25018624.380   131473772.820          50.000                                                  
G 5  21892793.860   115047403.332          50.000                                                  
G12  23606254.340   124051674.281          50.000                                                  
G15  24278211.720   127582821.234          50.000                                                  
G21  22225869.860   116797715.855          50.000                                                  
G25  21789469.440   114504368.785          50.000    21789472.460    85506506.426          50.000  
G26  23662198.880   124345627.141          50.000    23662200.500    92855497.496          50.000  
G29  20455569.880   107494742.191          50.000                                                  
E 1  24968228.720   131208908.559          50.000    24968233.100    97980666.340          50.000  
E 7  26059848.240   136945384.426          50.000    26059853.980   102264394.934          50.000  
E 8  25363813.100   133287727.289          50.000    25363816.760    99533032.207          50.000  
E13  26640815.800   139998407.992          50.000    26640820.500   104544252.555          50.000  
E21  27403743.820   144007585.129          50.000    27403751.440   107538109.078          50.000  
E31  25807843.300   135621099.305          50.000    25807848.400   101275483.078          50.000  
E33  25109619.440   131951937.066          50.000    25109622.680    98535528.711          50.000  
> 2020  5 15  0 49  8.0000000  0 15       0.000000000000
G 2  25019085.160   131476194.160          50.000                                                  
G 5  21893229.560   115049692.980          50.000                                                  
G12  23606969.280   124055431.230          50.000                                                  
G15  24277642.040   127579827.480          50.000                                                  
G21  22225607.600   116796337.629          50.000                                                  
G25  21790018.520   114507254.199          50.000    21790021.520    85508661.121          50.000  
G26  23661707.640   124343045.629          50.000    23661709.260    92853569.754          50.000  
G29  20455465.300   107494192.633          50.000                                                  
E 1  24968585.760   131210784.793          50.000    24968590.140    97982067.426          50.000  
E 7  26059531.540   136943720.148          50.000    26059537.280   102263152.137          50.000  
E 8  25363922.780   133288303.641          50.000    25363926.440    99533462.602          50.000  
E13  26641167.920   140000258.414          50.000    26641172.620   104545634.363          50.000  
E21  27404341.260   144010724.641          50.000    27404348.880   107540453.516          50.000  
E31  25807689.980   135620293.629          50.000    25807695.080   101274881.441          50.000  
E33  25109387.080   131950716.004          50.000    25109390.320    98534616.883          50.000  
> 2020  5 15  0 49  9.0000000  0 15       0.000000000000
G 2  25019545.920   131478615.461          50.000                                                  
G 5  21893665.360   115051983.133          50.000                                                  
G12  23607684.220   124059188.328          50.000                                                  
G15  24277072.340   127576833.770          50.000                                                  
G21  22225345.380   116794959.652          50.000                                                  
G25  21790567.680   114510140.016          50.000    21790570.680    85510816.113          50.000  
G26  23661216.480   124340464.543          50.000    23661218.080    92851642.324          50.000  
G29  20455360.780   107493643.426          50.000                                                  
E 1  24968942.880   131212661.410          50.000    24968947.240    97983468.801          50.000  
E 7  26059214.900   136942056.207          50.000    26059220.640   102261909.586          50.000  
E 8  25364032.540   133288880.453          50.000    25364036.200    99533893.344          50.000  
E13  26641520.060   140002108.859          50.000    26641524.760   104547016.191          50.000  
E21  27404938.680   144013864.176          50.000    27404946.320   107542797.977          50.000  
E31  25807536.760   135619488.434          50.000    25807541.860   101274280.160          50.000  
E33  25109154.720   131949495.023          50.000    25109157.960    98533705.117          50.000  
> 2020  5 15  0 49 10.0000000  0 15       0.000000000000
G 2  25020006.660   131481036.707          50.000                                                  
G 5  21894101.260   115054273.793          50.000                                                  
G12  23608399.200   124062945.543          50.000                                                  
G15  24276502.660   127573840.078          50.000                                                  
G21  22225083.200   116793581.898          50.000                                                  
G25  21791116.900   114513026.211          50.000    21791119.900    85512971.395          50.000  
G26  23660725.400   124337883.875          50.000    23660727.000    92849715.207          50.000  
G29  20455256.340   107493094.559          50.000                                                  
E 1  24969300.060   131214538.387          50.000    24969304.420    97984870.441          50.000  
E 7  26058898.320   136940392.586          50.000    26058904.060   102260667.277          50.000  
E 8  25364142.380   133289457.703          50.000    25364146.060    99534324.410          50.000  
E13  26641872.180   140003959.262          50.000    26641876.880   104548397.988          50.000  
E21  27405536.120   144017003.695          50.000    27405543.740   107545142.426          50.000  
E31  25807383.620   135618683.695          50.000    25807388.720   101273679.227          50.000  
E33  25108922.400   131948274.152          50.000    25108925.640    98532793.434          50.000  
> 2020  5 15  0 49 11.0000000  0 15       0.000000000000
G 2  25020467.400   131483457.922          50.000                                                  
G 5  21894537.260   115056564.953          50.000                                                  
G12  23609114.200   124066702.906          50.000                                                  
G15  24275933.000   127570846.441          50.000                                                  
G21  22224821.060   116792204.375          50.000                                                  
G25  21791666.200   114515912.813          50.000    21791669.200    85515126.977          50.000  
G26  23660234.380   124335303.613          50.000    23660236.000    92847788.395          50.000  
G29  20455151.960   107492546.039          50.000                                                  
E 1  24969657.300   131216415.738          50.000    24969661.660    97986272.363          50.000  
E 7  26058581.800   136938729.281          50.000    26058587.540   102259425.203          50.000  
E 8  25364252.320   133290035.410          50.000    25364255.980    99534755.820          50.000  
E13  26642224.300   140005809.672          50.000    26642229.000   104549779.793          50.000  
E21  27406133.560   144020143.223          50.000    27406141.180   107547486.879          50.000  
E31  25807230.580   135617879.430          50.000    25807235.660   101273078.641          50.000  
E33  25108690.100   131947053.367          50.000    25108693.340    98531881.813          50.000  
> 2020  5 15  0 49 12.0000000  0 15       0.000000000000
G 2  25020928.140   131485879.090          50.000                                                  
G 5  21894973.340   115058856.633          50.000                                                  
G12  23609829.240   124070460.406          50.000                                                  
G15  24275363.320   127567852.836          50.000                                                  
G21  22224558.960   116790827.078          50.000                                                  
G25  21792215.580   114518799.805          50.000    21792218.580    85517282.852          50.000  
G26  23659743.460   124332723.770          50.000    23659745.060    92845861.891          50.000  
G29  20455047.640   107491997.867          50.000                                                  
E 1  24970014.620   131218293.469          50.000    24970018.980    97987674.566          50.000  
E 7  26058265.340   136937066.328          50.000    26058271.100   102258183.395          50.000  
E 8  25364362.340   133290613.566          50.000    25364366.000    99535187.563          50.000  
E13  26642576.420   140007660.078          50.000    26642581.120   104551161.594          50.000  
E21  27406730.980   144023282.746          50.000    27406738.620   107549831.328          50.000  
E31  25807077.620   135617075.629          50.000    25807082.700   101272478.402          50.000  
E33  25108457.800   131945832.684          50.000    25108461.040    98530970.270          50.000  
> 2020  5 15  0 49 13.0000000  0 15       0.000000000000
G 2  25021388.860   131488300.199          50.000                                                  
G 5  21895409.540   115061148.805          50.000                                                  
G12  23610544.300   124074218.035          50.000                                                  
G15  24274793.660   127564859.258          50.000                                                  
G21  22224296.920   116789450.020          50.000                                                  
G25  21792765.020   114521687.195          50.000    21792768.040    85519439.020          50.000  
G26  23659252.600   124330144.336          50.000    23659254.200    92843935.691          50.000  
G29  20454943.400   107491450.039          50.000                                                  
E 1  24970372.020   131220171.570          50.000    24970376.380    97989077.051          50.000  
E 7  26057948.960   136935403.680          50.000    26057954.700   102256941.809          50.000  
E 8  25364472.440   133291192.168          50.000    25364476.100    99535619.641          50.000  
E13  26642928.540   140009510.477          50.000    26642933.240   104552543.387          50.000  
E21  27407328.420   144026422.277          50.000    27407336.040   107552175.789          50.000  
E31  25806924.740   135616272.297          50.000    25806929.840   101271878.516          50.000  
E33  25108225.540   131944612.074          50.000    25108228.760    98530058.777          50.000  
> 2020  5 15  0 49 14.0000000  0 15       0.000000000000
G 2  25021849.580   131490721.332          50.000                                                  
G 5  21895845.800   115063441.555          50.000                                                  
G12  23611259.380   124077975.750          50.000                                                  
G15  24274223.960   127561866.004          50.000                                                  
G21  22224034.900   116788073.316          50.000                                                  
G25  21793314.560   114524574.992          50.000    21793317.540    85521595.574          50.000  
G26  23658761.840   124327565.266          50.000    23658763.440    92842009.813          50.000  
G29  20454839.220   107490902.559          50.000                                                  
E 1  24970729.480   131222049.973          50.000    24970733.860    97990479.707          50.000  
E 7  26057632.620   136933741.395          50.000    26057638.380   102255700.504          50.000  
E 8  25364582.620   133291771.320          50.000    25364586.260    99536052.172          50.000  
E13  26643280.660   140011360.871          50.000    26643285.360   104553925.176          50.000  
E21  27407925.900   144029561.563          50.000    27407933.560   107554519.910          50.000  
E31  25806771.980   135615469.391          50.000    25806777.080   101271278.910          50.000  
E33  25107993.280   131943391.574          50.000    25107996.520    98529147.363          50.000  
> 2020  5 15  0 49 15.0000000  0 15       0.000000000000
G 2  25022310.280   131493142.387          50.000                                                  
G 5  21896282.180   115065734.738          50.000                                                  
G12  23611974.500   124081733.660          50.000                                                  
G15  24273654.320   127558872.504          50.000                                                  
G21  22223772.940   116786696.719          50.000                                                  
G25  21793864.160   114527463.188          50.000    21793867.140    85523752.344          50.000  
G26  23658271.140   124324986.664          50.000    23658272.740    92840084.234          50.000  
G29  20454735.100   107490355.426          50.000                                                  
E 1  24971087.020   131223928.816          50.000    24971091.400    97991882.738          50.000  
E 7  26057316.360   136932079.410          50.000    26057322.100   102254459.410          50.000  
E 8  25364692.900   133292350.824          50.000    25364696.540    99536484.918          50.000  
E13  26643632.780   140013211.262          50.000    26643637.460   104555306.961          50.000  
E21  27408523.340   144032701.090          50.000    27408531.000   107556864.359          50.000  
E31  25806619.280   135614667.000          50.000    25806624.380   101270679.719          50.000  
E33  25107761.040   131942171.164          50.000    25107764.280    98528236.020          50.000  
> 2020  5 15  0 49 16.0000000  0 15       0.000000000000
G 2  25022770.980   131495563.383          50.000                                                  
G 5  21896718.660   115068028.434          50.000                                                  
G12  23612689.620   124085491.691          50.000                                                  
G15  24273084.680   127555879.039          50.000                                                  
G21  22223511.020   116785320.355          50.000                                                  
G25  21794413.840   114530351.777          50.000    21794416.820    85525909.406          50.000  
G26  23657780.540   124322408.492          50.000    23657782.140    92838158.977          50.000  
G29  20454631.040   107489808.641          50.000                                                  
E 1  24971444.620   131225808.043          50.000    24971449.000    97993286.055          50.000  
E 7  26057000.160   136930417.758          50.000    26057005.900   102253218.566          50.000  
E 8  25364803.260   133292930.781          50.000    25364806.900    99536918.004          50.000  
E13  26643984.880   140015061.656          50.000    26643989.580   104556688.746          50.000  
E21  27409120.760   144035840.613          50.000    27409128.420   107559208.805          50.000  
E31  25806466.680   135613865.078          50.000    25806471.780   101270080.883          50.000  
E33  25107528.820   131940950.855          50.000    25107532.060    98527324.750          50.000  
> 2020  5 15  0 49 17.0000000  0 15       0.000000000000
G 2  25023231.680   131497984.344          50.000                                                  
G 5  21897155.220   115070322.637          50.000                                                  
G12  23613404.780   124089249.867          50.000                                                  
G15  24272515.040   127552885.613          50.000                                                  
G21  22223249.140   116783944.215          50.000                                                  
G25  21794963.600   114533240.754          50.000    21794966.580    85528066.758          50.000  
G26  23657290.000   124319830.719          50.000    23657291.600    92836234.016          50.000  
G29  20454527.060   107489262.199          50.000                                                  
E 1  24971802.300   131227687.637          50.000    24971806.680    97994689.648          50.000  
E 7  26056684.020   136928756.434          50.000    26056689.760   102251977.969          50.000  
E 8  25364913.700   133293511.188          50.000    25364917.340    99537351.422          50.000  
E13  26644337.000   140016912.063          50.000    26644341.700   104558070.543          50.000  
E21  27409718.200   144038980.141          50.000    27409725.860   107561553.254          50.000  
E31  25806314.160   135613063.625          50.000    25806319.260   101269482.398          50.000  
E33  25107296.620   131939730.625          50.000    25107299.840    98526413.539          50.000  
> 2020  5 15  0 49 18.0000000  0 15       0.000000000000
G 2  25023692.360   131500405.238          50.000                                                  
G 5  21897591.900   115072617.344          50.000                                                  
G12  23614119.960   124093008.180          50.000                                                  
G15  24271945.420   127549892.227          50.000                                                  
G21  22222987.320   116782568.305          50.000                                                  
G25  21795513.420   114536130.129          50.000    21795516.400    85530224.406          50.000  
G26  23656799.540   124317253.359          50.000    23656801.140    92834309.367          50.000  
G29  20454423.140   107488716.105          50.000                                                  
E 1  24972160.040   131229567.598          50.000    24972164.420    97996093.516          50.000  
E 7  26056367.940   136927095.441          50.000    26056373.680   102250737.617          50.000  
E 8  25365024.240   133294092.047          50.000    25365027.880    99537785.180          50.000  
E13  26644689.120   140018762.430          50.000    26644693.820   104559452.309          50.000  
E21  27410315.620   144042119.680          50.000    27410323.300   107563897.715          50.000  
E31  25806161.740   135612262.637          50.000    25806166.840   101268884.258          50.000  
E33  25107064.420   131938510.488          50.000    25107067.660    98525502.398          50.000  
> 2020  5 15  0 49 19.0000000  0 15       0.000000000000
G 2  25024153.040   131502826.121          50.000                                                  
G 5  21898028.660   115074912.559          50.000                                                  
G12  23614835.180   124096766.621          50.000                                                  
G15  24271375.800   127546898.879          50.000                                                  
G21  22222725.540   116781192.637          50.000                                                  
G25  21796063.320   114539019.902          50.000    21796066.320    85532382.352          50.000  
G26  23656309.160   124314676.418          50.000    23656310.760    92832385.027          50.000  
G29  20454319.280   107488170.355          50.000                                                  
E 1  24972517.860   131231447.926          50.000    24972522.240    97997497.656          50.000  
E 7  26056051.920   136925434.770          50.000    26056057.660   102249497.508          50.000  
E 8  25365134.840   133294673.348          50.000    25365138.500    99538219.270          50.000  
E13  26645041.240   140020612.805          50.000    26645045.940   104560834.082          50.000  
E21  27410913.060   144045259.219          50.000    27410920.720   107566242.172          50.000  
E31  25806009.420   135611462.125          50.000    25806014.500   101268286.473          50.000  
E33  25106832.260   131937290.445          50.000    25106835.500    98524591.328          50.000  
> 2020  5 15  0 49 20.0000000  0 15       0.000000000000
G 2  25024613.700   131505246.941          50.000                                                  
G 5  21898465.520   115077208.270          50.000                                                  
G12  23615550.400   124100525.188          50.000                                                  
G15  24270806.180   127543905.559          50.000                                                  
G21  22222463.800   116779817.199          50.000                                                  
G25  21796613.300   114541910.070          50.000    21796616.300    85534540.594          50.000  
G26  23655818.860   124312099.891          50.000    23655820.460    92830461.000          50.000  
G29  20454215.500   107487624.957          50.000                                                  
E 1  24972875.740   131233328.648          50.000    24972880.120    97998902.090          50.000  
E 7  26055735.960   136923774.430          50.000    26055741.700   102248257.645          50.000  
E 8  25365245.560   133295255.102          50.000    25365249.200    99538653.695          50.000  
E13  26645393.340   140022463.176          50.000    26645398.040   104562215.852          50.000  
E21  27411510.500   144048398.746          50.000    27411518.160   107568586.621          50.000  
E31  25805857.160   135610662.082          50.000    25805862.260   101267689.035          50.000  
E33  25106600.100   131936070.504          50.000    25106603.340    98523680.332          50.000  
> 2020  5 15  0 49 21.0000000  0 15       0.000000000000
G 2  25025074.360   131507667.719          50.000                                                  
G 5  21898902.480   115079504.492          50.000                                                  
G12  23616265.660   124104283.902          50.000                                                  
G15  24270236.580   127540912.293          50.000                                                  
G21  22222202.100   116778441.992          50.000                                                  
G25  21797163.360   114544800.637          50.000    21797166.340    85536699.133          50.000  
G26  23655328.640   124309523.785          50.000    23655330.240    92828537.285          50.000  
G29  20454111.780   107487079.902          50.000                                                  
E 1  24973233.700   131235209.738          50.000    24973238.080    98000306.797          50.000  
E 7  26055420.080   136922114.426          50.000    26055425.820   102247018.031          50.000  
E 8  25365356.340   133295837.313          50.000    25365359.980    99539088.465          50.000  
E13  26645745.460   140024313.566          50.000    26645750.160   104563597.637          50.000  
E21  27412107.920   144051538.273          50.000    27412115.600   107570931.070          50.000  
E31  25805705.000   135609862.512          50.000    25805710.100   101267091.953          50.000  
E33  25106367.980   131934850.660          50.000    25106371.220    98522769.410          50.000  
> 2020  5 15  0 49 22.0000000  0 15       0.000000000000
G 2  25025535.000   131510088.449          50.000                                                  
G 5  21899339.520   115081801.207          50.000                                                  
G12  23616980.940   124108042.746          50.000                                                  
G15  24269666.980   127537919.047          50.000                                                  
G21  22221940.440   116777067.000          50.000                                                  
G25  21797713.500   114547691.598          50.000    21797716.480    85538857.965          50.000  
G26  23654838.500   124306948.086          50.000    23654840.100    92826613.875          50.000  
G29  20454008.120   107486535.191          50.000                                                  
E 1  24973591.720   131237091.184          50.000    24973596.100    98001711.773          50.000  
E 7  26055104.240   136920454.742          50.000    26055109.980   102245778.660          50.000  
E 8  25365467.220   133296419.961          50.000    25365470.860    99539523.555          50.000  
E13  26646097.580   140026163.930          50.000    26646102.280   104564979.398          50.000  
E21  27412705.360   144054677.813          50.000    27412713.020   107573275.531          50.000  
E31  25805552.940   135609063.406          50.000    25805558.040   101266495.219          50.000  
E33  25106135.860   131933630.895          50.000    25106139.100    98521858.547          50.000  
> 2020  5 15  0 49 23.0000000  0 15       0.000000000000
G 2  25025995.660   131512509.148          50.000                                                  
G 5  21899776.660   115084098.418          50.000                                                  
G12  23617696.260   124111801.715          50.000                                                  
G15  24269097.400   127534925.848          50.000                                                  
G21  22221678.840   116775692.258          50.000                                                  
G25  21798263.700   114550582.945          50.000    21798266.680    85541017.086          50.000  
G26  23654348.440   124304372.805          50.000    23654350.040    92824690.773          50.000  
G29  20453904.520   107485990.832          50.000                                                  
E 1  24973949.820   131238973.012          50.000    24973954.200    98003117.035          50.000  
E 7  26054788.480   136918795.379          50.000    26054794.220   102244539.523          50.000  
E 8  25365578.180   133297003.070          50.000    25365581.820    99539958.992          50.000  
E13  26646449.680   140028014.277          50.000    26646454.380   104566361.152          50.000  
E21  27413302.800   144057817.344          50.000    27413310.460   107575619.984          50.000  
E31  25805400.960   135608264.762          50.000    25805406.060   101265898.828          50.000  
E33  25105903.760   131932411.230          50.000    25105907.000    98520947.762          50.000  
> 2020  5 15  0 49 24.0000000  0 15       0.000000000000
G 2  25026456.280   131514929.781          50.000                                                  
G 5  21900213.900   115086396.141          50.000                                                  
G12  23618411.580   124115560.824          50.000                                                  
G15  24268527.820   127531932.680          50.000                                                  
G21  22221417.260   116774317.738          50.000                                                  
G25  21798813.980   114553474.691          50.000    21798816.960    85543176.508          50.000  
G26  23653858.460   124301797.941          50.000    23653860.040    92822767.988          50.000  
G29  20453801.000   107485446.820          50.000                                                  
E 1  24974308.000   131240855.215          50.000    24974312.380    98004522.574          50.000  
E 7  26054472.760   136917136.355          50.000    26054478.520   102243300.645          50.000  
E 8  25365689.220   133297586.625          50.000    25365692.860    99540394.766          50.000  
E13  26646801.780   140029864.621          50.000    26646806.480   104567742.902          50.000  
E21  27413900.220   144060956.891          50.000    27413907.900   107577964.449          50.000  
E31  25805249.080   135607466.598          50.000    25805254.180   101265302.797          50.000  
E33  25105671.680   131931191.664          50.000    25105674.920    98520037.043          50.000  
> 2020  5 15  0 49 25.0000000  0 15       0.000000000000
G 2  25026916.920   131517350.398          50.000                                                  
G 5  21900651.240   115088694.367          50.000                                                  
G12  23619126.960   124119320.074          50.000                                                  
G15  24267958.240   127528939.551          50.000                                                  
G21  22221155.760   116772943.453          50.000                                                  
G25  21799364.320   114556366.832          50.000    21799367.320    85545336.219          50.000  
G26  23653368.560   124299223.488          50.000    23653370.140    92820845.512          50.000  
G29  20453697.540   107484903.156          50.000                                                  
E 1  24974666.240   131242737.785          50.000    24974670.620    98005928.391          50.000  
E 7  26054157.120   136915477.652          50.000    26054162.860   102242062.000          50.000  
E 8  25365800.340   133298170.621          50.000    25365804.000    99540830.867          50.000  
E13  26647153.900   140031714.984          50.000    26647158.600   104569124.664          50.000  
E21  27414497.660   144064096.422          50.000    27414505.340   107580308.902          50.000  
E31  25805097.280   135606668.887          50.000    25805102.380   101264707.105          50.000  
E33  25105439.620   131929972.172          50.000    25105442.860    98519126.387          50.000  
> 2020  5 15  0 49 26.0000000  0 15       0.000000000000
G 2  25027377.520   131519770.957          50.000                                                  
G 5  21901088.680   115090993.094          50.000                                                  
G12  23619842.340   124123079.453          50.000                                                  
G15  24267388.660   127525946.465          50.000                                                  
G21  22220894.280   116771569.398          50.000                                                  
G25  21799914.760   114559259.379          50.000    21799917.760    85547496.238          50.000  
G26  23652878.720   124296649.445          50.000    23652880.320    92818923.336          50.000  
G29  20453594.160   107484359.840          50.000                                                  
E 1  24975024.540   131244620.723          50.000    24975028.920    98007334.477          50.000  
E 7  26053841.540   136913819.285          50.000    26053847.280   102240823.609          50.000  
E 8  25365911.560   133298755.070          50.000    25365915.220    99541267.305          50.000  
E13  26647506.000   140033565.336          50.000    26647510.700   104570506.418          50.000  
E21  27415095.100   144067235.961          50.000    27415102.760   107582653.359          50.000  
E31  25804945.560   135605871.652          50.000    25804950.660   101264111.766          50.000  
E33  25105207.580   131928752.777          50.000    25105210.820    98518215.801          50.000  
> 2020  5 15  0 49 27.0000000  0 15       0.000000000000
G 2  25027838.140   131522191.469          50.000                                                  
G 5  21901526.200   115093292.332          50.000                                                  
G12  23620557.740   124126838.961          50.000                                                  
G15  24266819.100   127522953.406          50.000                                                  
G21  22220632.840   116770195.574          50.000                                                  
G25  21800465.260   114562152.309          50.000    21800468.260    85549656.543          50.000  
G26  23652388.980   124294075.840          50.000    23652390.580    92817001.488          50.000  
G29  20453490.820   107483816.875          50.000                                                  
E 1  24975382.920   131246504.039          50.000    24975387.300    98008740.848          50.000  
E 7  26053526.020   136912161.242          50.000    26053531.760   102239585.465          50.000  
E 8  25366022.860   133299339.977          50.000    25366026.520    99541704.086          50.000  
E13  26647858.120   140035415.672          50.000    26647862.820   104571888.164          50.000  
E21  27415692.520   144070375.496          50.000    27415700.200   107584997.816          50.000  
E31  25804793.940   135605074.883          50.000    25804799.040   101263516.777          50.000  
E33  25104975.560   131927533.488          50.000    25104978.780    98517305.293          50.000  
> 2020  5 15  0 49 28.0000000  0 15       0.000000000000
G 2  25028298.740   131524611.934          50.000                                                  
G 5  21901963.820   115095592.066          50.000                                                  
G12  23621273.180   124130598.609          50.000                                                  
G15  24266249.560   127519960.395          50.000                                                  
G21  22220371.460   116768821.980          50.000                                                  
G25  21801015.840   114565045.633          50.000    21801018.840    85551817.141          50.000  
G26  23651899.320   124291502.617          50.000    23651900.900    92815079.926          50.000  
G29  20453387.560   107483274.258          50.000                                                  
E 1  24975741.380   131248387.723          50.000    24975745.760    98010147.496          50.000  
E 7  26053210.580   136910503.535          50.000    26053216.320   102238347.566          50.000  
E 8  25366134.260   133299925.328          50.000    25366137.900    99542141.199          50.000  
E13  26648210.220   140037266.012          50.000    26648214.920   104573269.910          50.000  
E21  27416289.960   144073515.039          50.000    27416297.640   107587342.277          50.000  
E31  25804642.420   135604278.590          50.000    25804647.520   101262922.141          50.000  
E33  25104743.540   131926314.281          50.000    25104746.780    98516394.844          50.000  
> 2020  5 15  0 49 29.0000000  0 15       0.000000000000
G 2  25028759.320   131527032.367          50.000                                                  
G 5  21902401.540   115097892.313          50.000                                                  
G12  23621988.640   124134358.395          50.000                                                  
G15  24265680.000   127516967.410          50.000                                                  
G21  22220110.100   116767448.621          50.000                                                  
G25  21801566.500   114567939.348          50.000    21801569.500    85553978.031          50.000  
G26  23651409.720   124288929.828          50.000    23651411.320    92813158.691          50.000  
G29  20453284.380   107482731.984          50.000                                                  
E 1  24976099.900   131250271.773          50.000    24976104.280    98011554.414          50.000  
E 7  26052895.180   136908846.148          50.000    26052900.920   102237109.910          50.000  
E 8  25366245.720   133300511.129          50.000    25366249.380    99542578.645          50.000  
E13  26648562.320   140039116.332          50.000    26648567.020   104574651.641          50.000  
E21  27416887.400   144076654.563          50.000    27416895.060   107589686.727          50.000  
E31  25804490.960   135603482.754          50.000    25804496.060   101262327.848          50.000  
E33  25104511.560   131925095.164          50.000    25104514.780    98515484.465          50.000  
> 2020  5 15  0 49 30.0000000  0 15       0.000000000000
G 2  25029219.900   131529452.746          50.000                                                  
G 5  21902839.360   115100193.059          50.000                                                  
G12  23622704.140   124138118.301          50.000                                                  
G15  24265110.460   127513974.469          50.000                                                  
G21  22219848.800   116766075.492          50.000                                                  
G25  21802117.240   114570833.461          50.000    21802120.220    85556139.219          50.000  
G26  23650920.220   124286357.453          50.000    23650921.800    92811237.762          50.000  
G29  20453181.240   107482190.059          50.000                                                  
E 1  24976458.480   131252156.199          50.000    24976462.860    98012961.617          50.000  
E 7  26052579.840   136907189.086          50.000    26052585.600   102235872.492          50.000  
E 8  25366357.280   133301097.379          50.000    25366360.940    99543016.430          50.000  
E13  26648914.440   140040966.676          50.000    26648919.140   104576033.391          50.000  
E21  27417484.820   144079794.102          50.000    27417492.500   107592031.184          50.000  
E31  25804339.620   135602687.398          50.000    25804344.720   101261733.914          50.000  
E33  25104279.580   131923876.145          50.000    25104282.820    98514574.160          50.000  
> 2020  5 15  0 49 31.0000000  0 15       0.000000000000
G 2  25029680.480   131531873.090          50.000                                                  
G 5  21903277.280   115102494.313          50.000                                                  
G12  23623419.640   124141878.348          50.000                                                  
G15  24264540.920   127510981.574          50.000                                                  
G21  22219587.560   116764702.590          50.000                                                  
G25  21802668.040   114573727.961          50.000    21802671.020    85558300.695          50.000  
G26  23650430.780   124283785.492          50.000    23650432.380    92809317.141          50.000  
G29  20453078.180   107481648.473          50.000                                                  
E 1  24976817.160   131254041.000          50.000    24976821.540    98014369.098          50.000  
E 7  26052264.580   136905532.363          50.000    26052270.320   102234635.332          50.000  
E 8  25366468.920   133301684.078          50.000    25366472.580    99543454.551          50.000  
E13  26649266.540   140042816.988          50.000    26649271.240   104577415.117          50.000  
E21  27418082.260   144082933.641          50.000    27418089.940   107594375.645          50.000  
E31  25804188.340   135601892.508          50.000    25804193.440   101261140.328          50.000  
E33  25104047.620   131922657.215          50.000    25104050.860    98513663.922          50.000  
> 2020  5 15  0 49 32.0000000  0 15       0.000000000000
G 2  25030141.040   131534293.387          50.000                                                  
G 5  21903715.280   115104796.063          50.000                                                  
G12  23624135.180   124145638.535          50.000                                                  
G15  24263971.400   127507988.711          50.000                                                  
G21  22219326.340   116763329.922          50.000                                                  
G25  21803218.920   114576622.867          50.000    21803221.900    85560462.473          50.000  
G26  23649941.440   124281213.945          50.000    23649943.020    92807396.832          50.000  
G29  20452975.180   107481107.242          50.000                                                  
E 1  24977175.880   131255926.172          50.000    24977180.260    98015776.855          50.000  
E 7  26051949.380   136903875.961          50.000    26051955.120   102233398.410          50.000  
E 8  25366580.660   133302271.230          50.000    25366584.300    99543893.008          50.000  
E13  26649618.640   140044667.309          50.000    26649623.340   104578796.848          50.000  
E21  27418679.700   144086073.188          50.000    27418687.360   107596720.105          50.000  
E31  25804037.180   135601098.090          50.000    25804042.280   101260547.094          50.000  
E33  25103815.680   131921438.383          50.000    25103818.920    98512753.754          50.000  
> 2020  5 15  0 49 33.0000000  0 15       0.000000000000
G 2  25030601.600   131536713.641          50.000                                                  
G 5  21904153.380   115107098.320          50.000                                                  
G12  23624850.740   124149398.836          50.000                                                  
G15  24263401.880   127504995.883          50.000                                                  
G21  22219065.160   116761957.469          50.000                                                  
G25  21803769.860   114579518.152          50.000    21803772.860    85562624.535          50.000  
G26  23649452.160   124278642.820          50.000    23649453.740    92805476.836          50.000  
G29  20452872.260   107480566.355          50.000                                                  
E 1  24977534.700   131257811.711          50.000    24977539.080    98017184.887          50.000  
E 7  26051634.240   136902219.895          50.000    26051639.980   102232161.734          50.000  
E 8  25366692.460   133302858.824          50.000    25366696.120    99544331.793          50.000  
E13  26649970.740   140046517.625          50.000    26649975.440   104580178.578          50.000  
E21  27419277.120   144089212.707          50.000    27419284.800   107599064.551          50.000  
E31  25803886.080   135600304.137          50.000    25803891.180   101259954.207          50.000  
E33  25103583.760   131920219.645          50.000    25103587.000    98511843.660          50.000  
> 2020  5 15  0 49 34.0000000  0 15       0.000000000000
G 2  25031062.160   131539133.855          50.000                                                  
G 5  21904591.580   115109401.078          50.000                                                  
G12  23625566.340   124153159.277          50.000                                                  
G15  24262832.380   127502003.098          50.000                                                  
G21  22218804.040   116760585.262          50.000                                                  
G25  21804320.900   114582413.848          50.000    21804323.900    85564786.906          50.000  
G26  23648962.960   124276072.113          50.000    23648964.560    92803557.152          50.000  
G29  20452769.400   107480025.809          50.000                                                  
E 1  24977893.560   131259697.621          50.000    24977897.940    98018593.195          50.000  
E 7  26051319.160   136900564.141          50.000    26051324.900   102230925.297          50.000  
E 8  25366804.360   133303446.867          50.000    25366808.020    99544770.918          50.000  
E13  26650322.840   140048367.930          50.000    26650327.540   104581560.297          50.000  
E21  27419874.560   144092352.238          50.000    27419882.240   107601409.004          50.000  
E31  25803735.100   135599510.656          50.000    25803740.200   101259361.672          50.000  
E33  25103351.860   131919000.992          50.000    25103355.100    98510933.625          50.000  
> 2020  5 15  0 49 35.0000000  0 15       0.000000000000
G 2  25031522.700   131541554.027          50.000                                                  
G 5  21905029.880   115111704.332          50.000                                                  
G12  23626281.960   124156919.863          50.000                                                  
G15  24262262.860   127499010.355          50.000                                                  
G21  22218542.960   116759213.285          50.000                                                  
G25  21804872.000   114585309.938          50.000    21804875.000    85566949.566          50.000  
G26  23648473.860   124273501.813          50.000    23648475.440    92801637.777          50.000  
G29  20452666.600   107479485.617          50.000                                                  
E 1  24978252.520   131261583.910          50.000    24978256.900    98020001.789          50.000  
E 7  26051004.140   136898908.730          50.000    26051009.880   102229689.113          50.000  
E 8  25366916.360   133304035.367          50.000    25366920.000    99545210.383          50.000  
E13  26650674.940   140050218.242          50.000    26650679.640   104582942.023          50.000  
E21  27420472.000   144095491.781          50.000    27420479.660   107603753.465          50.000  
E31  25803584.180   135598717.633          50.000    25803589.280   101258769.480          50.000  
E33  25103119.980   131917782.438          50.000    25103123.200    98510023.664          50.000  
> 2020  5 15  0 49 36.0000000  0 15       0.000000000000
G 2  25031983.240   131543974.164          50.000                                                  
G 5  21905468.260   115114008.090          50.000                                                  
G12  23626997.600   124160680.578          50.000                                                  
G15  24261693.360   127496017.633          50.000                                                  
G21  22218281.920   116757841.535          50.000                                                  
G25  21805423.180   114588206.414          50.000    21805426.180    85569112.523          50.000  
G26  23647984.820   124270931.938          50.000    23647986.400    92799718.715          50.000  
G29  20452563.860   107478945.770          50.000                                                  
E 1  24978611.540   131263470.563          50.000    24978615.920    98021410.652          50.000  
E 7  26050689.180   136897253.641          50.000    26050694.920   102228453.172          50.000  
E 8  25367028.420   133304624.309          50.000    25367032.080    99545650.176          50.000  
E13  26651027.040   140052068.539          50.000    26651031.740   104584323.738          50.000  
E21  27421069.420   144098631.305          50.000    27421077.100   107606097.914          50.000  
E31  25803433.360   135597925.094          50.000    25803438.460   101258177.648          50.000  
E33  25102888.100   131916563.973          50.000    25102891.340    98509113.773          50.000  
