     3.03           OBSERVATION DATA    M: Mixed            RINEX VERSION / TYPE
sbp2rinex v2.2 (RTKL                    20210504 171522 UTC PGM / RUN BY / DATE 
log: 2020-05-14-US-MTV-1.sbp                                COMMENT             
format: Swift Navigation SBP, option: CONVBASE,EPHALL,OBSALLCOMMENT             
                                                            MARKER NAME         
                                                            MARKER NUMBER       
                                                            MARKER TYPE         
                                                            OBSERVER / AGENCY   
                                                            REC # / TYPE / VERS 
                                                            ANT # / TYPE        
 -2726442.2395 -4347315.8851  3775193.6898                  APPROX POSITION XYZ 
        0.0000        0.0000        0.0000                  ANTENNA: DELTA H/E/N
G    6 C1C L1C S1C C5I L5I S5I                              SYS / # / OBS TYPES 
E    6 C1B L1B S1B C5I L5I S5I                              SYS / # / OBS TYPES 
  2020     5    14    22     4   52.0000000     GPS         TIME OF FIRST OBS   
  2020     5    14    22    40   21.0000000     GPS         TIME OF LAST OBS    
G                                                           SYS / PHASE SHIFT   
E                                                           SYS / PHASE SHIFT   
  0                                                         GLONASS SLOT / FRQ #
 C1C    0.000 C1P    0.000 C2C    0.000 C2P    0.000        GLONASS COD/PHS/BIS 
                                                            END OF HEADER       
> 2020  5 14 22  4 52.0000000  0  5       0.000000000000
E 1  25533451.700   134179182.973          50.000    25533455.460   100198730.883          50.000  
E13  23476788.400   123371346.281          50.000    23476791.960    92127944.777          50.000  
E15  26880119.140   141255935.504          50.000    26880125.080   105483312.793          50.000  
E21  23446821.660   123213864.102          50.000    23446825.820    92010344.051          50.000  
E27  25666159.960   134876542.055          50.000    25666165.140   100719479.715          50.000  
> 2020  5 14 22  4 53.0000000  0 13       0.000000000000
G 2  20975635.180   110227743.953          50.000                                                  
G 5  23195979.220   121895670.160          50.000                                                  
G 6  22189374.700   116605904.102          50.000    22189377.200    87075838.590          50.000  
G12  20179101.340   106041898.855          50.000                                                  
G19  23962443.420   125923490.730          50.000                                                  
G24  22905260.520   120367890.371          50.000    22905263.880    89885107.324          50.000  
G25  21529690.480   113139233.316          50.000    21529692.560    84487090.719          50.000  
G29  23556610.840   123790795.629          50.000                                                  
E 1  25533038.940   134177013.926          50.000    25533042.700   100197111.141          50.000  
E13  23476995.620   123372435.207          50.000    23476999.180    92128757.938          50.000  
E15  26880609.720   141258513.574          50.000    26880615.680   105485237.973          50.000  
E21  23446882.000   123214181.191          50.000    23446886.160    92010580.836          50.000  
E27  25666648.920   134879111.578          50.000    25666654.120   100721398.512          50.000  
> 2020  5 14 22  4 54.0000000  0 13       0.000000000000
G 2  20975839.620   110228818.254          50.000                                                  
G 5  23195388.460   121892565.758          50.000                                                  
G 6  22189890.500   116608614.672          50.000    22189893.000    87077862.715          50.000  
G12  20178956.560   106041138.055          50.000                                                  
G19  23962974.100   125926279.488          50.000                                                  
G24  22905811.260   120370784.477          50.000    22905814.600    89887268.508          50.000  
G25  21529228.220   113136804.172          50.000    21529230.320    84485276.750          50.000  
G29  23556162.280   123788438.430          50.000                                                  
E 1  25532626.240   134174845.105          50.000    25532629.980   100195491.566          50.000  
E13  23477202.880   123373524.395          50.000    23477206.440    92129571.293          50.000  
E15  26881100.320   141261091.637          50.000    26881106.260   105487163.152          50.000  
E21  23446942.420   123214498.711          50.000    23446946.580    92010817.945          50.000  
E27  25667137.920   134881681.336          50.000    25667143.120   100723317.488          50.000  
> 2020  5 14 22  4 55.0000000  0 13       0.000000000000
G 2  20976044.140   110229892.980          50.000                                                  
G 5  23194797.760   121889461.547          50.000                                                  
G 6  22190406.360   116611325.570          50.000    22190408.880    87079887.086          50.000  
G12  20178811.880   106040377.742          50.000                                                  
G19  23963504.800   125929068.277          50.000                                                  
G24  22906362.020   120373678.828          50.000    22906365.380    89889429.871          50.000  
G25  21528766.040   113134375.352          50.000    21528768.120    84483463.020          50.000  
G29  23555713.740   123786081.355          50.000                                                  
E 1  25532213.560   134172676.512          50.000    25532217.320   100193872.164          50.000  
E13  23477410.200   123374613.832          50.000    23477413.760    92130384.832          50.000  
E15  26881590.900   141263669.707          50.000    26881596.860   105489088.332          50.000  
E21  23447002.920   123214816.652          50.000    23447007.080    92011055.367          50.000  
E27  25667626.980   134884251.332          50.000    25667632.180   100725236.641          50.000  
> 2020  5 14 22  4 56.0000000  0 13       0.000000000000
G 2  20976248.740   110230968.145          50.000                                                  
G 5  23194207.080   121886357.523          50.000                                                  
G 6  22190922.300   116614036.773          50.000    22190924.800    87081911.688          50.000  
G12  20178667.280   106039617.910          50.000                                                  
G19  23964035.480   125931857.078          50.000                                                  
G24  22906912.860   120376573.406          50.000    22906916.200    89891591.406          50.000  
G25  21528303.900   113131946.859          50.000    21528306.000    84481649.539          50.000  
G29  23555265.220   123783724.410          50.000                                                  
E 1  25531800.940   134170508.137          50.000    25531804.680   100192252.922          50.000  
E13  23477617.560   123375703.512          50.000    23477621.120    92131198.555          50.000  
E15  26882081.500   141266247.758          50.000    26882087.440   105491013.500          50.000  
E21  23447063.500   123215135.008          50.000    23447067.660    92011293.102          50.000  
E27  25668116.080   134886821.551          50.000    25668121.280   100727155.957          50.000  
> 2020  5 14 22  4 57.0000000  0 13       0.000000000000
G 2  20976453.420   110232043.742          50.000                                                  
G 5  23193616.440   121883253.680          50.000                                                  
G 6  22191438.280   116616748.309          50.000    22191440.780    87083936.531          50.000  
G12  20178522.780   106038858.566          50.000                                                  
G19  23964566.180   125934645.906          50.000                                                  
G24  22907463.720   120379468.234          50.000    22907467.080    89893753.125          50.000  
G25  21527841.840   113129518.684          50.000    21527843.940    84479836.289          50.000  
G29  23554816.740   123781367.570          50.000                                                  
E 1  25531388.360   134168339.996          50.000    25531392.100   100190633.855          50.000  
E13  23477824.960   123376793.461          50.000    23477828.520    92132012.477          50.000  
E15  26882572.080   141268825.824          50.000    26882578.040   105492938.676          50.000  
E21  23447124.160   123215453.785          50.000    23447128.320    92011531.148          50.000  
E27  25668605.220   134889392.004          50.000    25668610.420   100729075.453          50.000  
> 2020  5 14 22  4 58.0000000  0 13       0.000000000000
G 2  20976658.180   110233119.766          50.000                                                  
G 5  23193025.840   121880150.031          50.000                                                  
G 6  22191954.320   116619460.152          50.000    22191956.840    87085961.609          50.000  
G12  20178378.380   106038099.719          50.000                                                  
G19  23965096.880   125937434.766          50.000                                                  
G24  22908014.620   120382363.277          50.000    22908017.980    89895915.008          50.000  
G25  21527379.820   113127090.828          50.000    21527381.920    84478023.281          50.000  
G29  23554368.260   123779010.852          50.000                                                  
E 1  25530975.800   134166172.066          50.000    25530979.560   100189014.949          50.000  
E13  23478032.420   123377883.668          50.000    23478035.980    92132826.594          50.000  
E15  26883062.660   141271403.871          50.000    26883068.620   105494863.840          50.000  
E21  23447184.900   123215772.980          50.000    23447189.060    92011769.508          50.000  
E27  25669094.420   134891962.699          50.000    25669099.600   100730995.125          50.000  
> 2020  5 14 22  4 59.0000000  0 13       0.000000000000
G 2  20976863.020   110234196.223          50.000                                                  
G 5  23192435.260   121877046.566          50.000                                                  
G 6  22192470.440   116622172.313          50.000    22192472.940    87087986.926          50.000  
G12  20178234.060   106037341.344          50.000                                                  
G19  23965627.580   125940223.637          50.000                                                  
G24  22908565.580   120385258.539          50.000    22908568.940    89898077.055          50.000  
G25  21526917.880   113124663.305          50.000    21526919.980    84476210.520          50.000  
G29  23553919.820   123776654.258          50.000                                                  
E 1  25530563.300   134164004.363          50.000    25530567.060   100187396.211          50.000  
E13  23478239.940   123378974.129          50.000    23478243.480    92133640.898          50.000  
E15  26883553.260   141273981.918          50.000    26883559.220   105496789.004          50.000  
E21  23447245.720   123216092.590          50.000    23447249.880    92012008.180          50.000  
E27  25669583.640   134894533.621          50.000    25669588.840   100732914.965          50.000  
> 2020  5 14 22  5  0.0000000  0 13       0.000000000000
G 2  20977067.940   110235273.117          50.000                                                  
G 5  23191844.720   121873943.289          50.000                                                  
G 6  22192986.600   116624884.809          50.000    22192989.120    87090012.488          50.000  
G12  20178089.840   106036583.465          50.000                                                  
G19  23966158.300   125943012.539          50.000                                                  
G24  22909116.580   120388154.027          50.000    22909119.920    89900239.266          50.000  
G25  21526456.000   113122236.098          50.000    21526458.100    84474397.996          50.000  
G29  23553471.400   123774297.785          50.000                                                  
E 1  25530150.860   134161836.898          50.000    25530154.600   100185777.648          50.000  
E13  23478447.480   123380064.832          50.000    23478451.040    92134455.383          50.000  
E15  26884043.840   141276559.969          50.000    26884049.800   105498714.168          50.000  
E21  23447306.620   123216412.621          50.000    23447310.780    92012247.164          50.000  
E27  25670072.920   134897104.781          50.000    25670078.120   100734834.988          50.000  
> 2020  5 14 22  5  1.0000000  0 13       0.000000000000
G 2  20977272.940   110236350.441          50.000                                                  
G 5  23191254.220   121870840.195          50.000                                                  
G 6  22193502.840   116627597.602          50.000    22193505.340    87092038.273          50.000  
G12  20177945.720   106035826.078          50.000                                                  
G19  23966689.020   125945801.445          50.000                                                  
G24  22909667.620   120391049.746          50.000    22909670.960    89902401.656          50.000  
G25  21525994.180   113119809.211          50.000    21525996.280    84472585.711          50.000  
G29  23553023.000   123771941.426          50.000                                                  
E 1  25529738.440   134159669.648          50.000    25529742.180   100184159.250          50.000  
E13  23478655.100   123381155.797          50.000    23478658.640    92135270.066          50.000  
E15  26884534.420   141279138.004          50.000    26884540.380   105500639.324          50.000  
E21  23447367.600   123216733.074          50.000    23447371.760    92012486.461          50.000  
E27  25670562.240   134899676.176          50.000    25670567.440   100736755.184          50.000  
> 2020  5 14 22  5  2.0000000  0 13       0.000000000000
G 2  20977478.040   110237428.199          50.000                                                  
G 5  23190663.760   121867737.289          50.000                                                  
G 6  22194019.120   116630310.727          50.000    22194021.640    87094064.309          50.000  
G12  20177801.680   106035069.180          50.000                                                  
G19  23967219.740   125948590.391          50.000                                                  
G24  22910218.700   120393945.699          50.000    22910222.040    89904564.215          50.000  
G25  21525532.420   113117382.641          50.000    21525534.520    84470773.664          50.000  
G29  23552574.620   123769585.199          50.000                                                  
E 1  25529326.060   134157502.629          50.000    25529329.820   100182541.020          50.000  
E13  23478862.740   123382247.020          50.000    23478866.300    92136084.941          50.000  
E15  26885025.020   141281716.047          50.000    26885030.960   105502564.484          50.000  
E21  23447428.660   123217053.945          50.000    23447432.820    92012726.074          50.000  
E27  25671051.600   134902247.797          50.000    25671056.800   100738675.551          50.000  
> 2020  5 14 22  5  3.0000000  0 13       0.000000000000
G 2  20977683.220   110238506.391          50.000                                                  
G 5  23190073.340   121864634.574          50.000                                                  
G 6  22194535.480   116633024.168          50.000    22194537.980    87096090.578          50.000  
G12  20177657.740   106034312.766          50.000                                                  
G19  23967750.460   125951379.340          50.000                                                  
G24  22910769.820   120396841.895          50.000    22910773.180    89906726.957          50.000  
G25  21525070.720   113114956.410          50.000    21525072.820    84468961.867          50.000  
G29  23552126.260   123767229.090          50.000                                                  
E 1  25528913.740   134155335.828          50.000    25528917.480   100180922.957          50.000  
E13  23479070.440   123383338.504          50.000    23479074.000    92136900.008          50.000  
E15  26885515.600   141284294.078          50.000    26885521.560   105504489.637          50.000  
E21  23447489.800   123217375.234          50.000    23447493.960    92012965.996          50.000  
E27  25671541.020   134904819.648          50.000    25671546.200   100740596.086          50.000  
> 2020  5 14 22  5  4.0000000  0 13       0.000000000000
G 2  20977888.460   110239585.008          50.000                                                  
G 5  23189482.940   121861532.035          50.000                                                  
G 6  22195051.880   116635737.934          50.000    22195054.400    87098117.090          50.000  
G12  20177513.900   106033556.832          50.000                                                  
G19  23968281.180   125954168.332          50.000                                                  
G24  22911321.000   120399738.332          50.000    22911324.360    89908889.879          50.000  
G25  21524609.080   113112530.484          50.000    21524611.180    84467150.301          50.000  
G29  23551677.940   123764873.090          50.000                                                  
E 1  25528501.460   134153169.250          50.000    25528505.200   100179305.059          50.000  
E13  23479278.200   123384430.230          50.000    23479281.760    92137715.262          50.000  
E15  26886006.180   141286872.113          50.000    26886012.140   105506414.793          50.000  
E21  23447551.020   123217696.945          50.000    23447555.180    92013206.238          50.000  
E27  25672030.460   134907391.746          50.000    25672035.660   100742516.809          50.000  
> 2020  5 14 22  5  5.0000000  0 13       0.000000000000
G 2  20978093.800   110240664.066          50.000                                                  
G 5  23188892.580   121858429.695          50.000                                                  
G 6  22195568.360   116638452.016          50.000    22195570.880    87100143.840          50.000  
G12  20177370.140   106032801.395          50.000                                                  
G19  23968811.920   125956957.332          50.000                                                  
G24  22911872.220   120402634.992          50.000    22911875.560    89911052.969          50.000  
G25  21524147.520   113110104.898          50.000    21524149.600    84465338.988          50.000  
G29  23551229.620   123762517.207          50.000                                                  
E 1  25528089.200   134151002.906          50.000    25528092.960   100177687.332          50.000  
E13  23479486.000   123385522.215          50.000    23479489.540    92138530.703          50.000  
E15  26886496.760   141289450.141          50.000    26886502.720   105508339.941          50.000  
E21  23447612.320   123218019.082          50.000    23447616.480    92013446.793          50.000  
E27  25672519.960   134909964.066          50.000    25672525.160   100744437.695          50.000  
> 2020  5 14 22  5  6.0000000  0 13       0.000000000000
G 2  20978299.220   110241743.551          50.000                                                  
G 5  23188302.260   121855327.531          50.000                                                  
G 6  22196084.900   116641166.414          50.000    22196087.400    87102170.824          50.000  
G12  20177226.480   106032046.438          50.000                                                  
G19  23969342.640   125959746.355          50.000                                                  
G24  22912423.480   120405531.910          50.000    22912426.840    89913216.250          50.000  
G25  21523686.000   113107679.637          50.000    21523688.100    84463527.918          50.000  
G29  23550781.340   123760161.453          50.000                                                  
E 1  25527677.000   134148836.777          50.000    25527680.760   100176069.773          50.000  
E13  23479693.840   123386614.457          50.000    23479697.400    92139346.336          50.000  
E15  26886987.340   141292028.160          50.000    26886993.300   105510265.086          50.000  
E21  23447673.700   123218341.621          50.000    23447677.860    92013687.648          50.000  
E27  25673009.500   134912536.621          50.000    25673014.700   100746358.758          50.000  
> 2020  5 14 22  5  7.0000000  0 13       0.000000000000
G 2  20978504.720   110242823.465          50.000                                                  
G 5  23187711.980   121852225.559          50.000                                                  
G 6  22196601.480   116643881.133          50.000    22196604.000    87104198.051          50.000  
G12  20177082.920   106031291.973          50.000                                                  
G19  23969873.380   125962535.395          50.000                                                  
G24  22912974.780   120408429.055          50.000    22912978.140    89915379.703          50.000  
G25  21523224.540   113105254.695          50.000    21523226.640    84461717.082          50.000  
G29  23550333.080   123757805.820          50.000                                                  
E 1  25527264.860   134146670.887          50.000    25527268.600   100174452.387          50.000  
E13  23479901.740   123387706.953          50.000    23479905.300    92140162.164          50.000  
E15  26887477.920   141294606.176          50.000    26887483.880   105512190.227          50.000  
E21  23447735.160   123218664.586          50.000    23447739.320    92013928.824          50.000  
E27  25673499.080   134915109.410          50.000    25673504.280   100748279.996          50.000  
> 2020  5 14 22  5  8.0000000  0 13       0.000000000000
G 2  20978710.300   110243903.809          50.000                                                  
G 5  23187121.720   121849123.773          50.000                                                  
G 6  22197118.140   116646596.160          50.000    22197120.660    87106225.504          50.000  
G12  20176939.440   106030538.000          50.000                                                  
G19  23970404.120   125965324.457          50.000                                                  
G24  22913526.140   120411326.426          50.000    22913529.500    89917543.324          50.000  
G25  21522763.160   113102830.078          50.000    21522765.260    84459906.496          50.000  
G29  23549884.840   123755450.309          50.000                                                  
E 1  25526852.740   134144505.207          50.000    25526856.480   100172835.160          50.000  
E13  23480109.680   123388799.695          50.000    23480113.240    92140978.172          50.000  
E15  26887968.500   141297184.191          50.000    26887974.460   105514115.367          50.000  
E21  23447796.700   123218987.969          50.000    23447800.860    92014170.309          50.000  
E27  25673988.720   134917682.426          50.000    25673993.920   100750201.402          50.000  
> 2020  5 14 22  5  9.0000000  0 13       0.000000000000
G 2  20978915.980   110244984.582          50.000                                                  
G 5  23186531.500   121846022.172          50.000                                                  
G 6  22197634.860   116649311.512          50.000    22197637.360    87108253.203          50.000  
G12  20176796.040   106029784.512          50.000                                                  
G19  23970934.880   125968113.543          50.000                                                  
G24  22914077.540   120414224.020          50.000    22914080.900    89919707.109          50.000  
G25  21522301.840   113100405.789          50.000    21522303.920    84458096.148          50.000  
G29  23549436.620   123753094.918          50.000                                                  
E 1  25526440.660   134142339.754          50.000    25526444.420   100171218.102          50.000  
E13  23480317.660   123389892.699          50.000    23480321.220    92141794.375          50.000  
E15  26888459.080   141299762.199          50.000    26888465.040   105516040.500          50.000  
E21  23447858.320   123219311.770          50.000    23447862.480    92014412.109          50.000  
E27  25674478.400   134920255.684          50.000    25674483.600   100752122.988          50.000  
> 2020  5 14 22  5 10.0000000  0 13       0.000000000000
G 2  20979121.720   110246065.789          50.000                                                  
G 5  23185941.320   121842920.750          50.000                                                  
G 6  22198151.640   116652027.188          50.000    22198154.140    87110281.141          50.000  
G12  20176652.760   106029031.512          50.000                                                  
G19  23971465.620   125970902.660          50.000                                                  
G24  22914628.980   120417121.883          50.000    22914632.340    89921871.094          50.000  
G25  21521840.560   113097981.809          50.000    21521842.660    84456286.035          50.000  
G29  23548988.420   123750739.641          50.000                                                  
E 1  25526028.640   134140174.539          50.000    25526032.380   100169601.219          50.000  
E13  23480525.700   123390985.953          50.000    23480529.260    92142610.766          50.000  
E15  26888949.660   141302340.219          50.000    26888955.620   105517965.641          50.000  
E21  23447920.020   123219635.992          50.000    23447924.180    92014654.223          50.000  
E27  25674968.120   134922829.172          50.000    25674973.320   100754044.750          50.000  
> 2020  5 14 22  5 11.0000000  0 13       0.000000000000
G 2  20979327.540   110247147.418          50.000                                                  
G 5  23185351.180   121839819.516          50.000                                                  
G 6  22198668.460   116654743.172          50.000    22198670.980    87112309.309          50.000  
G12  20176509.560   106028279.004          50.000                                                  
G19  23971996.380   125973691.797          50.000                                                  
G24  22915180.480   120420019.984          50.000    22915183.820    89924035.262          50.000  
G25  21521379.360   113095558.152          50.000    21521381.440    84454476.164          50.000  
G29  23548540.240   123748384.488          50.000                                                  
E 1  25525616.660   134138009.539          50.000    25525620.400   100167984.500          50.000  
E13  23480733.800   123392079.465          50.000    23480737.360    92143427.348          50.000  
E15  26889440.240   141304918.211          50.000    26889446.200   105519890.766          50.000  
E21  23447981.800   123219960.637          50.000    23447985.960    92014896.652          50.000  
E27  25675457.880   134925402.895          50.000    25675463.080   100755966.684          50.000  
> 2020  5 14 22  5 12.0000000  0 13       0.000000000000
G 2  20979533.460   110248229.492          50.000                                                  
G 5  23184761.060   121836718.477          50.000                                                  
G 6  22199185.360   116657459.480          50.000    22199187.880    87114337.723          50.000  
G12  20176366.460   106027526.977          50.000                                                  
G19  23972527.140   125976480.953          50.000                                                  
G24  22915732.000   120422918.305          50.000    22915735.360    89926199.590          50.000  
G25  21520918.220   113093134.848          50.000    21520920.300    84452666.551          50.000  
G29  23548092.100   123746029.457          50.000                                                  
E 1  25525204.700   134135844.770          50.000    25525208.460   100166367.949          50.000  
E13  23480941.940   123393173.234          50.000    23480945.500    92144244.125          50.000  
E15  26889930.820   141307496.219          50.000    26889936.780   105521815.898          50.000  
E21  23448043.640   123220285.699          50.000    23448047.820    92015139.395          50.000  
E27  25675947.680   134927976.848          50.000    25675952.880   100757888.789          50.000  
> 2020  5 14 22  5 13.0000000  0 13       0.000000000000
G 2  20979739.440   110249311.992          50.000                                                  
G 5  23184171.000   121833617.625          50.000                                                  
G 6  22199702.320   116660176.105          50.000    22199704.840    87116366.371          50.000  
G12  20176223.440   106026775.449          50.000                                                  
G19  23973057.900   125979270.133          50.000                                                  
G24  22916283.580   120425816.848          50.000    22916286.940    89928364.086          50.000  
G25  21520457.140   113090711.836          50.000    21520459.220    84450857.164          50.000  
G29  23547643.980   123743674.535          50.000                                                  
E 1  25524792.800   134133680.223          50.000    25524796.560   100164751.570          50.000  
E13  23481150.120   123394267.254          50.000    23481153.680    92145061.090          50.000  
E15  26890421.400   141310074.207          50.000    26890427.360   105523741.020          50.000  
E21  23448105.580   123220611.176          50.000    23448109.740    92015382.445          50.000  
E27  25676437.540   134930551.027          50.000    25676442.740   100759811.066          50.000  
> 2020  5 14 22  5 14.0000000  0 13       0.000000000000
G 2  20979945.520   110250394.918          50.000                                                  
G 5  23183580.960   121830516.965          50.000                                                  
G 6  22200219.340   116662893.047          50.000    22200221.860    87118395.254          50.000  
G12  20176080.520   106026024.402          50.000                                                  
G19  23973588.660   125982059.332          50.000                                                  
G24  22916835.200   120428715.602          50.000    22916838.560    89930528.738          50.000  
G25  21519996.120   113088289.164          50.000    21519998.200    84449048.023          50.000  
G29  23547195.880   123741319.742          50.000                                                  
E 1  25524380.960   134131515.898          50.000    25524384.700   100163135.355          50.000  
E13  23481358.360   123395361.527          50.000    23481361.900    92145878.242          50.000  
E15  26890911.980   141312652.191          50.000    26890917.940   105525666.137          50.000  
E21  23448167.600   123220937.074          50.000    23448171.760    92015625.813          50.000  
E27  25676927.440   134933125.438          50.000    25676932.640   100761733.516          50.000  
> 2020  5 14 22  5 15.0000000  0 13       0.000000000000
G 2  20980151.680   110251478.277          50.000                                                  
G 5  23182990.960   121827416.496          50.000                                                  
G 6  22200736.420   116665610.313          50.000    22200738.920    87120424.379          50.000  
G12  20175937.700   106025273.836          50.000                                                  
G19  23974119.440   125984848.551          50.000                                                  
G24  22917386.860   120431614.586          50.000    22917390.220    89932693.563          50.000  
G25  21519535.160   113085866.805          50.000    21519537.240    84447239.117          50.000  
G29  23546747.780   123738965.070          50.000                                                  
E 1  25523969.140   134129351.801          50.000    25523972.880   100161519.309          50.000  
E13  23481566.640   123396456.051          50.000    23481570.200    92146695.578          50.000  
E15  26891402.540   141315230.176          50.000    26891408.520   105527591.254          50.000  
E21  23448229.700   123221263.391          50.000    23448233.860    92015869.488          50.000  
E27  25677417.380   134935700.086          50.000    25677422.580   100763656.141          50.000  
> 2020  5 14 22  5 16.0000000  0 13       0.000000000000
G 2  20980357.920   110252562.063          50.000                                                  
G 5  23182401.000   121824316.215          50.000                                                  
G 6  22201253.560   116668327.883          50.000    22201256.060    87122453.734          50.000  
G12  20175794.960   106024523.766          50.000                                                  
G19  23974650.220   125987637.789          50.000                                                  
G24  22917938.560   120434513.813          50.000    22917941.920    89934858.566          50.000  
G25  21519074.260   113083444.785          50.000    21519076.340    84445430.469          50.000  
G29  23546299.740   123736610.508          50.000                                                  
E 1  25523557.360   134127187.930          50.000    25523561.120   100159903.434          50.000  
E13  23481774.960   123397550.836          50.000    23481778.520    92147513.113          50.000  
E15  26891893.120   141317808.156          50.000    26891899.080   105529516.371          50.000  
E21  23448291.880   123221590.129          50.000    23448296.040    92016113.480          50.000  
E27  25677907.360   134938274.957          50.000    25677912.560   100765578.930          50.000  
> 2020  5 14 22  5 17.0000000  0 13       0.000000000000
G 2  20980564.240   110253646.289          50.000                                                  
G 5  23181811.060   121821216.105          50.000                                                  
G 6  22201770.760   116671045.781          50.000    22201773.260    87124483.332          50.000  
G12  20175652.320   106023774.184          50.000                                                  
G19  23975181.000   125990427.051          50.000                                                  
G24  22918490.300   120437413.250          50.000    22918493.660    89937023.730          50.000  
G25  21518613.420   113081023.082          50.000    21518615.520    84443622.059          50.000  
G29  23545851.700   123734256.055          50.000                                                  
E 1  25523145.640   134125024.289          50.000    25523149.380   100158287.727          50.000  
E13  23481983.340   123398645.867          50.000    23481986.900    92148330.832          50.000  
E15  26892383.700   141320386.129          50.000    26892389.660   105531441.477          50.000  
E21  23448354.120   123221917.277          50.000    23448358.300    92016357.781          50.000  
E27  25678397.380   134940850.078          50.000    25678402.580   100767501.910          50.000  
> 2020  5 14 22  5 18.0000000  0 13       0.000000000000
G 2  20980770.640   110254730.941          50.000                                                  
G 5  23181221.160   121818116.199          50.000                                                  
G 6  22202288.020   116673763.984          50.000    22202290.520    87126513.160          50.000  
G12  20175509.780   106023025.086          50.000                                                  
G19  23975711.780   125993216.336          50.000                                                  
G24  22919042.100   120440312.910          50.000    22919045.460    89939189.059          50.000  
G25  21518152.640   113078601.699          50.000    21518154.740    84441813.879          50.000  
G29  23545403.680   123731901.738          50.000                                                  
E 1  25522733.960   134122860.867          50.000    25522737.700   100156672.184          50.000  
E13  23482191.760   123399741.152          50.000    23482195.320    92149148.738          50.000  
E15  26892874.260   141322964.094          50.000    26892880.220   105533366.578          50.000  
E21  23448416.460   123222244.848          50.000    23448420.620    92016602.395          50.000  
E27  25678887.460   134943425.422          50.000    25678892.660   100769425.055          50.000  
> 2020  5 14 22  5 19.0000000  0 13       0.000000000000
G 2  20980977.120   110255816.023          50.000                                                  
G 5  23180631.300   121815016.480          50.000                                                  
G 6  22202805.340   116676482.516          50.000    22202807.840    87128543.227          50.000  
G12  20175367.320   106022276.477          50.000                                                  
G19  23976242.560   125996005.645          50.000                                                  
G24  22919593.920   120443212.809          50.000    22919597.280    89941354.570          50.000  
G25  21517691.940   113076180.641          50.000    21517694.020    84440005.949          50.000  
G29  23544955.700   123729547.535          50.000                                                  
E 1  25522322.300   134120697.676          50.000    25522326.060   100155056.816          50.000  
E13  23482400.240   123400836.691          50.000    23482403.800    92149966.836          50.000  
E15  26893364.840   141325542.059          50.000    26893370.800   105535291.684          50.000  
E21  23448478.880   123222572.840          50.000    23448483.040    92016847.324          50.000  
E27  25679377.580   134946000.992          50.000    25679382.780   100771348.367          50.000  
> 2020  5 14 22  5 20.0000000  0 13       0.000000000000
G 2  20981183.700   110256901.539          50.000                                                  
G 5  23180041.480   121811916.949          50.000                                                  
G 6  22203322.720   116679201.359          50.000    22203325.220    87130573.535          50.000  
G12  20175224.960   106021528.355          50.000                                                  
G19  23976773.360   125998794.969          50.000                                                  
G24  22920145.800   120446112.949          50.000    22920149.160    89943520.258          50.000  
G25  21517231.280   113073759.910          50.000    21517233.380    84438198.258          50.000  
G29  23544507.720   123727193.457          50.000                                                  
E 1  25521910.720   134118534.715          50.000    25521914.460   100153441.617          50.000  
E13  23482608.760   123401932.492          50.000    23482612.320    92150785.129          50.000  
E15  26893855.400   141328120.020          50.000    26893861.380   105537216.781          50.000  
E21  23448541.380   123222901.254          50.000    23448545.540    92017092.566          50.000  
E27  25679867.740   134948576.805          50.000    25679872.940   100773271.867          50.000  
> 2020  5 14 22  5 21.0000000  0 13       0.000000000000
G 2  20981390.340   110257987.484          50.000                                                  
G 5  23179451.700   121808817.613          50.000                                                  
G 6  22203840.160   116681920.523          50.000    22203842.660    87132604.078          50.000  
G12  20175082.680   106020780.723          50.000                                                  
G19  23977304.160   126001584.305          50.000                                                  
G24  22920697.720   120449013.328          50.000    22920701.080    89945686.125          50.000  
G25  21516770.700   113071339.504          50.000    21516772.780    84436390.816          50.000  
G29  23544059.780   123724839.492          50.000                                                  
E 1  25521499.160   134116371.969          50.000    25521502.900   100151826.582          50.000  
E13  23482817.340   123403028.543          50.000    23482820.900    92151603.609          50.000  
E15  26894345.980   141330697.980          50.000    26894351.940   105539141.883          50.000  
E21  23448603.940   123223230.094          50.000    23448608.120    92017338.129          50.000  
E27  25680357.940   134951152.848          50.000    25680363.140   100775195.531          50.000  
> 2020  5 14 22  5 22.0000000  0 13       0.000000000000
G 2  20981597.080   110259073.855          50.000                                                  
G 5  23178861.960   121805718.461          50.000                                                  
G 6  22204357.660   116684639.996          50.000    22204360.160    87134634.855          50.000  
G12  20174940.500   106020033.574          50.000                                                  
G19  23977834.960   126004373.676          50.000                                                  
G24  22921249.700   120451913.945          50.000    22921253.060    89947852.168          50.000  
G25  21516310.160   113068919.422          50.000    21516312.260    84434583.613          50.000  
G29  23543611.860   123722485.660          50.000                                                  
E 1  25521087.640   134114209.453          50.000    25521091.380   100150211.715          50.000  
E13  23483025.960   123404124.844          50.000    23483029.520    92152422.273          50.000  
E15  26894836.540   141333275.930          50.000    26894842.520   105541066.973          50.000  
E21  23448666.600   123223559.344          50.000    23448670.760    92017583.996          50.000  
E27  25680848.180   134953729.133          50.000    25680853.400   100777119.379          50.000  
> 2020  5 14 22  5 23.0000000  0 13       0.000000000000
G 2  20981803.880   110260160.656          50.000                                                  
G 5  23178272.240   121802619.488          50.000                                                  
G 6  22204875.220   116687359.793          50.000    22204877.720    87136665.867          50.000  
G12  20174798.420   106019286.918          50.000                                                  
G19  23978365.760   126007163.066          50.000                                                  
G24  22921801.700   120454814.781          50.000    22921805.080    89950018.375          50.000  
G25  21515849.700   113066499.664          50.000    21515851.800    84432776.648          50.000  
G29  23543163.960   123720131.930          50.000                                                  
E 1  25520676.160   134112047.160          50.000    25520679.920   100148597.020          50.000  
E13  23483234.620   123405221.402          50.000    23483238.180    92153241.133          50.000  
E15  26895327.120   141335853.875          50.000    26895333.080   105542992.063          50.000  
E21  23448729.340   123223889.012          50.000    23448733.500    92017830.176          50.000  
E27  25681338.480   134956305.629          50.000    25681343.680   100779043.387          50.000  
> 2020  5 14 22  5 24.0000000  0 13       0.000000000000
G 2  20982010.780   110261247.891          50.000                                                  
G 5  23177682.560   121799520.711          50.000                                                  
G 6  22205392.840   116690079.906          50.000    22205395.340    87138697.125          50.000  
G12  20174656.440   106018540.750          50.000                                                  
G19  23978896.560   126009952.484          50.000                                                  
G24  22922353.760   120457715.855          50.000    22922357.120    89952184.762          50.000  
G25  21515389.300   113064080.234          50.000    21515391.400    84430969.934          50.000  
G29  23542716.080   123717778.328          50.000                                                  
E 1  25520264.740   134109885.105          50.000    25520268.500   100146982.496          50.000  
E13  23483443.340   123406318.211          50.000    23483446.900    92154060.180          50.000  
E15  26895817.680   141338431.816          50.000    26895823.640   105544917.145          50.000  
E21  23448792.160   123224219.098          50.000    23448796.320    92018076.672          50.000  
E27  25681828.820   134958882.367          50.000    25681834.020   100780967.574          50.000  
> 2020  5 14 22  5 25.0000000  0 13       0.000000000000
G 2  20982217.760   110262335.555          50.000                                                  
G 5  23177092.920   121796422.113          50.000                                                  
G 6  22205910.520   116692800.344          50.000    22205913.020    87140728.617          50.000  
G12  20174514.540   106017795.066          50.000                                                  
G19  23979427.380   126012741.918          50.000                                                  
G24  22922905.860   120460617.160          50.000    22922909.220    89954351.316          50.000  
G25  21514928.960   113061661.125          50.000    21514931.040    84429163.457          50.000  
G29  23542268.220   123715424.844          50.000                                                  
E 1  25519853.360   134107723.262          50.000    25519857.100   100145368.133          50.000  
E13  23483652.100   123407415.285          50.000    23483655.660    92154879.422          50.000  
E15  26896308.240   141341009.758          50.000    26896314.220   105546842.230          50.000  
E21  23448855.040   123224549.609          50.000    23448859.200    92018323.480          50.000  
E27  25682319.200   134961459.352          50.000    25682324.400   100782891.941          50.000  
> 2020  5 14 22  5 26.0000000  0 13       0.000000000000
G 2  20982424.800   110263423.645          50.000                                                  
G 5  23176503.300   121793323.707          50.000                                                  
G 6  22206428.260   116695521.090          50.000    22206430.760    87142760.344          50.000  
G12  20174372.720   106017049.883          50.000                                                  
G19  23979958.200   126015531.375          50.000                                                  
G24  22923458.020   120463518.715          50.000    22923461.380    89956518.063          50.000  
G25  21514468.680   113059242.348          50.000    21514470.780    84427357.227          50.000  
G29  23541820.400   123713071.480          50.000                                                  
E 1  25519442.020   134105561.656          50.000    25519445.760   100143753.949          50.000  
E13  23483860.920   123408512.598          50.000    23483864.480    92155698.844          50.000  
E15  26896798.820   141343587.691          50.000    26896804.780   105548767.309          50.000  
E21  23448918.020   123224880.539          50.000    23448922.180    92018570.602          50.000  
E27  25682809.620   134964036.551          50.000    25682814.840   100784816.473          50.000  
> 2020  5 14 22  5 27.0000000  0 13       0.000000000000
G 2  20982631.940   110264512.172          50.000                                                  
G 5  23175913.740   121790225.496          50.000                                                  
G 6  22206946.060   116698242.152          50.000    22206948.560    87144792.305          50.000  
G12  20174231.020   106016305.172          50.000                                                  
G19  23980489.020   126018320.840          50.000                                                  
G24  22924010.200   120466420.496          50.000    22924013.560    89958684.973          50.000  
G25  21514008.460   113056823.895          50.000    21514010.560    84425551.238          50.000  
G29  23541372.580   123710718.230          50.000                                                  
E 1  25519030.720   134103400.270          50.000    25519034.460   100142139.926          50.000  
E13  23484069.780   123409610.168          50.000    23484073.340    92156518.457          50.000  
E15  26897289.380   141346165.617          50.000    26897295.340   105550692.383          50.000  
E21  23448981.080   123225211.879          50.000    23448985.240    92018818.031          50.000  
E27  25683300.100   134966613.984          50.000    25683305.300   100786741.180          50.000  
> 2020  5 14 22  5 28.0000000  0 13       0.000000000000
G 2  20982839.160   110265601.117          50.000                                                  
G 5  23175324.200   121787127.484          50.000                                                  
G 6  22207463.920   116700963.527          50.000    22207466.440    87146824.500          50.000  
G12  20174089.400   106015560.957          50.000                                                  
G19  23981019.840   126021110.348          50.000                                                  
G24  22924562.440   120469322.516          50.000    22924565.800    89960852.066          50.000  
G25  21513548.300   113054405.766          50.000    21513550.400    84423745.496          50.000  
G29  23540924.800   123708365.105          50.000                                                  
E 1  25518619.460   134101239.113          50.000    25518623.220   100140526.078          50.000  
E13  23484278.680   123410707.988          50.000    23484282.240    92157338.258          50.000  
E15  26897779.940   141348743.531          50.000    26897785.900   105552617.449          50.000  
E21  23449044.200   123225543.648          50.000    23449048.360    92019065.781          50.000  
E27  25683790.620   134969191.652          50.000    25683795.820   100788666.059          50.000  
> 2020  5 14 22  5 29.0000000  0 13       0.000000000000
G 2  20983046.480   110266690.504          50.000                                                  
G 5  23174734.700   121784029.680          50.000                                                  
G 6  22207981.840   116703685.227          50.000    22207984.360    87148856.934          50.000  
G12  20173947.880   106014817.230          50.000                                                  
G19  23981550.680   126023899.863          50.000                                                  
G24  22925114.720   120472224.758          50.000    22925118.080    89963019.324          50.000  
G25  21513088.220   113051987.961          50.000    21513090.300    84421939.992          50.000  
G29  23540477.040   123706012.102          50.000                                                  
E 1  25518208.260   134099078.188          50.000    25518212.000   100138912.398          50.000  
E13  23484487.640   123411806.074          50.000    23484491.200    92158158.258          50.000  
E15  26898270.500   141351321.461          50.000    26898276.460   105554542.523          50.000  
E21  23449107.420   123225875.840          50.000    23449111.580    92019313.848          50.000  
E27  25684281.180   134971769.551          50.000    25684286.380   100790591.109          50.000  
> 2020  5 14 22  5 30.0000000  0 13       0.000000000000
G 2  20983253.860   110267780.316          50.000                                                  
G 5  23174145.240   121780932.059          50.000                                                  
G 6  22208499.820   116706407.238          50.000    22208502.340    87150889.609          50.000  
G12  20173806.440   106014073.996          50.000                                                  
G19  23982081.500   126026689.406          50.000                                                  
G24  22925667.040   120475127.238          50.000    22925670.420    89965186.758          50.000  
G25  21512628.180   113049570.484          50.000    21512630.280    84420134.734          50.000  
G29  23540029.300   123703659.215          50.000                                                  
E 1  25517797.080   134096917.484          50.000    25517800.840   100137298.887          50.000  
E13  23484696.660   123412904.402          50.000    23484700.200    92158978.438          50.000  
E15  26898761.060   141353899.371          50.000    26898767.020   105556467.586          50.000  
E21  23449170.720   123226208.445          50.000    23449174.880    92019562.223          50.000  
E27  25684771.780   134974347.684          50.000    25684776.980   100792516.340          50.000  
> 2020  5 14 22  5 31.0000000  0 13       0.000000000000
G 2  20983461.320   110268870.563          50.000                                                  
G 5  23173555.820   121777834.633          50.000                                                  
G 6  22209017.860   116709129.570          50.000    22209020.380    87152922.516          50.000  
G12  20173665.100   106013331.238          50.000                                                  
G19  23982612.340   126029478.961          50.000                                                  
G24  22926219.420   120478029.957          50.000    22926222.780    89967354.375          50.000  
G25  21512168.220   113047153.324          50.000    21512170.300    84418329.711          50.000  
G29  23539581.580   123701306.441          50.000                                                  
E 1  25517385.960   134094757.004          50.000    25517389.700   100135685.543          50.000  
E13  23484905.700   123414002.988          50.000    23484909.260    92159798.809          50.000  
E15  26899251.620   141356477.285          50.000    26899257.600   105558392.648          50.000  
E21  23449234.080   123226541.473          50.000    23449238.240    92019810.910          50.000  
E27  25685262.420   134976926.055          50.000    25685267.640   100794441.746          50.000  
> 2020  5 14 22  5 32.0000000  0 13       0.000000000000
G 2  20983668.880   110269961.234          50.000                                                  
G 5  23172966.440   121774737.387          50.000                                                  
G 6  22209535.960   116711852.211          50.000    22209538.480    87154955.656          50.000  
G12  20173523.840   106012588.977          50.000                                                  
G19  23983143.180   126032268.551          50.000                                                  
G24  22926771.840   120480932.922          50.000    22926775.200    89969522.168          50.000  
G25  21511708.300   113044736.496          50.000    21511710.400    84416524.938          50.000  
G29  23539133.880   123698953.797          50.000                                                  
E 1  25516974.880   134092596.754          50.000    25516978.620   100134072.371          50.000  
E13  23485114.800   123415101.824          50.000    23485118.360    92160619.371          50.000  
E15  26899742.180   141359055.188          50.000    26899748.160   105560317.707          50.000  
E21  23449297.540   123226874.918          50.000    23449301.700    92020059.910          50.000  
E27  25685753.120   134979504.648          50.000    25685758.320   100796367.316          50.000  
> 2020  5 14 22  5 33.0000000  0 13       0.000000000000
G 2  20983876.500   110271052.344          50.000                                                  
G 5  23172377.080   121771640.332          50.000                                                  
G 6  22210054.140   116714575.176          50.000    22210056.640    87156989.039          50.000  
G12  20173382.700   106011847.207          50.000                                                  
G19  23983674.020   126035058.152          50.000                                                  
G24  22927324.300   120483836.117          50.000    22927327.660    89971690.141          50.000  
G25  21511248.460   113042319.988          50.000    21511250.540    84414720.406          50.000  
G29  23538686.220   123696601.266          50.000                                                  
E 1  25516563.840   134090436.734          50.000    25516567.580   100132459.371          50.000  
E13  23485323.960   123416200.922          50.000    23485327.520    92161440.121          50.000  
E15  26900232.740   141361633.090          50.000    26900238.700   105562242.762          50.000  
E21  23449361.060   123227208.781          50.000    23449365.240    92020309.227          50.000  
E27  25686243.860   134982083.480          50.000    25686249.060   100798293.066          50.000  
> 2020  5 14 22  5 34.0000000  0 13       0.000000000000
G 2  20984084.220   110272143.875          50.000                                                  
G 5  23171787.780   121768543.461          50.000                                                  
G 6  22210572.360   116717298.453          50.000    22210574.860    87159022.652          50.000  
G12  20173241.640   106011105.922          50.000                                                  
G19  23984204.880   126037847.781          50.000                                                  
G24  22927876.800   120486739.523          50.000    22927880.160    89973858.266          50.000  
G25  21510788.680   113039903.813          50.000    21510790.760    84412916.117          50.000  
G29  23538238.560   123694248.852          50.000                                                  
E 1  25516152.840   134088276.941          50.000    25516156.580   100130846.539          50.000  
E13  23485533.160   123417300.262          50.000    23485536.720    92162261.059          50.000  
E15  26900723.300   141364210.977          50.000    26900729.260   105564167.805          50.000  
E21  23449424.680   123227543.063          50.000    23449428.840    92020558.852          50.000  
E27  25686734.620   134984662.520          50.000    25686739.840   100800218.973          50.000  
> 2020  5 14 22  5 35.0000000  0 13       0.000000000000
G 2  20984292.000   110273235.840          50.000                                                  
G 5  23171198.500   121765446.785          50.000                                                  
G 6  22211090.640   116720022.043          50.000    22211093.140    87161056.504          50.000  
G12  20173100.660   106010365.129          50.000                                                  
G19  23984735.740   126040637.438          50.000                                                  
G24  22928429.340   120489643.164          50.000    22928432.700    89976026.570          50.000  
G25  21510328.960   113037487.961          50.000    21510331.040    84411112.074          50.000  
G29  23537790.940   123691896.559          50.000                                                  
E 1  25515741.880   134086117.371          50.000    25515745.640   100129233.871          50.000  
E13  23485742.400   123418399.855          50.000    23485745.960    92163082.184          50.000  
E15  26901213.860   141366788.871          50.000    26901219.820   105566092.855          50.000  
E21  23449488.380   123227877.770          50.000    23449492.540    92020808.793          50.000  
E27  25687225.460   134987241.824          50.000    25687230.660   100802145.078          50.000  
> 2020  5 14 22  5 36.0000000  0 13       0.000000000000
G 2  20984499.880   110274328.219          50.000                                                  
G 5  23170609.240   121762350.285          50.000                                                  
G 6  22211608.980   116722745.953          50.000    22211611.500    87163090.594          50.000  
G12  20172959.780   106009624.828          50.000                                                  
G19  23985266.580   126043427.105          50.000                                                  
G24  22928981.940   120492547.066          50.000    22928985.300    89978195.066          50.000  
G25  21509869.300   113035072.438          50.000    21509871.380    84409308.277          50.000  
G29  23537343.320   123689544.387          50.000                                                  
E 1  25515330.980   134083958.023          50.000    25515334.720   100127621.371          50.000  
E13  23485951.700   123419499.711          50.000    23485955.260    92163903.504          50.000  
E15  26901704.420   141369366.754          50.000    26901710.380   105568017.898          50.000  
E21  23449552.140   123228212.895          50.000    23449556.320    92021059.051          50.000  
E27  25687716.320   134989821.355          50.000    25687721.520   100804071.348          50.000  
> 2020  5 14 22  5 37.0000000  0 13       0.000000000000
G 2  20984707.840   110275421.035          50.000                                                  
G 5  23170020.040   121759253.977          50.000                                                  
G 6  22212127.380   116725470.172          50.000    22212129.900    87165124.910          50.000  
G12  20172819.000   106008885.012          50.000                                                  
G19  23985797.440   126046216.793          50.000                                                  
G24  22929534.560   120495451.168          50.000    22929537.940    89980363.711          50.000  
G25  21509409.700   113032657.238          50.000    21509411.780    84407504.719          50.000  
G29  23536895.740   123687192.332          50.000                                                  
E 1  25514920.120   134081798.902          50.000    25514923.860   100126009.043          50.000  
E13  23486161.040   123420599.816          50.000    23486164.600    92164725.012          50.000  
E15  26902194.960   141371944.629          50.000    26902200.940   105569942.934          50.000  
E21  23449616.000   123228548.434          50.000    23449620.160    92021309.613          50.000  
E27  25688207.240   134992401.098          50.000    25688212.440   100805997.777          50.000  
> 2020  5 14 22  5 38.0000000  0 13       0.000000000000
G 2  20984915.880   110276514.289          50.000                                                  
G 5  23169430.860   121756157.848          50.000                                                  
G 6  22212645.840   116728194.711          50.000    22212648.360    87167159.469          50.000  
G12  20172678.320   106008145.691          50.000                                                  
G19  23986328.320   126049006.508          50.000                                                  
G24  22930087.240   120498355.516          50.000    22930090.620    89982532.543          50.000  
G25  21508950.160   113030242.359          50.000    21508952.240    84405701.398          50.000  
G29  23536448.180   123684840.391          50.000                                                  
E 1  25514509.280   134079640.012          50.000    25514513.040   100124396.883          50.000  
E13  23486370.420   123421700.168          50.000    23486373.980    92165546.703          50.000  
E15  26902685.520   141374522.500          50.000    26902691.480   105571867.965          50.000  
E21  23449679.920   123228884.391          50.000    23449684.100    92021560.492          50.000  
E27  25688698.180   134994981.086          50.000    25688703.400   100807924.391          50.000  
> 2020  5 14 22  5 39.0000000  0 13       0.000000000000
G 2  20985124.000   110277607.980          50.000                                                  
G 5  23168841.720   121753061.918          50.000                                                  
G 6  22213164.360   116730919.566          50.000    22213166.880    87169194.262          50.000  
G12  20172537.720   106007406.863          50.000                                                  
G19  23986859.180   126051796.242          50.000                                                  
G24  22930639.960   120501260.074          50.000    22930643.340    89984701.527          50.000  
G25  21508490.680   113027827.820          50.000    21508492.780    84403898.336          50.000  
G29  23536000.660   123682488.590          50.000                                                  
E 1  25514098.500   134077481.359          50.000    25514102.260   100122784.906          50.000  
E13  23486579.860   123422800.777          50.000    23486583.420    92166368.586          50.000  
E15  26903176.080   141377100.363          50.000    26903182.040   105573792.992          50.000  
E21  23449743.940   123229220.777          50.000    23449748.100    92021811.688          50.000  
E27  25689189.180   134997561.297          50.000    25689194.400   100809851.172          50.000  
> 2020  5 14 22  5 40.0000000  0 13       0.000000000000
G 2  20985332.200   110278702.094          50.000                                                  
G 5  23168252.620   121749966.168          50.000                                                  
G 6  22213682.940   116733644.734          50.000    22213685.460    87171229.289          50.000  
G12  20172397.220   106006668.516          50.000                                                  
G19  23987390.060   126054585.996          50.000                                                  
G24  22931192.740   120504164.898          50.000    22931196.100    89986870.715          50.000  
G25  21508031.280   113025413.602          50.000    21508033.360    84402095.512          50.000  
G29  23535553.140   123680136.891          50.000                                                  
E 1  25513687.780   134075322.926          50.000    25513691.520   100121173.086          50.000  
E13  23486789.360   123423901.629          50.000    23486792.920    92167190.652          50.000  
E15  26903666.620   141379678.227          50.000    26903672.600   105575718.020          50.000  
E21  23449808.040   123229557.578          50.000    23449812.200    92022063.195          50.000  
E27  25689680.220   135000141.742          50.000    25689685.440   100811778.125          50.000  
> 2020  5 14 22  5 41.0000000  0 13       0.000000000000
G 2  20985540.480   110279796.633          50.000                                                  
G 5  23167663.560   121746870.613          50.000                                                  
G 6  22214201.600   116736370.215          50.000    22214204.100    87173264.551          50.000  
G12  20172256.820   106005930.656          50.000                                                  
G19  23987920.940   126057375.773          50.000                                                  
G24  22931745.560   120507069.945          50.000    22931748.920    89989040.066          50.000  
G25  21507571.920   113022999.699          50.000    21507574.020    84400292.922          50.000  
G29  23535105.640   123677785.313          50.000                                                  
E 1  25513277.080   134073164.719          50.000    25513280.820   100119561.438          50.000  
E13  23486998.900   123425002.746          50.000    23487002.440    92168012.914          50.000  
E15  26904157.180   141382256.078          50.000    26904163.140   105577643.035          50.000  
E21  23449872.200   123229894.801          50.000    23449876.360    92022315.016          50.000  
E27  25690171.320   135002722.430          50.000    25690176.520   100813705.262          50.000  
> 2020  5 14 22  5 42.0000000  0 13       0.000000000000
G 2  20985748.840   110280891.598          50.000                                                  
G 5  23167074.540   121743775.246          50.000                                                  
G 6  22214720.300   116739096.012          50.000    22214722.800    87175300.047          50.000  
G12  20172116.500   106005193.285          50.000                                                  
G19  23988451.820   126060165.574          50.000                                                  
G24  22932298.400   120509975.188          50.000    22932301.760    89991209.566          50.000  
G25  21507112.640   113020586.137          50.000    21507114.720    84398490.586          50.000  
G29  23534658.180   123675433.852          50.000                                                  
E 1  25512866.420   134071006.730          50.000    25512870.180   100117949.957          50.000  
E13  23487208.480   123426104.121          50.000    23487212.040    92168835.367          50.000  
E15  26904647.720   141384833.930          50.000    26904653.700   105579568.055          50.000  
E21  23449936.460   123230232.441          50.000    23449940.620    92022567.148          50.000  
E27  25690662.460   135005303.340          50.000    25690667.660   100815632.563          50.000  
> 2020  5 14 22  5 43.0000000  0 13       0.000000000000
G 2  20985957.300   110281986.988          50.000                                                  
G 5  23166485.540   121740680.070          50.000                                                  
G 6  22215239.060   116741822.125          50.000    22215241.580    87177335.781          50.000  
G12  20171976.280   106004456.406          50.000                                                  
G19  23988982.700   126062955.395          50.000                                                  
G24  22932851.300   120512880.672          50.000    22932854.660    89993379.242          50.000  
G25  21506653.420   113018172.898          50.000    21506655.500    84396688.496          50.000  
G29  23534210.740   123673082.512          50.000                                                  
E 1  25512455.820   134068848.977          50.000    25512459.560   100116338.648          50.000  
E13  23487418.100   123427205.742          50.000    23487421.660    92169658.008          50.000  
E15  26905138.280   141387411.773          50.000    26905144.240   105581493.066          50.000  
E21  23450000.780   123230570.496          50.000    23450004.940    92022819.594          50.000  
E27  25691153.620   135007884.480          50.000    25691158.840   100817560.035          50.000  
> 2020  5 14 22  5 44.0000000  0 13       0.000000000000
G 2  20986165.820   110283082.820          50.000                                                  
G 5  23165896.580   121737585.086          50.000                                                  
G 6  22215757.880   116744548.559          50.000    22215760.400    87179371.754          50.000  
G12  20171836.140   106003720.023          50.000                                                  
G19  23989513.600   126065745.234          50.000                                                  
G24  22933404.240   120515786.371          50.000    22933407.600    89995549.082          50.000  
G25  21506194.260   113015759.984          50.000    21506196.340    84394886.645          50.000  
G29  23533763.300   123670731.289          50.000                                                  
E 1  25512045.260   134066691.457          50.000    25512049.000   100114727.512          50.000  
E13  23487627.780   123428307.613          50.000    23487631.340    92170480.836          50.000  
E15  26905628.820   141389989.609          50.000    26905634.780   105583418.070          50.000  
E21  23450065.200   123230908.980          50.000    23450069.360    92023072.359          50.000  
E27  25691644.840   135010465.852          50.000    25691650.060   100819487.684          50.000  
> 2020  5 14 22  5 45.0000000  0 13       0.000000000000
G 2  20986374.440   110284179.070          50.000                                                  
G 5  23165307.660   121734490.301          50.000                                                  
G 6  22216276.760   116747275.301          50.000    22216279.280    87181407.957          50.000  
G12  20171696.100   106002984.121          50.000                                                  
G19  23990044.480   126068535.086          50.000                                                  
G24  22933957.220   120518692.289          50.000    22933960.580    89997719.086          50.000  
G25  21505735.160   113013347.398          50.000    21505737.240    84393085.039          50.000  
G29  23533315.900   123668380.184          50.000                                                  
E 1  25511634.740   134064534.160          50.000    25511638.480   100113116.547          50.000  
E13  23487837.520   123429409.746          50.000    23487841.080    92171303.855          50.000  
E15  26906119.360   141392567.449          50.000    26906125.340   105585343.078          50.000  
E21  23450129.680   123231247.875          50.000    23450133.840    92023325.430          50.000  
E27  25692136.120   135013047.461          50.000    25692141.320   100821415.508          50.000  
> 2020  5 14 22  5 46.0000000  0 13       0.000000000000
G 2  20986583.120   110285275.750          50.000                                                  
G 5  23164718.780   121731395.703          50.000                                                  
G 6  22216795.700   116750002.363          50.000    22216798.220    87183444.398          50.000  
G12  20171556.160   106002248.715          50.000                                                  
G19  23990575.380   126071324.965          50.000                                                  
G24  22934510.240   120521598.430          50.000    22934513.600    89999889.254          50.000  
G25  21505276.120   113010935.148          50.000    21505278.200    84391283.684          50.000  
G29  23532868.520   123666029.191          50.000                                                  
E 1  25511224.260   134062377.090          50.000    25511228.000   100111505.746          50.000  
E13  23488047.280   123430512.125          50.000    23488050.840    92172127.059          50.000  
E15  26906609.900   141395145.273          50.000    26906615.880   105587268.078          50.000  
E21  23450194.260   123231587.199          50.000    23450198.420    92023578.820          50.000  
E27  25692627.420   135015629.293          50.000    25692632.620   100823343.496          50.000  
> 2020  5 14 22  5 47.0000000  0 13       0.000000000000
G 2  20986791.900   110286372.863          50.000                                                  
G 5  23164129.940   121728301.301          50.000                                                  
G 6  22217314.700   116752729.734          50.000    22217317.220    87185481.070          50.000  
G12  20171416.320   106001513.797          50.000                                                  
G19  23991106.280   126074114.875          50.000                                                  
G24  22935063.300   120524504.801          50.000    22935066.660    90002059.594          50.000  
G25  21504817.140   113008523.219          50.000    21504819.220    84389482.570          50.000  
G29  23532421.180   123663678.328          50.000                                                  
E 1  25510813.820   134060220.250          50.000    25510817.560   100109895.121          50.000  
E13  23488257.120   123431614.754          50.000    23488260.680    92172950.449          50.000  
E15  26907100.460   141397723.102          50.000    26907106.420   105589193.078          50.000  
E21  23450258.900   123231926.938          50.000    23450263.080    92023832.520          50.000  
E27  25693118.760   135018211.363          50.000    25693123.980   100825271.664          50.000  
> 2020  5 14 22  5 48.0000000  0 13       0.000000000000
G 2  20987000.760   110287470.355          50.000                                                  
G 5  23163541.120   121725207.082          50.000                                                  
G 6  22217833.760   116755457.449          50.000    22217836.280    87187518.016          50.000  
G12  20171276.560   106000779.367          50.000                                                  
G19  23991637.180   126076904.770          50.000                                                  
G24  22935616.460   120527411.156          50.000    22935619.860    90004229.789          50.000  
G25  21504358.240   113006111.609          50.000    21504360.320    84387681.691          50.000  
G29  23531973.800   123661327.730          50.000                                                  
E 1  25510403.440   134058063.629          50.000    25510407.180   100108284.660          50.000  
E13  23488466.980   123432717.652          50.000    23488470.540    92173774.063          50.000  
E15  26907591.000   141400300.902          50.000    26907596.960   105591118.059          50.000  
E21  23450323.640   123232267.055          50.000    23450327.820    92024086.488          50.000  
E27  25693610.180   135020793.551          50.000    25693615.420   100827199.859          50.000  
> 2020  5 14 22  5 49.0000000  0 13       0.000000000000
G 2  20987209.700   110288568.320          50.000                                                  
G 5  23162952.340   121722113.047          50.000                                                  
G 6  22218352.880   116758185.445          50.000    22218355.400    87189555.156          50.000  
G12  20171136.900   106000045.434          50.000                                                  
G19  23992168.100   126079694.703          50.000                                                  
G24  22936169.600   120530317.973          50.000    22936173.000    90006400.461          50.000  
G25  21503899.380   113003700.316          50.000    21503901.460    84385881.051          50.000  
G29  23531526.500   123658977.102          50.000                                                  
E 1  25509993.080   134055907.242          50.000    25509996.840   100106674.371          50.000  
E13  23488676.900   123433820.785          50.000    23488680.460    92174597.828          50.000  
E15  26908081.540   141402878.707          50.000    26908087.500   105593043.043          50.000  
E21  23450388.460   123232607.625          50.000    23450392.620    92024340.809          50.000  
E27  25694101.620   135023376.074          50.000    25694106.860   100829128.367          50.000  
> 2020  5 14 22  5 50.0000000  0 13       0.000000000000
G 2  20987418.720   110289666.711          50.000                                                  
G 5  23162363.620   121719019.211          50.000                                                  
G 6  22218872.080   116760913.754          50.000    22218874.580    87191592.527          50.000  
G12  20170997.320   105999311.977          50.000                                                  
G19  23992699.020   126082484.652          50.000                                                  
G24  22936722.800   120533225.020          50.000    22936726.200    90008571.305          50.000  
G25  21503440.600   113001289.359          50.000    21503442.680    84384080.660          50.000  
G29  23531079.200   123656626.586          50.000                                                  
E 1  25509582.780   134053751.074          50.000    25509586.520   100105064.246          50.000  
E13  23488886.860   123434924.156          50.000    23488890.420    92175421.773          50.000  
E15  26908572.080   141405456.512          50.000    26908578.060   105594968.023          50.000  
E21  23450453.340   123232948.617          50.000    23450457.520    92024595.445          50.000  
E27  25694593.100   135025958.828          50.000    25694598.340   100831057.047          50.000  
> 2020  5 14 22  5 51.0000000  0 13       0.000000000000
G 2  20987627.820   110290765.527          50.000                                                  
G 5  23161774.920   121715925.574          50.000                                                  
G 6  22219391.320   116763642.383          50.000    22219393.820    87193630.141          50.000  
G12  20170857.840   105998579.023          50.000                                                  
G19  23993229.920   126085274.629          50.000                                                  
G24  22937276.040   120536132.309          50.000    22937279.440    90010742.332          50.000  
G25  21502981.860   112998878.730          50.000    21502983.940    84382280.516          50.000  
G29  23530631.940   123654276.195          50.000                                                  
E 1  25509172.520   134051595.141          50.000    25509176.260   100103454.297          50.000  
E13  23489096.880   123436027.797          50.000    23489100.440    92176245.922          50.000  
E15  26909062.620   141408034.305          50.000    26909068.600   105596893.000          50.000  
E21  23450518.320   123233290.027          50.000    23450522.480    92024850.391          50.000  
E27  25695084.640   135028541.820          50.000    25695089.860   100832985.902          50.000  
> 2020  5 14 22  5 52.0000000  0 13       0.000000000000
G 2  20987837.000   110291864.781          50.000                                                  
G 5  23161186.240   121712832.117          50.000                                                  
G 6  22219910.620   116766371.324          50.000    22219913.120    87195667.984          50.000  
G12  20170718.460   105997846.555          50.000                                                  
G19  23993760.860   126088064.633          50.000                                                  
G24  22937829.320   120539039.824          50.000    22937832.720    90012913.527          50.000  
G25  21502523.200   112996468.430          50.000    21502525.280    84380480.617          50.000  
G29  23530184.700   123651925.922          50.000                                                  
E 1  25508762.320   134049439.438          50.000    25508766.060   100101844.520          50.000  
E13  23489306.960   123437131.688          50.000    23489310.500    92177070.254          50.000  
E15  26909553.160   141410612.094          50.000    26909559.140   105598817.969          50.000  
E21  23450583.360   123233631.867          50.000    23450587.540    92025105.664          50.000  
E27  25695576.220   135031125.043          50.000    25695581.440   100834914.930          50.000  
> 2020  5 14 22  5 53.0000000  0 13       0.000000000000
G 2  20988046.260   110292964.461          50.000                                                  
G 5  23160597.620   121709738.852          50.000                                                  
G 6  22220429.980   116769100.578          50.000    22220432.500    87197706.066          50.000  
G12  20170579.180   105997114.574          50.000                                                  
G19  23994291.780   126090854.656          50.000                                                  
G24  22938382.660   120541947.574          50.000    22938386.060    90015084.898          50.000  
G25  21502064.600   112994058.457          50.000    21502066.680    84378680.961          50.000  
G29  23529737.480   123649575.773          50.000                                                  
E 1  25508352.140   134047283.957          50.000    25508355.880   100100234.906          50.000  
E13  23489517.060   123438235.824          50.000    23489520.620    92177894.773          50.000  
E15  26910043.700   141413189.879          50.000    26910049.680   105600742.941          50.000  
E21  23450648.500   123233974.117          50.000    23450652.660    92025361.238          50.000  
E27  25696067.840   135033708.496          50.000    25696073.060   100836844.133          50.000  
> 2020  5 14 22  5 54.0000000  0 13       0.000000000000
G 2  20988255.600   110294064.559          50.000                                                  
G 5  23160009.040   121706645.785          50.000                                                  
G 6  22220949.400   116771830.152          50.000    22220951.920    87199744.383          50.000  
G12  20170439.980   105996383.094          50.000                                                  
G19  23994822.700   126093644.699          50.000                                                  
G24  22938936.020   120544855.559          50.000    22938939.440    90017256.445          50.000  
G25  21501606.060   112991648.816          50.000    21501608.140    84376881.555          50.000  
G29  23529290.280   123647225.738          50.000                                                  
E 1  25507942.020   134045128.711          50.000    25507945.760   100098625.469          50.000  
E13  23489727.220   123439340.219          50.000    23489730.780    92178719.480          50.000  
E15  26910534.240   141415767.656          50.000    26910540.200   105602667.902          50.000  
E21  23450713.700   123234316.785          50.000    23450717.880    92025617.129          50.000  
E27  25696559.500   135036292.180          50.000    25696564.720   100838773.508          50.000  
> 2020  5 14 22  5 55.0000000  0 13       0.000000000000
G 2  20988465.040   110295165.090          50.000                                                  
G 5  23159420.480   121703552.898          50.000                                                  
G 6  22221468.880   116774560.031          50.000    22221471.400    87201782.926          50.000  
G12  20170300.880   105995652.090          50.000                                                  
G19  23995353.640   126096434.758          50.000                                                  
G24  22939489.440   120547763.766          50.000    22939492.840    90019428.156          50.000  
G25  21501147.580   112989239.496          50.000    21501149.660    84375082.391          50.000  
G29  23528843.120   123644875.824          50.000                                                  
E 1  25507531.920   134042973.684          50.000    25507535.660   100097016.199          50.000  
E13  23489937.440   123440444.863          50.000    23489940.980    92179544.379          50.000  
E15  26911024.780   141418345.430          50.000    26911030.740   105604592.859          50.000  
E21  23450779.000   123234659.875          50.000    23450783.160    92025873.332          50.000  
E27  25697051.200   135038876.094          50.000    25697056.420   100840703.051          50.000  
> 2020  5 14 22  5 56.0000000  0 13       0.000000000000
G 2  20988674.540   110296266.051          50.000                                                  
G 5  23158831.960   121700460.211          50.000                                                  
G 6  22221988.420   116777290.227          50.000    22221990.940    87203821.707          50.000  
G12  20170161.860   105994921.582          50.000                                                  
G19  23995884.580   126099224.852          50.000                                                  
G24  22940042.900   120550672.223          50.000    22940046.320    90021600.051          50.000  
G25  21500689.180   112986830.504          50.000    21500691.260    84373283.469          50.000  
G29  23528395.960   123642526.020          50.000                                                  
E 1  25507121.880   134040818.883          50.000    25507125.620   100095407.094          50.000  
E13  23490147.700   123441549.758          50.000    23490151.240    92180369.461          50.000  
E15  26911515.300   141420923.199          50.000    26911521.280   105606517.816          50.000  
E21  23450844.360   123235003.383          50.000    23450848.540    92026129.844          50.000  
E27  25697542.940   135041460.230          50.000    25697548.180   100842632.762          50.000  
> 2020  5 14 22  5 57.0000000  0 13       0.000000000000
G 2  20988884.120   110297367.441          50.000                                                  
G 5  23158243.480   121697367.707          50.000                                                  
G 6  22222508.020   116780020.730          50.000    22222510.540    87205860.723          50.000  
G12  20170022.960   105994191.563          50.000                                                  
G19  23996415.520   126102014.949          50.000                                                  
G24  22940596.400   120553580.891          50.000    22940599.820    90023772.109          50.000  
G25  21500230.820   112984421.848          50.000    21500232.900    84371484.797          50.000  
G29  23527948.840   123640176.340          50.000                                                  
E 1  25506711.880   134038664.316          50.000    25506715.620   100093798.164          50.000  
E13  23490358.000   123442654.910          50.000    23490361.560    92181194.738          50.000  
E15  26912005.840   141423500.957          50.000    26912011.820   105608442.766          50.000  
E21  23450909.820   123235347.320          50.000    23450913.980    92026386.680          50.000  
E27  25698034.740   135044044.609          50.000    25698039.960   100844562.652          50.000  
> 2020  5 14 22  5 58.0000000  0 13       0.000000000000
G 2  20989093.800   110298469.266          50.000                                                  
G 5  23157655.020   121694275.402          50.000                                                  
G 6  22223027.680   116782751.555          50.000    22223030.200    87207899.973          50.000  
G12  20169884.120   105993462.031          50.000                                                  
G19  23996946.460   126104805.078          50.000                                                  
G24  22941149.960   120556489.789          50.000    22941153.360    90025944.336          50.000  
G25  21499772.540   112982013.512          50.000    21499774.620    84369686.363          50.000  
G29  23527501.740   123637826.785          50.000                                                  
E 1  25506301.920   134036509.977          50.000    25506305.660   100092189.406          50.000  
E13  23490568.340   123443760.313          50.000    23490571.900    92182020.203          50.000  
E15  26912496.380   141426078.707          50.000    26912502.340   105610367.707          50.000  
E21  23450975.340   123235691.672          50.000    23450979.520    92026643.828          50.000  
E27  25698526.580   135046629.215          50.000    25698531.800   100846492.715          50.000  
> 2020  5 14 22  5 59.0000000  0 13       0.000000000000
G 2  20989303.560   110299571.512          50.000                                                  
G 5  23157066.620   121691183.289          50.000                                                  
G 6  22223547.400   116785482.695          50.000    22223549.920    87209939.461          50.000  
G12  20169745.400   105992732.988          50.000                                                  
G19  23997477.420   126107595.227          50.000                                                  
G24  22941703.560   120559398.922          50.000    22941706.960    90028116.742          50.000  
G25  21499314.300   112979605.496          50.000    21499316.380    84367888.172          50.000  
G29  23527054.640   123635477.340          50.000                                                  
E 1  25505892.020   134034355.867          50.000    25505895.760   100090580.820          50.000  
E13  23490778.740   123444865.953          50.000    23490782.300    92182845.844          50.000  
E15  26912986.900   141428656.453          50.000    26912992.880   105612292.648          50.000  
E21  23451040.960   123236036.441          50.000    23451045.120    92026901.285          50.000  
E27  25699018.460   135049214.043          50.000    25699023.680   100848422.941          50.000  
> 2020  5 14 22  6  0.0000000  0 13       0.000000000000
G 2  20989513.380   110300674.184          50.000                                                  
G 5  23156478.240   121688091.344          50.000                                                  
G 6  22224067.180   116788214.141          50.000    22224069.700    87211979.176          50.000  
G12  20169606.760   105992004.434          50.000                                                  
G19  23998008.380   126110385.387          50.000                                                  
G24  22942257.180   120562308.281          50.000    22942260.600    90030289.313          50.000  
G25  21498856.140   112977197.809          50.000    21498858.220    84366090.227          50.000  
G29  23526607.600   123633128.027          50.000                                                  
E 1  25505482.140   134032201.984          50.000    25505485.880   100088972.402          50.000  
E13  23490989.200   123445971.859          50.000    23490992.760    92183671.684          50.000  
E15  26913477.440   141431234.195          50.000    26913483.420   105614217.582          50.000  
E21  23451106.640   123236381.629          50.000    23451110.820    92027159.055          50.000  
E27  25699510.380   135051799.109          50.000    25699515.600   100850353.348          50.000  
> 2020  5 14 22  6  1.0000000  0 13       0.000000000000
G 2  20989723.300   110301777.289          50.000                                                  
G 5  23155889.900   121684999.613          50.000                                                  
G 6  22224587.020   116790945.902          50.000    22224589.540    87214019.125          50.000  
G12  20169468.220   105991276.383          50.000                                                  
G19  23998539.340   126113175.578          50.000                                                  
G24  22942810.860   120565217.867          50.000    22942814.280    90032462.055          50.000  
G25  21498398.040   112974790.473          50.000    21498400.120    84364292.539          50.000  
G29  23526160.560   123630778.828          50.000                                                  
E 1  25505072.320   134030048.336          50.000    25505076.060   100087364.156          50.000  
E13  23491199.700   123447078.027          50.000    23491203.260    92184497.715          50.000  
E15  26913967.960   141433811.930          50.000    26913973.940   105616142.512          50.000  
E21  23451172.420   123236727.242          50.000    23451176.580    92027417.145          50.000  
E27  25700002.340   135054384.406          50.000    25700007.580   100852283.926          50.000  
> 2020  5 14 22  6  2.0000000  0 13       0.000000000000
G 2  20989933.300   110302880.820          50.000                                                  
G 5  23155301.600   121681908.063          50.000                                                  
G 6  22225106.920   116793677.980          50.000    22225109.440    87216059.316          50.000  
G12  20169329.760   105990548.809          50.000                                                  
G19  23999070.300   126115965.789          50.000                                                  
G24  22943364.580   120568127.664          50.000    22943368.000    90034634.953          50.000  
G25  21497940.000   112972383.441          50.000    21497942.080    84362495.082          50.000  
G29  23525713.540   123628429.754          50.000                                                  
E 1  25504662.540   134027894.910          50.000    25504666.280   100085756.078          50.000  
E13  23491410.240   123448184.434          50.000    23491413.800    92185323.926          50.000  
E15  26914458.500   141436389.660          50.000    26914464.480   105618067.441          50.000  
E21  23451238.260   123237073.273          50.000    23451242.440    92027675.543          50.000  
E27  25700494.360   135056969.941          50.000    25700499.600   100854214.680          50.000  
> 2020  5 14 22  6  3.0000000  0 13       0.000000000000
G 2  20990143.380   110303984.773          50.000                                                  
G 5  23154713.340   121678816.719          50.000                                                  
G 6  22225626.880   116796410.367          50.000    22225629.400    87218099.730          50.000  
G12  20169191.420   105989821.734          50.000                                                  
G19  23999601.260   126118756.012          50.000                                                  
G24  22943918.340   120571037.691          50.000    22943921.760    90036808.027          50.000  
G25  21497482.020   112969976.750          50.000    21497484.100    84360697.879          50.000  
G29  23525266.560   123626080.797          50.000                                                  
E 1  25504252.800   134025741.711          50.000    25504256.540   100084148.172          50.000  
E13  23491620.840   123449291.094          50.000    23491624.380    92186150.328          50.000  
E15  26914949.020   141438967.383          50.000    26914955.000   105619992.359          50.000  
E21  23451304.200   123237419.727          50.000    23451308.360    92027934.258          50.000  
E27  25700986.420   135059555.699          50.000    25700991.640   100856145.602          50.000  
> 2020  5 14 22  6  4.0000000  0 13       0.000000000000
G 2  20990353.540   110305089.160          50.000                                                  
G 5  23154125.120   121675725.559          50.000                                                  
G 6  22226146.900   116799143.070          50.000    22226149.420    87220140.387          50.000  
G12  20169053.160   105989095.145          50.000                                                  
G19  24000132.220   126121546.262          50.000                                                  
G24  22944472.160   120573947.957          50.000    22944475.560    90038981.273          50.000  
G25  21497024.100   112967570.379          50.000    21497026.180    84358900.910          50.000  
G29  23524819.580   123623731.961          50.000                                                  
E 1  25503843.100   134023588.738          50.000    25503846.840   100082540.434          50.000  
E13  23491831.480   123450398.004          50.000    23491835.020    92186976.918          50.000  
E15  26915439.540   141441545.098          50.000    26915445.520   105621917.277          50.000  
E21  23451370.200   123237766.598          50.000    23451374.380    92028193.285          50.000  
E27  25701478.520   135062141.684          50.000    25701483.740   100858076.695          50.000  
> 2020  5 14 22  6  5.0000000  0 13       0.000000000000
G 2  20990563.780   110306193.973          50.000                                                  
G 5  23153536.920   121672634.598          50.000                                                  
G 6  22226666.980   116801876.086          50.000    22226669.500    87222181.273          50.000  
G12  20168914.980   105988369.051          50.000                                                  
G19  24000663.200   126124336.523          50.000                                                  
G24  22945026.000   120576858.441          50.000    22945029.420    90041154.688          50.000  
G25  21496566.260   112965164.348          50.000    21496568.340    84357104.203          50.000  
G29  23524372.640   123621383.238          50.000                                                  
E 1  25503433.460   134021435.996          50.000    25503437.200   100080932.867          50.000  
E13  23492042.160   123451505.156          50.000    23492045.720    92187803.688          50.000  
E15  26915930.080   141444122.813          50.000    26915936.040   105623842.191          50.000  
E21  23451436.300   123238113.883          50.000    23451440.460    92028452.621          50.000  
E27  25701970.660   135064727.906          50.000    25701975.900   100860007.965          50.000  
> 2020  5 14 22  6  6.0000000  0 13       0.000000000000
G 2  20990774.100   110307299.215          50.000                                                  
G 5  23152948.780   121669543.828          50.000                                                  
G 6  22227187.120   116804609.414          50.000    22227189.640    87224222.395          50.000  
G12  20168776.900   105987643.453          50.000                                                  
G19  24001194.180   126127126.824          50.000                                                  
G24  22945579.900   120579769.160          50.000    22945583.300    90043328.273          50.000  
G25  21496108.460   112962758.633          50.000    21496110.540    84355307.727          50.000  
G29  23523925.720   123619034.637          50.000                                                  
E 1  25503023.840   134019283.488          50.000    25503027.580   100079325.477          50.000  
E13  23492252.900   123452612.578          50.000    23492256.460    92188630.656          50.000  
E15  26916420.600   141446700.516          50.000    26916426.580   105625767.102          50.000  
E21  23451502.460   123238461.594          50.000    23451506.640    92028712.273          50.000  
E27  25702462.840   135067314.355          50.000    25702468.080   100861939.402          50.000  
> 2020  5 14 22  6  7.0000000  0 13       0.000000000000
G 2  20990984.500   110308404.883          50.000                                                  
G 5  23152360.660   121666453.250          50.000                                                  
G 6  22227707.320   116807343.051          50.000    22227709.820    87226263.746          50.000  
G12  20168638.920   105986918.344          50.000                                                  
G19  24001725.160   126129917.141          50.000                                                  
G24  22946133.840   120582680.105          50.000    22946137.240    90045502.031          50.000  
G25  21495650.740   112960353.250          50.000    21495652.820    84353511.500          50.000  
G29  23523478.820   123616686.156          50.000                                                  
E 1  25502614.280   134017131.207          50.000    25502618.020   100077718.254          50.000  
E13  23492463.680   123453720.227          50.000    23492467.240    92189457.801          50.000  
E15  26916911.120   141449278.215          50.000    26916917.100   105627692.004          50.000  
E21  23451568.720   123238809.719          50.000    23451572.880    92028972.238          50.000  
E27  25702955.080   135069901.035          50.000    25702960.320   100863871.012          50.000  
> 2020  5 14 22  6  8.0000000  0 13       0.000000000000
G 2  20991194.980   110309510.980          50.000                                                  
G 5  23151772.580   121663362.875          50.000                                                  
G 6  22228227.580   116810077.008          50.000    22228230.080    87228305.336          50.000  
G12  20168501.040   105986193.723          50.000                                                  
G19  24002256.140   126132707.480          50.000                                                  
G24  22946687.820   120585591.273          50.000    22946691.220    90047675.953          50.000  
G25  21495193.060   112957948.195          50.000    21495195.160    84351715.520          50.000  
G29  23523031.940   123614337.793          50.000                                                  
E 1  25502204.760   134014979.152          50.000    25502208.500   100076111.203          50.000  
E13  23492674.500   123454828.145          50.000    23492678.060    92190285.141          50.000  
E15  26917401.640   141451855.898          50.000    26917407.620   105629616.898          50.000  
E21  23451635.040   123239158.273          50.000    23451639.200    92029232.523          50.000  
E27  25703447.360   135072487.949          50.000    25703452.580   100865802.797          50.000  
> 2020  5 14 22  6  9.0000000  0 13       0.000000000000
G 2  20991405.560   110310617.496          50.000                                                  
G 5  23151184.540   121660272.684          50.000                                                  
G 6  22228747.880   116812811.270          50.000    22228750.400    87230347.156          50.000  
G12  20168363.240   105985469.602          50.000                                                  
G19  24002787.140   126135497.840          50.000                                                  
G24  22947241.840   120588502.672          50.000    22947245.240    90049850.051          50.000  
G25  21494735.460   112955543.473          50.000    21494737.540    84349919.785          50.000  
G29  23522585.080   123611989.547          50.000                                                  
E 1  25501795.280   134012827.324          50.000    25501799.020   100074504.316          50.000  
E13  23492885.380   123455936.320          50.000    23492888.940    92191112.672          50.000  
E15  26917892.160   141454433.582          50.000    26917898.140   105631541.789          50.000  
E21  23451701.440   123239507.242          50.000    23451705.620    92029493.113          50.000  
E27  25703939.680   135075075.098          50.000    25703944.920   100867734.758          50.000  
> 2020  5 14 22  6 10.0000000  0 13       0.000000000000
G 2  20991616.200   110311724.449          50.000                                                  
G 5  23150596.540   121657182.688          50.000                                                  
G 6  22229268.260   116815545.848          50.000    22229270.780    87232389.207          50.000  
G12  20168225.540   105984745.957          50.000                                                  
G19  24003318.140   126138288.219          50.000                                                  
G24  22947795.900   120591414.301          50.000    22947799.320    90052024.316          50.000  
G25  21494277.920   112953139.078          50.000    21494280.000    84348124.297          50.000  
G29  23522138.260   123609641.434          50.000                                                  
E 1  25501385.860   134010675.730          50.000    25501389.600   100072897.605          50.000  
E13  23493096.320   123457044.738          50.000    23493099.880    92191940.387          50.000  
E15  26918382.680   141457011.258          50.000    26918388.660   105633466.676          50.000  
E21  23451767.940   123239856.629          50.000    23451772.100    92029754.020          50.000  
E27  25704432.040   135077662.465          50.000    25704437.280   100869666.883          50.000  
> 2020  5 14 22  6 11.0000000  0 13       0.000000000000
G 2  20991826.940   110312831.832          50.000                                                  
G 5  23150008.560   121654092.883          50.000                                                  
G 6  22229788.700   116818280.746          50.000    22229791.220    87234431.504          50.000  
G12  20168087.940   105984022.816          50.000                                                  
G19  24003849.140   126141078.637          50.000                                                  
G24  22948350.020   120594326.152          50.000    22948353.420    90054198.750          50.000  
G25  21493820.460   112950735.012          50.000    21493822.540    84346329.051          50.000  
G29  23521691.440   123607293.422          50.000                                                  
E 1  25500976.460   134008524.375          50.000    25500980.200   100071291.074          50.000  
E13  23493307.300   123458153.418          50.000    23493310.840    92192768.297          50.000  
E15  26918873.200   141459588.934          50.000    26918879.180   105635391.563          50.000  
E21  23451834.500   123240206.449          50.000    23451838.680    92030015.250          50.000  
E27  25704924.440   135080250.074          50.000    25704929.680   100871599.184          50.000  
> 2020  5 14 22  6 12.0000000  0 13       0.000000000000
G 2  20992037.740   110313939.637          50.000                                                  
G 5  23149420.640   121651003.273          50.000                                                  
G 6  22230309.200   116821015.945          50.000    22230311.700    87236474.020          50.000  
G12  20167950.420   105983300.168          50.000                                                  
G19  24004380.140   126143869.070          50.000                                                  
G24  22948904.160   120597238.203          50.000    22948907.580    90056373.332          50.000  
G25  21493363.040   112948331.285          50.000    21493365.120    84344534.063          50.000  
G29  23521244.660   123604945.535          50.000                                                  
E 1  25500567.120   134006373.234          50.000    25500570.860   100069684.707          50.000  
E13  23493518.320   123459262.332          50.000    23493521.860    92193596.383          50.000  
E15  26919363.720   141462166.602          50.000    26919369.700   105637316.441          50.000  
E21  23451901.160   123240556.684          50.000    23451905.320    92030276.789          50.000  
E27  25705416.900   135082837.910          50.000    25705422.140   100873531.660          50.000  
> 2020  5 14 22  6 13.0000000  0 13       0.000000000000
G 2  20992248.640   110315047.863          50.000                                                  
G 5  23148832.740   121647913.859          50.000                                                  
G 6  22230829.740   116823751.461          50.000    22230832.260    87238516.773          50.000  
G12  20167813.000   105982578.000          50.000                                                  
G19  24004911.140   126146659.516          50.000                                                  
G24  22949458.360   120600150.496          50.000    22949461.760    90058548.094          50.000  
G25  21492905.680   112945927.879          50.000    21492907.760    84342739.313          50.000  
G29  23520797.880   123602597.766          50.000                                                  
E 1  25500157.820   134004222.320          50.000    25500161.560   100068078.504          50.000  
E13  23493729.380   123460371.508          50.000    23493732.940    92194424.664          50.000  
E15  26919854.220   141464744.258          50.000    26919860.200   105639241.316          50.000  
E21  23451967.880   123240907.332          50.000    23451972.060    92030538.637          50.000  
E27  25705909.400   135085425.973          50.000    25705914.620   100875464.301          50.000  
> 2020  5 14 22  6 14.0000000  0 13       0.000000000000
G 2  20992459.600   110316156.523          50.000                                                  
G 5  23148244.880   121644824.641          50.000                                                  
G 6  22231350.360   116826487.289          50.000    22231352.880    87240559.762          50.000  
G12  20167675.680   105981856.336          50.000                                                  
G19  24005442.160   126149449.980          50.000                                                  
G24  22950012.580   120603062.996          50.000    22950016.000    90060723.012          50.000  
G25  21492448.400   112943524.793          50.000    21492450.480    84340944.801          50.000  
G29  23520351.140   123600250.117          50.000                                                  
E 1  25499748.560   134002071.645          50.000    25499752.300   100066472.480          50.000  
E13  23493940.500   123461480.934          50.000    23493944.060    92195253.129          50.000  
E15  26920344.740   141467321.906          50.000    26920350.720   105641166.184          50.000  
E21  23452034.700   123241258.395          50.000    23452038.860    92030800.793          50.000  
E27  25706401.940   135088014.277          50.000    25706407.160   100877397.125          50.000  
> 2020  5 14 22  6 15.0000000  0 13       0.000000000000
G 2  20992670.660   110317265.617          50.000                                                  
G 5  23147657.060   121641735.625          50.000                                                  
G 6  22231871.020   116829223.426          50.000    22231873.540    87242602.980          50.000  
G12  20167538.440   105981135.160          50.000                                                  
G19  24005973.180   126152240.469          50.000                                                  
G24  22950566.860   120605975.711          50.000    22950570.280    90062898.090          50.000  
G25  21491991.180   112941122.047          50.000    21491993.260    84339150.543          50.000  
G29  23519904.420   123597902.594          50.000                                                  
E 1  25499339.340   133999921.199          50.000    25499343.080   100064866.629          50.000  
E13  23494151.660   123462590.605          50.000    23494155.220    92196081.781          50.000  
E15  26920835.260   141469899.555          50.000    26920841.240   105643091.047          50.000  
E21  23452101.580   123241609.891          50.000    23452105.760    92031063.273          50.000  
E27  25706894.520   135090602.801          50.000    25706899.760   100879330.113          50.000  
> 2020  5 14 22  6 16.0000000  0 13       0.000000000000
G 2  20992881.800   110318375.129          50.000                                                  
G 5  23147069.280   121638646.801          50.000                                                  
G 6  22232391.760   116831959.879          50.000    22232394.280    87244646.434          50.000  
G12  20167401.300   105980414.477          50.000                                                  
G19  24006504.200   126155030.988          50.000                                                  
G24  22951121.180   120608888.668          50.000    22951124.600    90065073.348          50.000  
G25  21491534.000   112938719.637          50.000    21491536.080    84337356.535          50.000  
G29  23519457.740   123595555.180          50.000                                                  
E 1  25498930.160   133997770.984          50.000    25498933.900   100063260.949          50.000  
E13  23494362.880   123463700.531          50.000    23494366.440    92196910.625          50.000  
E15  26921325.760   141472477.199          50.000    26921331.740   105645015.910          50.000  
E21  23452168.560   123241961.805          50.000    23452172.720    92031326.066          50.000  
E27  25707387.140   135093191.555          50.000    25707392.380   100881263.273          50.000  
> 2020  5 14 22  6 17.0000000  0 13       0.000000000000
G 2  20993093.020   110319485.066          50.000                                                  
G 5  23146481.540   121635558.168          50.000                                                  
G 6  22232912.560   116834696.641          50.000    22232915.060    87246690.121          50.000  
G12  20167264.240   105979694.281          50.000                                                  
G19  24007035.220   126157821.527          50.000                                                  
G24  22951675.540   120611801.855          50.000    22951678.960    90067248.781          50.000  
G25  21491076.900   112936317.547          50.000    21491078.980    84335562.770          50.000  
G29  23519011.060   123593207.895          50.000                                                  
E 1  25498521.040   133995620.996          50.000    25498524.780   100061655.441          50.000  
E13  23494574.140   123464810.707          50.000    23494577.700    92197739.652          50.000  
E15  26921816.280   141475054.824          50.000    26921822.260   105646940.758          50.000  
E21  23452235.600   123242314.141          50.000    23452239.780    92031589.176          50.000  
E27  25707879.820   135095780.547          50.000    25707885.060   100883196.609          50.000  
> 2020  5 14 22  6 18.0000000  0 13       0.000000000000
G 2  20993304.300   110320595.426          50.000                                                  
G 5  23145893.820   121632469.723          50.000                                                  
G 6  22233433.400   116837433.719          50.000    22233435.920    87248734.043          50.000  
G12  20167127.300   105978974.578          50.000                                                  
G19  24007566.240   126160612.082          50.000                                                  
G24  22952229.960   120614715.258          50.000    22952233.360    90069424.371          50.000  
G25  21490619.860   112933915.785          50.000    21490621.940    84333769.246          50.000  
G29  23518564.400   123590860.723          50.000                                                  
E 1  25498111.960   133993471.230          50.000    25498115.700   100060050.098          50.000  
E13  23494785.460   123465921.145          50.000    23494789.020    92198568.871          50.000  
E15  26922306.780   141477632.449          50.000    26922312.760   105648865.609          50.000  
E21  23452302.720   123242666.883          50.000    23452306.900    92031852.586          50.000  
E27  25708372.520   135098369.754          50.000    25708377.760   100885130.105          50.000  
> 2020  5 14 22  6 19.0000000  0 13       0.000000000000
G 2  20993515.680   110321706.223          50.000                                                  
G 5  23145306.140   121629381.469          50.000                                                  
G 6  22233954.320   116840171.105          50.000    22233956.840    87250778.191          50.000  
G12  20166990.440   105978255.363          50.000                                                  
G19  24008097.280   126163402.664          50.000                                                  
G24  22952784.400   120617628.902          50.000    22952787.820    90071600.145          50.000  
G25  21490162.900   112931514.355          50.000    21490164.980    84331975.973          50.000  
G29  23518117.780   123588513.676          50.000                                                  
E 1  25497702.920   133991321.703          50.000    25497706.660   100058444.930          50.000  
E13  23494996.820   123467031.820          50.000    23495000.360    92199398.273          50.000  
E15  26922797.280   141480210.070          50.000    26922803.260   105650790.457          50.000  
E21  23452369.940   123243020.059          50.000    23452374.100    92032116.320          50.000  
E27  25708865.280   135100959.203          50.000    25708870.520   100887063.785          50.000  
> 2020  5 14 22  6 20.0000000  0 13       0.000000000000
G 2  20993727.140   110322817.438          50.000                                                  
G 5  23144718.500   121626293.410          50.000                                                  
G 6  22234475.280   116842908.805          50.000    22234477.800    87252822.578          50.000  
G12  20166853.680   105977536.648          50.000                                                  
G19  24008628.320   126166193.270          50.000                                                  
G24  22953338.900   120620542.797          50.000    22953342.320    90073776.102          50.000  
G25  21489705.980   112929113.258          50.000    21489708.060    84330182.941          50.000  
G29  23517671.180   123586166.750          50.000                                                  
E 1  25497293.920   133989172.398          50.000    25497297.660   100056839.930          50.000  
E13  23495208.220   123468142.750          50.000    23495211.780    92200227.863          50.000  
E15  26923287.800   141482787.676          50.000    26923293.780   105652715.289          50.000  
E21  23452437.220   123243373.648          50.000    23452441.400    92032380.363          50.000  
E27  25709358.080   135103548.883          50.000    25709363.320   100888997.637          50.000  
> 2020  5 14 22  6 21.0000000  0 13       0.000000000000
G 2  20993938.680   110323929.094          50.000                                                  
G 5  23144130.920   121623205.566          50.000                                                  
G 6  22234996.320   116845646.828          50.000    22234998.820    87254867.199          50.000  
G12  20166717.000   105976818.418          50.000                                                  
G19  24009159.360   126168983.895          50.000                                                  
G24  22953893.440   120623456.895          50.000    22953896.840    90075952.211          50.000  
G25  21489249.120   112926712.496          50.000    21489251.220    84328390.164          50.000  
G29  23517224.600   123583819.945          50.000                                                  
E 1  25496884.960   133987023.336          50.000    25496888.700   100055235.109          50.000  
E13  23495419.680   123469253.941          50.000    23495423.220    92201057.648          50.000  
E15  26923778.300   141485365.285          50.000    26923784.280   105654640.125          50.000  
E21  23452504.600   123243727.664          50.000    23452508.760    92032644.727          50.000  
E27  25709850.940   135106138.789          50.000    25709856.180   100890931.656          50.000  
> 2020  5 14 22  6 22.0000000  0 13       0.000000000000
G 2  20994150.300   110325041.160          50.000                                                  
G 5  23143543.340   121620117.895          50.000                                                  
G 6  22235517.400   116848385.148          50.000    22235519.920    87256912.043          50.000  
G12  20166580.420   105976100.676          50.000                                                  
G19  24009690.400   126171774.547          50.000                                                  
G24  22954448.000   120626371.203          50.000    22954451.420    90078128.473          50.000  
G25  21488792.340   112924312.059          50.000    21488794.420    84326597.625          50.000  
G29  23516778.040   123581473.266          50.000                                                  
E 1  25496476.060   133984874.488          50.000    25496479.800   100053630.453          50.000  
E13  23495631.180   123470365.363          50.000    23495634.720    92201887.605          50.000  
E15  26924268.800   141487942.883          50.000    26924274.780   105656564.953          50.000  
E21  23452572.040   123244082.098          50.000    23452576.220    92032909.398          50.000  
E27  25710343.820   135108728.918          50.000    25710349.060   100892865.844          50.000  
> 2020  5 14 22  6 23.0000000  0 13       0.000000000000
G 2  20994362.000   110326153.648          50.000                                                  
G 5  23142955.820   121617030.426          50.000                                                  
G 6  22236038.540   116851123.785          50.000    22236041.060    87258957.129          50.000  
G12  20166443.920   105975383.438          50.000                                                  
G19  24010221.440   126174565.223          50.000                                                  
G24  22955002.620   120629285.738          50.000    22955006.040    90080304.906          50.000  
G25  21488335.620   112921911.953          50.000    21488337.700    84324805.336          50.000  
G29  23516331.500   123579126.695          50.000                                                  
E 1  25496067.200   133982725.879          50.000    25496070.920   100052025.973          50.000  
E13  23495842.720   123471477.047          50.000    23495846.280    92202717.758          50.000  
E15  26924759.300   141490520.469          50.000    26924765.280   105658489.773          50.000  
E21  23452639.560   123244436.945          50.000    23452643.740    92033174.387          50.000  
E27  25710836.760   135111319.281          50.000    25710842.000   100894800.203          50.000  
> 2020  5 14 22  6 24.0000000  0 13       0.000000000000
G 2  20994573.780   110327266.563          50.000                                                  
G 5  23142368.320   121613943.141          50.000                                                  
G 6  22236559.740   116853862.730          50.000    22236562.260    87261002.438          50.000  
G12  20166307.540   105974666.688          50.000                                                  
G19  24010752.500   126177355.926          50.000                                                  
G24  22955557.280   120632200.457          50.000    22955560.700    90082481.477          50.000  
G25  21487878.960   112919512.188          50.000    21487881.040    84323013.301          50.000  
G29  23515884.980   123576780.266          50.000                                                  
E 1  25495658.360   133980577.492          50.000    25495662.100   100050421.660          50.000  
E13  23496054.320   123472588.977          50.000    23496057.880    92203548.098          50.000  
E15  26925249.800   141493098.055          50.000    26925255.780   105660414.590          50.000  
E21  23452707.180   123244792.227          50.000    23452711.340    92033439.691          50.000  
E27  25711329.740   135113909.883          50.000    25711334.980   100896734.742          50.000  
> 2020  5 14 22  6 25.0000000  0 13       0.000000000000
G 2  20994785.660   110328379.918          50.000                                                  
G 5  23141780.880   121610856.066          50.000                                                  
G 6  22237081.000   116856601.984          50.000    22237083.540    87263047.980          50.000  
G12  20166171.240   105973950.434          50.000                                                  
G19  24011283.560   126180146.629          50.000                                                  
G24  22956111.980   120635115.461          50.000    22956115.400    90084658.262          50.000  
G25  21487422.360   112917112.738          50.000    21487424.440    84321221.500          50.000  
G29  23515438.500   123574433.938          50.000                                                  
E 1  25495249.600   133978429.348          50.000    25495253.320   100048817.527          50.000  
E13  23496265.960   123473701.164          50.000    23496269.520    92204378.625          50.000  
E15  26925740.300   141495675.629          50.000    26925746.280   105662339.402          50.000  
E21  23452774.860   123245147.922          50.000    23452779.040    92033705.309          50.000  
E27  25711822.760   135116500.707          50.000    25711828.000   100898669.445          50.000  
> 2020  5 14 22  6 26.0000000  0 13       0.000000000000
G 2  20994997.600   110329493.688          50.000                                                  
G 5  23141193.460   121607769.180          50.000                                                  
G 6  22237602.340   116859341.559          50.000    22237604.860    87265093.762          50.000  
G12  20166035.040   105973234.672          50.000                                                  
G19  24011814.620   126182937.359          50.000                                                  
G24  22956666.740   120638030.680          50.000    22956670.160    90086835.207          50.000  
G25  21486965.820   112914713.617          50.000    21486967.900    84319429.945          50.000  
G29  23514992.020   123572087.727          50.000                                                  
E 1  25494840.860   133976281.426          50.000    25494844.600   100047213.559          50.000  
E13  23496477.640   123474813.590          50.000    23496481.200    92205209.336          50.000  
E15  26926230.800   141498253.203          50.000    26926236.780   105664264.211          50.000  
E21  23452842.640   123245504.031          50.000    23452846.800    92033971.234          50.000  
E27  25712315.820   135119091.758          50.000    25712321.060   100900604.324          50.000  
> 2020  5 14 22  6 27.0000000  0 13       0.000000000000
G 2  20995209.620   110330607.891          50.000                                                  
G 5  23140606.080   121604682.516          50.000                                                  
G 6  22238123.720   116862081.441          50.000    22238126.240    87267139.773          50.000  
G12  20165898.920   105972519.402          50.000                                                  
G19  24012345.680   126185728.102          50.000                                                  
G24  22957221.540   120640946.137          50.000    22957224.960    90089012.324          50.000  
G25  21486509.340   112912314.832          50.000    21486511.420    84317638.641          50.000  
G29  23514545.580   123569741.637          50.000                                                  
E 1  25494432.160   133974133.730          50.000    25494435.900   100045609.762          50.000  
E13  23496689.380   123475926.281          50.000    23496692.940    92206040.238          50.000  
E15  26926721.300   141500830.770          50.000    26926727.280   105666189.016          50.000  
E21  23452910.480   123245860.566          50.000    23452914.660    92034237.480          50.000  
E27  25712808.920   135121683.055          50.000    25712814.160   100902539.379          50.000  
> 2020  5 14 22  6 28.0000000  0 13       0.000000000000
G 2  20995421.720   110331722.508          50.000                                                  
G 5  23140018.740   121601596.047          50.000                                                  
G 6  22238645.160   116864821.633          50.000    22238647.680    87269186.016          50.000  
G12  20165762.900   105971804.625          50.000                                                  
G19  24012876.740   126188518.863          50.000                                                  
G24  22957776.360   120643861.813          50.000    22957779.800    90091189.613          50.000  
G25  21486052.940   112909916.379          50.000    21486055.020    84315847.586          50.000  
G29  23514099.160   123567395.668          50.000                                                  
E 1  25494023.520   133971986.262          50.000    25494027.260   100044006.133          50.000  
E13  23496901.180   123477039.215          50.000    23496904.740    92206871.324          50.000  
E15  26927211.800   141503408.316          50.000    26927217.780   105668113.809          50.000  
E21  23452978.420   123246217.527          50.000    23452982.580    92034504.039          50.000  
E27  25713302.080   135124274.555          50.000    25713307.320   100904474.590          50.000  
> 2020  5 14 22  6 29.0000000  0 13       0.000000000000
G 2  20995633.920   110332837.559          50.000                                                  
G 5  23139431.440   121598509.766          50.000                                                  
G 6  22239166.660   116867562.129          50.000    22239169.180    87271232.484          50.000  
G12  20165626.980   105971090.340          50.000                                                  
G19  24013407.820   126191309.660          50.000                                                  
G24  22958331.240   120646777.707          50.000    22958334.660    90093367.059          50.000  
G25  21485596.580   112907518.246          50.000    21485598.660    84314056.770          50.000  
G29  23513652.740   123565049.820          50.000                                                  
E 1  25493614.920   133969839.031          50.000    25493618.660   100042402.684          50.000  
E13  23497113.000   123478152.387          50.000    23497116.560    92207702.590          50.000  
E15  26927702.280   141505985.867          50.000    26927708.280   105670038.602          50.000  
E21  23453046.420   123246574.895          50.000    23453050.600    92034770.902          50.000  
E27  25713795.280   135126866.301          50.000    25713800.520   100906409.984          50.000  
> 2020  5 14 22  6 30.0000000  0 13       0.000000000000
G 2  20995846.180   110333953.039          50.000                                                  
G 5  23138844.180   121595423.691          50.000                                                  
G 6  22239688.220   116870302.938          50.000    22239690.740    87273279.191          50.000  
G12  20165491.140   105970376.543          50.000                                                  
G19  24013938.880   126194100.477          50.000                                                  
G24  22958886.160   120649693.848          50.000    22958889.600    90095544.691          50.000  
G25  21485140.300   112905120.457          50.000    21485142.380    84312266.207          50.000  
G29  23513206.380   123562704.086          50.000                                                  
E 1  25493206.360   133967692.031          50.000    25493210.100   100040799.402          50.000  
E13  23497324.900   123479265.828          50.000    23497328.440    92208534.059          50.000  
E15  26928192.780   141508563.402          50.000    26928198.760   105671963.383          50.000  
E21  23453114.500   123246932.691          50.000    23453118.680    92035038.090          50.000  
E27  25714288.520   135129458.277          50.000    25714293.760   100908345.551          50.000  
> 2020  5 14 22  6 31.0000000  0 13       0.000000000000
G 2  20996058.520   110335068.938          50.000                                                  
G 5  23138256.960   121592337.805          50.000                                                  
G 6  22240209.840   116873044.063          50.000    22240212.360    87275326.129          50.000  
G12  20165355.420   105969663.242          50.000                                                  
G19  24014469.960   126196891.313          50.000                                                  
G24  22959441.140   120652610.207          50.000    22959444.560    90097722.488          50.000  
G25  21484684.080   112902722.992          50.000    21484686.160    84310475.891          50.000  
G29  23512760.020   123560358.477          50.000                                                  
E 1  25492797.840   133965545.262          50.000    25492801.580   100039196.297          50.000  
E13  23497536.820   123480379.523          50.000    23497540.380    92209365.711          50.000  
E15  26928683.280   141511140.938          50.000    26928689.260   105673888.168          50.000  
E21  23453182.680   123247290.910          50.000    23453186.840    92035305.590          50.000  
E27  25714781.800   135132050.480          50.000    25714787.040   100910281.281          50.000  
> 2020  5 14 22  6 32.0000000  0 13       0.000000000000
G 2  20996270.960   110336185.258          50.000                                                  
G 5  23137669.780   121589252.113          50.000                                                  
G 6  22240731.520   116875785.496          50.000    22240734.040    87277373.297          50.000  
G12  20165219.760   105968950.430          50.000                                                  
G19  24015001.060   126199682.168          50.000                                                  
G24  22959996.140   120655526.785          50.000    22959999.560    90099900.445          50.000  
G25  21484227.920   112900325.863          50.000    21484230.000    84308685.824          50.000  
G29  23512313.680   123558012.984          50.000                                                  
E 1  25492389.360   133963398.715          50.000    25492393.100   100037593.355          50.000  
E13  23497748.800   123481493.453          50.000    23497752.360    92210197.543          50.000  
E15  26929173.760   141513718.457          50.000    26929179.740   105675812.934          50.000  
E21  23453250.920   123247649.543          50.000    23453255.100    92035573.398          50.000  
E27  25715275.120   135134642.910          50.000    25715280.360   100912217.188          50.000  
> 2020  5 14 22  6 33.0000000  0 13       0.000000000000
G 2  20996483.480   110337302.020          50.000                                                  
G 5  23137082.620   121586166.617          50.000                                                  
G 6  22241253.240   116878527.238          50.000    22241255.780    87279420.699          50.000  
G12  20165084.220   105968238.117          50.000                                                  
G19  24015532.140   126202473.035          50.000                                                  
G24  22960551.180   120658443.559          50.000    22960554.620    90102078.551          50.000  
G25  21483771.820   112897929.047          50.000    21483773.900    84306895.992          50.000  
G29  23511867.380   123555667.613          50.000                                                  
E 1  25491980.940   133961252.410          50.000    25491984.680   100035990.598          50.000  
E13  23497960.820   123482607.645          50.000    23497964.380    92211029.566          50.000  
E15  26929664.240   141516295.973          50.000    26929670.240   105677737.703          50.000  
E21  23453319.260   123248008.598          50.000    23453323.420    92035841.527          50.000  
E27  25715768.480   135137235.570          50.000    25715773.720   100914153.266          50.000  
> 2020  5 14 22  6 34.0000000  0 13       0.000000000000
G 2  20996696.060   110338419.207          50.000                                                  
G 5  23136495.500   121583081.320          50.000                                                  
G 6  22241775.040   116881269.293          50.000    22241777.580    87281468.332          50.000  
G12  20164948.760   105967526.293          50.000                                                  
G19  24016063.220   126205263.941          50.000                                                  
G24  22961106.280   120661360.566          50.000    22961109.700    90104256.832          50.000  
G25  21483315.780   112895532.582          50.000    21483317.880    84305106.418          50.000  
G29  23511421.080   123553322.359          50.000                                                  
E 1  25491572.560   133959106.332          50.000    25491576.300   100034388.008          50.000  
E13  23498172.900   123483722.074          50.000    23498176.440    92211861.773          50.000  
E15  26930154.740   141518873.480          50.000    26930160.720   105679662.465          50.000  
E21  23453387.660   123248368.078          50.000    23453391.840    92036109.969          50.000  
E27  25716261.900   135139828.469          50.000    25716267.140   100916089.516          50.000  
> 2020  5 14 22  6 35.0000000  0 13       0.000000000000
G 2  20996908.740   110339536.816          50.000                                                  
G 5  23135908.440   121579996.223          50.000                                                  
G 6  22242296.900   116884011.656          50.000    22242299.440    87283516.195          50.000  
G12  20164813.400   105966814.961          50.000                                                  
G19  24016594.320   126208054.859          50.000                                                  
G24  22961661.400   120664277.805          50.000    22961664.840    90106435.281          50.000  
G25  21482859.820   112893136.434          50.000    21482861.900    84303317.086          50.000  
G29  23510974.820   123550977.227          50.000                                                  
E 1  25491164.220   133956960.480          50.000    25491167.960   100032785.586          50.000  
E13  23498385.020   123484836.762          50.000    23498388.560    92212694.168          50.000  
E15  26930645.220   141521450.984          50.000    26930651.200   105681587.223          50.000  
E21  23453456.160   123248727.973          50.000    23453460.320    92036378.723          50.000  
E27  25716755.360   135142421.586          50.000    25716760.600   100918025.938          50.000  
> 2020  5 14 22  6 36.0000000  0 13       0.000000000000
G 2  20997121.500   110340654.844          50.000                                                  
G 5  23135321.400   121576911.320          50.000                                                  
G 6  22242818.820   116886754.324          50.000    22242821.340    87285564.289          50.000  
G12  20164678.140   105966104.121          50.000                                                  
G19  24017125.420   126210845.793          50.000                                                  
G24  22962216.580   120667195.273          50.000    22962220.020    90108613.906          50.000  
G25  21482403.900   112890740.625          50.000    21482406.000    84301528.004          50.000  
G29  23510528.580   123548632.211          50.000                                                  
E 1  25490755.920   133954814.859          50.000    25490759.660   100031183.340          50.000  
E13  23498597.180   123485951.680          50.000    23498600.740    92213526.738          50.000  
E15  26931135.700   141524028.469          50.000    26931141.680   105683511.969          50.000  
E21  23453524.720   123249088.285          50.000    23453528.880    92036647.785          50.000  
E27  25717248.860   135145014.934          50.000    25717254.100   100919962.523          50.000  
> 2020  5 14 22  6 37.0000000  0 13       0.000000000000
G 2  20997334.340   110341773.316          50.000                                                  
G 5  23134734.400   121573826.625          50.000                                                  
G 6  22243340.780   116889497.313          50.000    22243343.320    87287612.617          50.000  
G12  20164542.960   105965393.773          50.000                                                  
G19  24017656.520   126213636.750          50.000                                                  
G24  22962771.800   120670112.980          50.000    22962775.240    90110792.711          50.000  
G25  21481948.060   112888345.148          50.000    21481950.160    84299739.168          50.000  
G29  23510082.360   123546287.316          50.000                                                  
E 1  25490347.680   133952669.480          50.000    25490351.400   100029581.270          50.000  
E13  23498809.400   123487066.883          50.000    23498812.960    92214359.520          50.000  
E15  26931626.180   141526605.957          50.000    26931632.160   105685436.715          50.000  
E21  23453593.360   123249449.027          50.000    23453597.540    92036917.172          50.000  
E27  25717742.400   135147608.512          50.000    25717747.640   100921899.289          50.000  
> 2020  5 14 22  6 38.0000000  0 13       0.000000000000
G 2  20997547.240   110342892.195          50.000                                                  
G 5  23134147.440   121570742.109          50.000                                                  
G 6  22243862.820   116892240.598          50.000    22243865.360    87289661.172          50.000  
G12  20164407.880   105964683.922          50.000                                                  
G19  24018187.620   126216427.719          50.000                                                  
G24  22963327.060   120673030.906          50.000    22963330.500    90112971.676          50.000  
G25  21481492.280   112885950.004          50.000    21481494.380    84297950.586          50.000  
G29  23509636.160   123543942.543          50.000                                                  
E 1  25489939.460   133950524.313          50.000    25489943.200   100027979.359          50.000  
E13  23499021.660   123488182.309          50.000    23499025.220    92215192.465          50.000  
E15  26932116.660   141529183.434          50.000    26932122.640   105687361.449          50.000  
E21  23453662.100   123249810.180          50.000    23453666.260    92037186.863          50.000  
E27  25718236.000   135150202.313          50.000    25718241.240   100923836.215          50.000  
> 2020  5 14 22  6 39.0000000  0 13       0.000000000000
G 2  20997760.240   110344011.500          50.000                                                  
G 5  23133560.500   121567657.801          50.000                                                  
G 6  22244384.900   116894984.195          50.000    22244387.440    87291709.957          50.000  
G12  20164272.880   105963974.559          50.000                                                  
G19  24018718.740   126219218.715          50.000                                                  
G24  22963882.380   120675949.063          50.000    22963885.820    90115150.813          50.000  
G25  21481036.560   112883555.184          50.000    21481038.660    84296162.238          50.000  
G29  23509189.980   123541597.895          50.000                                                  
E 1  25489531.300   133948379.387          50.000    25489535.040   100026377.629          50.000  
E13  23499233.960   123489297.984          50.000    23499237.520    92216025.602          50.000  
E15  26932607.140   141531760.898          50.000    26932613.120   105689286.180          50.000  
E21  23453730.900   123250171.750          50.000    23453735.080    92037456.867          50.000  
E27  25718729.620   135152796.348          50.000    25718734.860   100925773.316          50.000  
> 2020  5 14 22  6 40.0000000  0 13       0.000000000000
G 2  20997973.320   110345131.242          50.000                                                  
G 5  23132973.620   121564573.691          50.000                                                  
G 6  22244907.060   116897728.113          50.000    22244909.600    87293758.980          50.000  
G12  20164138.000   105963265.676          50.000                                                  
G19  24019249.860   126222009.723          50.000                                                  
G24  22964437.720   120678867.434          50.000    22964441.160    90117330.109          50.000  
G25  21480580.900   112881160.695          50.000    21480583.000    84294374.145          50.000  
G29  23508743.840   123539253.359          50.000                                                  
E 1  25489123.180   133946234.688          50.000    25489126.920   100024776.070          50.000  
E13  23499446.320   123490413.918          50.000    23499449.880    92216858.930          50.000  
E15  26933097.620   141534338.367          50.000    26933103.600   105691210.910          50.000  
E21  23453799.780   123250533.754          50.000    23453803.960    92037727.191          50.000  
E27  25719223.300   135155390.613          50.000    25719228.540   100927710.590          50.000  
> 2020  5 14 22  6 41.0000000  0 13       0.000000000000
G 2  20998186.480   110346251.398          50.000                                                  
G 5  23132386.760   121561489.773          50.000                                                  
G 6  22245429.260   116900472.324          50.000    22245431.800    87295808.227          50.000  
G12  20164003.200   105962557.305          50.000                                                  
G19  24019780.960   126224800.762          50.000                                                  
G24  22964993.100   120681785.992          50.000    22964996.560    90119509.551          50.000  
G25  21480125.320   112878766.547          50.000    21480127.400    84292586.305          50.000  
G29  23508297.700   123536908.941          50.000                                                  
E 1  25488715.100   133944090.227          50.000    25488718.840   100023174.688          50.000  
E13  23499658.720   123491530.102          50.000    23499662.280    92217692.441          50.000  
E15  26933588.100   141536915.828          50.000    26933594.080   105693135.637          50.000  
E21  23453868.760   123250896.176          50.000    23453872.920    92037997.832          50.000  
E27  25719717.020   135157985.113          50.000    25719722.260   100929648.043          50.000  
> 2020  5 14 22  6 42.0000000  0 13       0.000000000000
G 2  20998399.720   110347371.984          50.000                                                  
G 5  23131799.960   121558406.059          50.000                                                  
G 6  22245951.540   116903216.863          50.000    22245954.080    87297857.715          50.000  
G12  20163868.500   105961849.426          50.000                                                  
G19  24020312.080   126227591.813          50.000                                                  
G24  22965548.540   120684704.785          50.000    22965551.980    90121689.160          50.000  
G25  21479669.780   112876372.727          50.000    21479671.880    84290798.707          50.000  
G29  23507851.600   123534564.652          50.000                                                  
E 1  25488307.060   133941945.992          50.000    25488310.800   100021573.473          50.000  
E13  23499871.180   123492646.547          50.000    23499874.740    92218526.152          50.000  
E15  26934078.580   141539493.277          50.000    26934084.560   105695060.355          50.000  
E21  23453937.800   123251259.012          50.000    23453941.980    92038268.781          50.000  
E27  25720210.780   135160579.836          50.000    25720216.020   100931585.660          50.000  
> 2020  5 14 22  6 43.0000000  0 13       0.000000000000
G 2  20998613.040   110348492.996          50.000                                                  
G 5  23131213.180   121555322.539          50.000                                                  
G 6  22246473.860   116905961.699          50.000    22246476.400    87299907.426          50.000  
G12  20163733.880   105961142.039          50.000                                                  
G19  24020843.220   126230382.891          50.000                                                  
G24  22966104.000   120687623.801          50.000    22966107.460    90123868.941          50.000  
G25  21479214.320   112873979.242          50.000    21479216.420    84289011.363          50.000  
G29  23507405.520   123532220.473          50.000                                                  
E 1  25487899.080   133939802.000          50.000    25487902.820   100019972.441          50.000  
E13  23500083.680   123493763.227          50.000    23500087.240    92219360.035          50.000  
E15  26934569.040   141542070.719          50.000    26934575.040   105696985.066          50.000  
E21  23454006.940   123251622.277          50.000    23454011.100    92038540.051          50.000  
E27  25720704.580   135163174.797          50.000    25720709.840   100933523.453          50.000  
> 2020  5 14 22  6 44.0000000  0 13       0.000000000000
G 2  20998826.440   110349614.418          50.000                                                  
G 5  23130626.420   121552239.305          50.000                                                  
G 6  22246996.240   116908706.859          50.000    22246998.760    87301957.453          50.000  
G12  20163599.360   105960435.148          50.000                                                  
G19  24021374.340   126233173.926          50.000                                                  
G24  22966659.520   120690542.941          50.000    22966662.980    90126048.824          50.000  
G25  21478758.920   112871586.035          50.000    21478761.020    84287224.254          50.000  
G29  23506959.420   123529876.559          50.000                                                  
E 1  25487491.140   133937658.215          50.000    25487494.860   100018371.559          50.000  
E13  23500296.220   123494880.172          50.000    23500299.780    92220194.125          50.000  
E15  26935059.500   141544648.160          50.000    26935065.500   105698909.785          50.000  
E21  23454076.140   123251985.949          50.000    23454080.320    92038811.617          50.000  
E27  25721198.440   135165769.918          50.000    25721203.700   100935461.336          50.000  
> 2020  5 14 22  6 45.0000000  0 13       0.000000000000
G 2  20999039.920   110350736.281          50.000                                                  
G 5  23130039.720   121549156.184          50.000                                                  
G 6  22247518.680   116911452.332          50.000    22247521.200    87304007.633          50.000  
G12  20163464.920   105959728.746          50.000                                                  
G19  24021905.480   126235965.051          50.000                                                  
G24  22967215.080   120693462.410          50.000    22967218.540    90128228.938          50.000  
G25  21478303.580   112869193.207          50.000    21478305.680    84285437.398          50.000  
G29  23506513.380   123527532.621          50.000                                                  
E 1  25487083.220   133935514.680          50.000    25487086.960   100016770.863          50.000  
E13  23500508.820   123495997.359          50.000    23500512.360    92221028.387          50.000  
E15  26935549.980   141547225.590          50.000    26935555.960   105700834.488          50.000  
E21  23454145.420   123252350.051          50.000    23454149.600    92039083.508          50.000  
E27  25721692.340   135168365.340          50.000    25721697.580   100937399.469          50.000  
> 2020  5 14 22  6 46.0000000  0 13       0.000000000000
G 2  20999253.480   110351858.566          50.000                                                  
G 5  23129453.060   121546073.258          50.000                                                  
G 6  22248041.180   116914198.090          50.000    22248043.700    87306058.031          50.000  
G12  20163330.600   105959022.832          50.000                                                  
G19  24022436.620   126238756.191          50.000                                                  
G24  22967770.680   120696382.113          50.000    22967774.140    90130409.230          50.000  
G25  21477848.300   112866800.707          50.000    21477850.400    84283650.785          50.000  
G29  23506067.380   123525188.801          50.000                                                  
E 1  25486675.380   133933371.371          50.000    25486679.100   100015170.336          50.000  
E13  23500721.460   123497114.797          50.000    23500725.020    92221862.832          50.000  
E15  26936040.440   141549803.012          50.000    26936046.440   105702759.180          50.000  
E21  23454214.800   123252714.582          50.000    23454218.960    92039355.719          50.000  
E27  25722186.260   135170960.980          50.000    25722191.520   100939337.766          50.000  
> 2020  5 14 22  6 47.0000000  0 13       0.000000000000
G 2  20999467.140   110352981.285          50.000                                                  
G 5  23128866.420   121542990.520          50.000                                                  
G 6  22248563.740   116916944.172          50.000    22248566.280    87308108.672          50.000  
G12  20163196.360   105958317.406          50.000                                                  
G19  24022967.760   126241547.359          50.000                                                  
G24  22968326.340   120699302.055          50.000    22968329.780    90132589.703          50.000  
G25  21477393.080   112864408.547          50.000    21477395.180    84281864.426          50.000  
G29  23505621.380   123522845.109          50.000                                                  
E 1  25486267.560   133931228.309          50.000    25486271.300   100013569.992          50.000  
E13  23500934.140   123498232.500          50.000    23500937.700    92222697.473          50.000  
E15  26936530.920   141552380.426          50.000    26936536.900   105704683.863          50.000  
E21  23454284.240   123253079.531          50.000    23454288.420    92039628.238          50.000  
E27  25722680.260   135173556.867          50.000    25722685.500   100941276.250          50.000  
> 2020  5 14 22  6 48.0000000  0 13       0.000000000000
G 2  20999680.860   110354104.422          50.000                                                  
G 5  23128279.840   121539907.988          50.000                                                  
G 6  22249086.360   116919690.559          50.000    22249088.900    87310159.543          50.000  
G12  20163062.220   105957612.488          50.000                                                  
G19  24023498.900   126244338.543          50.000                                                  
G24  22968882.020   120702222.207          50.000    22968885.480    90134770.328          50.000  
G25  21476937.940   112862016.723          50.000    21476940.040    84280078.320          50.000  
G29  23505175.420   123520501.527          50.000                                                  
E 1  25485859.780   133929085.465          50.000    25485863.520   100011969.816          50.000  
E13  23501146.880   123499350.445          50.000    23501150.440    92223532.301          50.000  
E15  26937021.380   141554957.836          50.000    26937027.360   105706608.551          50.000  
E21  23454353.780   123253444.902          50.000    23454357.940    92039901.078          50.000  
E27  25723174.280   135176152.977          50.000    25723179.540   100943214.895          50.000  
> 2020  5 14 22  6 49.0000000  0 13       0.000000000000
G 2  20999894.660   110355227.984          50.000                                                  
G 5  23127693.280   121536825.641          50.000                                                  
G 6  22249609.040   116922437.250          50.000    22249611.580    87312210.637          50.000  
G12  20162928.160   105956908.066          50.000                                                  
G19  24024030.060   126247129.742          50.000                                                  
G24  22969437.760   120705142.582          50.000    22969441.200    90136951.125          50.000  
G25  21476482.840   112859625.223          50.000    21476484.940    84278292.457          50.000  
G29  23504729.460   123518158.063          50.000                                                  
E 1  25485452.060   133926942.855          50.000    25485455.800   100010369.813          50.000  
E13  23501359.660   123500468.625          50.000    23501363.220    92224367.301          50.000  
E15  26937511.840   141557535.234          50.000    26937517.840   105708533.227          50.000  
E21  23454423.380   123253810.688          50.000    23454427.560    92040174.227          50.000  
E27  25723668.340   135178749.305          50.000    25723673.600   100945153.707          50.000  
> 2020  5 14 22  6 50.0000000  0 13       0.000000000000
G 2  21000108.560   110356351.965          50.000                                                  
G 5  23127106.780   121533743.508          50.000                                                  
G 6  22250131.780   116925184.250          50.000    22250134.320    87314261.965          50.000  
G12  20162794.220   105956204.121          50.000                                                  
G19  24024561.200   126249920.961          50.000                                                  
G24  22969993.520   120708063.188          50.000    22969996.980    90139132.090          50.000  
G25  21476027.820   112857234.063          50.000    21476029.920    84276506.848          50.000  
G29  23504283.540   123515814.723          50.000                                                  
E 1  25485044.380   133924800.469          50.000    25485048.120   100008769.977          50.000  
E13  23501572.500   123501587.055          50.000    23501576.060    92225202.488          50.000  
E15  26938002.300   141560112.621          50.000    26938008.300   105710457.891          50.000  
E21  23454493.060   123254176.895          50.000    23454497.240    92040447.688          50.000  
E27  25724162.460   135181345.867          50.000    25724167.700   100947092.695          50.000  
> 2020  5 14 22  6 51.0000000  0 13       0.000000000000
G 2  21000322.520   110357476.379          50.000                                                  
G 5  23126520.300   121530661.563          50.000                                                  
G 6  22250654.580   116927931.559          50.000    22250657.100    87316313.520          50.000  
G12  20162660.360   105955500.684          50.000                                                  
G19  24025092.360   126252712.195          50.000                                                  
G24  22970549.340   120710983.992          50.000    22970552.780    90141313.203          50.000  
G25  21475572.860   112854843.230          50.000    21475574.960    84274721.480          50.000  
G29  23503837.640   123513471.500          50.000                                                  
E 1  25484636.740   133922658.332          50.000    25484640.480   100007170.324          50.000  
E13  23501785.380   123502705.742          50.000    23501788.940    92226037.867          50.000  
E15  26938492.760   141562690.004          50.000    26938498.760   105712382.555          50.000  
E21  23454562.840   123254543.527          50.000    23454567.020    92040721.469          50.000  
E27  25724656.600   135183942.652          50.000    25724661.860   100949031.848          50.000  
> 2020  5 14 22  6 52.0000000  0 13       0.000000000000
G 2  21000536.560   110358601.215          50.000                                                  
G 5  23125933.860   121527579.824          50.000                                                  
G 6  22251177.420   116930679.176          50.000    22251179.960    87318365.309          50.000  
G12  20162526.580   105954797.738          50.000                                                  
G19  24025623.520   126255503.457          50.000                                                  
G24  22971105.200   120713905.039          50.000    22971108.640    90143494.504          50.000  
G25  21475117.960   112852452.727          50.000    21475120.060    84272936.363          50.000  
G29  23503391.760   123511128.391          50.000                                                  
E 1  25484229.160   133920516.414          50.000    25484232.900   100005570.836          50.000  
E13  23501998.300   123503824.680          50.000    23502001.860    92226873.434          50.000  
E15  26938983.220   141565267.375          50.000    26938989.220   105714307.211          50.000  
E21  23454632.680   123254910.574          50.000    23454636.860    92040995.559          50.000  
E27  25725150.800   135186539.664          50.000    25725156.060   100950971.168          50.000  
> 2020  5 14 22  6 53.0000000  0 13       0.000000000000
G 2  21000750.700   110359726.480          50.000                                                  
G 5  23125347.460   121524498.281          50.000                                                  
G 6  22251700.340   116933427.105          50.000    22251702.880    87320417.328          50.000  
G12  20162392.920   105954095.285          50.000                                                  
G19  24026154.680   126258294.738          50.000                                                  
G24  22971661.100   120716826.328          50.000    22971664.560    90145675.980          50.000  
G25  21474663.140   112850062.563          50.000    21474665.240    84271151.496          50.000  
G29  23502945.900   123508785.410          50.000                                                  
E 1  25483821.600   133918374.734          50.000    25483825.340   100003971.527          50.000  
E13  23502211.280   123504943.859          50.000    23502214.840    92227709.180          50.000  
E15  26939473.680   141567844.738          50.000    26939479.680   105716231.859          50.000  
E21  23454702.600   123255278.055          50.000    23454706.800    92041269.969          50.000  
E27  25725645.040   135189136.914          50.000    25725650.300   100952910.668          50.000  
> 2020  5 14 22  6 54.0000000  0 13       0.000000000000
G 2  21000964.900   110360852.160          50.000                                                  
G 5  23124761.100   121521416.934          50.000                                                  
G 6  22252223.320   116936175.336          50.000    22252225.860    87322469.574          50.000  
G12  20162259.340   105953393.324          50.000                                                  
G19  24026685.840   126261086.035          50.000                                                  
G24  22972217.040   120719747.848          50.000    22972220.500    90147857.625          50.000  
G25  21474208.360   112847672.723          50.000    21474210.460    84269366.875          50.000  
G29  23502500.080   123506442.547          50.000                                                  
E 1  25483414.100   133916233.277          50.000    25483417.840   100002372.383          50.000  
E13  23502424.300   123506063.293          50.000    23502427.860    92228545.117          50.000  
E15  26939964.140   141570422.094          50.000    26939970.120   105718156.504          50.000  
E21  23454772.620   123255645.941          50.000    23454776.800    92041544.688          50.000  
E27  25726139.320   135191734.398          50.000    25726144.580   100954850.344          50.000  
> 2020  5 14 22  6 55.0000000  0 13       0.000000000000
G 2  21001179.200   110361978.262          50.000                                                  
G 5  23124174.780   121518335.789          50.000                                                  
G 6  22252746.340   116938923.879          50.000    22252748.880    87324522.051          50.000  
G12  20162125.840   105952691.852          50.000                                                  
G19  24027217.020   126263877.352          50.000                                                  
G24  22972773.020   120722669.566          50.000    22972776.480    90150039.426          50.000  
G25  21473753.660   112845283.215          50.000    21473755.760    84267582.500          50.000  
G29  23502054.260   123504099.805          50.000                                                  
E 1  25483006.640   133914092.055          50.000    25483010.380   100000773.414          50.000  
E13  23502637.360   123507182.973          50.000    23502640.940    92229381.238          50.000  
E15  26940454.580   141572999.441          50.000    26940460.580   105720081.141          50.000  
E21  23454842.700   123256014.250          50.000    23454846.880    92041819.719          50.000  
E27  25726633.660   135194332.098          50.000    25726638.920   100956790.180          50.000  
> 2020  5 14 22  6 56.0000000  0 13       0.000000000000
G 2  21001393.560   110363104.785          50.000                                                  
G 5  23123588.500   121515254.840          50.000                                                  
G 6  22253269.440   116941672.727          50.000    22253271.980    87326574.762          50.000  
G12  20161992.460   105951990.871          50.000                                                  
G19  24027748.200   126266668.695          50.000                                                  
G24  22973329.060   120725591.492          50.000    22973332.520    90152221.379          50.000  
G25  21473299.000   112842894.043          50.000    21473301.120    84265798.375          50.000  
G29  23501608.480   123501757.191          50.000                                                  
E 1  25482599.220   133911951.070          50.000    25482602.960    99999174.625          50.000  
E13  23502850.480   123508302.898          50.000    23502854.040    92230217.543          50.000  
E15  26940945.040   141575576.777          50.000    26940951.040   105722005.770          50.000  
E21  23454912.860   123256382.984          50.000    23454917.060    92042095.070          50.000  
E27  25727128.020   135196930.035          50.000    25727133.300   100958730.191          50.000  
> 2020  5 14 22  6 57.0000000  0 13       0.000000000000
G 2  21001608.020   110364231.742          50.000                                                  
G 5  23123002.240   121512174.086          50.000                                                  
G 6  22253792.580   116944421.887          50.000    22253795.120    87328627.699          50.000  
G12  20161859.160   105951290.395          50.000                                                  
G19  24028279.380   126269460.051          50.000                                                  
G24  22973885.120   120728513.676          50.000    22973888.580    90154403.523          50.000  
G25  21472844.420   112840505.211          50.000    21472846.540    84264014.500          50.000  
G29  23501162.720   123499414.688          50.000                                                  
E 1  25482191.840   133909810.316          50.000    25482195.600    99997576.008          50.000  
E13  23503063.640   123509423.086          50.000    23503067.220    92231054.043          50.000  
E15  26941435.480   141578154.113          50.000    26941441.500   105723930.398          50.000  
E21  23454983.120   123256752.148          50.000    23454987.300    92042370.738          50.000  
E27  25727622.440   135199528.203          50.000    25727627.700   100960670.375          50.000  
> 2020  5 14 22  6 58.0000000  0 13       0.000000000000
G 2  21001822.560   110365359.117          50.000                                                  
G 5  23122416.040   121509093.535          50.000                                                  
G 6  22254315.780   116947171.355          50.000    22254318.340    87330680.875          50.000  
G12  20161725.960   105950590.406          50.000                                                  
G19  24028810.560   126272251.434          50.000                                                  
G24  22974441.240   120731436.051          50.000    22974444.700    90156585.813          50.000  
G25  21472389.900   112838116.703          50.000    21472392.020    84262230.875          50.000  
G29  23500716.980   123497072.305          50.000                                                  
E 1  25481784.520   133907669.785          50.000    25481788.260    99995977.555          50.000  
E13  23503276.860   123510543.512          50.000    23503280.420    92231890.719          50.000  
E15  26941925.940   141580731.438          50.000    26941931.940   105725855.020          50.000  
E21  23455053.440   123257121.715          50.000    23455057.640    92042646.707          50.000  
E27  25728116.900   135202126.590          50.000    25728122.160   100962610.723          50.000  
> 2020  5 14 22  6 59.0000000  0 13       0.000000000000
G 2  21002037.160   110366486.910          50.000                                                  
G 5  23121829.860   121506013.184          50.000                                                  
G 6  22254839.060   116949921.121          50.000    22254841.600    87332734.270          50.000  
G12  20161592.840   105949890.906          50.000                                                  
G19  24029341.740   126275042.832          50.000                                                  
G24  22974997.380   120734358.641          50.000    22975000.860    90158768.266          50.000  
G25  21471935.460   112835728.531          50.000    21471937.560    84260447.500          50.000  
G29  23500271.260   123494730.047          50.000                                                  
E 1  25481377.240   133905529.488          50.000    25481380.980    99994379.281          50.000  
E13  23503490.120   123511664.188          50.000    23503493.680    92232727.582          50.000  
E15  26942416.380   141583308.754          50.000    26942422.400   105727779.633          50.000  
E21  23455123.860   123257491.703          50.000    23455128.040    92042922.992          50.000  
E27  25728611.400   135204725.211          50.000    25728616.660   100964551.246          50.000  
> 2020  5 14 22  7  0.0000000  0 13       0.000000000000
G 2  21002251.860   110367615.133          50.000                                                  
G 5  23121243.720   121502933.039          50.000                                                  
G 6  22255362.380   116952671.215          50.000    22255364.920    87334787.910          50.000  
G12  20161459.840   105949191.910          50.000                                                  
G19  24029872.940   126277834.258          50.000                                                  
G24  22975553.580   120737281.461          50.000    22975557.040    90160950.891          50.000  
G25  21471481.060   112833340.688          50.000    21471483.160    84258664.371          50.000  
G29  23499825.560   123492387.910          50.000                                                  
E 1  25480970.000   133903389.434          50.000    25480973.740    99992781.184          50.000  
E13  23503703.420   123512785.121          50.000    23503706.980    92233564.637          50.000  
E15  26942906.840   141585886.066          50.000    26942912.840   105729704.246          50.000  
E21  23455194.340   123257862.121          50.000    23455198.540    92043199.602          50.000  
E27  25729105.940   135207324.066          50.000    25729111.220   100966491.945          50.000  
> 2020  5 14 22  7  1.0000000  0 13       0.000000000000
G 2  21002466.640   110368743.785          50.000                                                  
G 5  23120657.640   121499853.086          50.000                                                  
G 6  22255885.760   116955421.598          50.000    22255888.300    87336841.766          50.000  
G12  20161326.920   105948493.406          50.000                                                  
G19  24030404.120   126280625.695          50.000                                                  
G24  22976109.820   120740204.496          50.000    22976113.280    90163133.676          50.000  
G25  21471026.740   112830953.180          50.000    21471028.840    84256881.492          50.000  
G29  23499379.880   123490045.887          50.000                                                  
E 1  25480562.800   133901249.605          50.000    25480566.540    99991183.258          50.000  
E13  23503916.780   123513906.293          50.000    23503920.340    92234401.875          50.000  
E15  26943397.280   141588463.363          50.000    26943403.280   105731628.844          50.000  
E21  23455264.900   123258232.961          50.000    23455269.100    92043476.523          50.000  
E27  25729600.540   135209923.129          50.000    25729605.800   100968432.801          50.000  
> 2020  5 14 22  7  2.0000000  0 13       0.000000000000
G 2  21002681.500   110369872.859          50.000                                                  
G 5  23120071.580   121496773.332          50.000                                                  
G 6  22256409.200   116958172.297          50.000    22256411.740    87338895.859          50.000  
G12  20161194.080   105947795.402          50.000                                                  
G19  24030935.320   126283417.156          50.000                                                  
G24  22976666.100   120743127.746          50.000    22976669.560    90165316.621          50.000  
G25  21470572.460   112828566.012          50.000    21470574.580    84255098.867          50.000  
G29  23498934.240   123487703.984          50.000                                                  
E 1  25480155.640   133899110.008          50.000    25480159.400    99989585.500          50.000  
E13  23504130.180   123515027.727          50.000    23504133.740    92235239.305          50.000  
E15  26943887.720   141591040.652          50.000    26943893.720   105733553.438          50.000  
E21  23455335.560   123258604.219          50.000    23455339.740    92043753.758          50.000  
E27  25730095.160   135212522.445          50.000    25730100.440   100970373.844          50.000  
> 2020  5 14 22  7  3.0000000  0 13       0.000000000000
G 2  21002896.420   110371002.348          50.000                                                  
G 5  23119485.560   121493693.781          50.000                                                  
G 6  22256932.700   116960923.301          50.000    22256935.240    87340950.180          50.000  
G12  20161061.360   105947097.887          50.000                                                  
G19  24031466.520   126286208.629          50.000                                                  
G24  22977222.420   120746051.203          50.000    22977225.880    90167499.723          50.000  
G25  21470118.260   112826179.176          50.000    21470120.380    84253316.492          50.000  
G29  23498488.600   123485362.203          50.000                                                  
E 1  25479748.540   133896970.645          50.000    25479752.280    99987987.922          50.000  
E13  23504343.620   123516149.391          50.000    23504347.200    92236076.906          50.000  
E15  26944378.160   141593617.934          50.000    26944384.160   105735478.027          50.000  
E21  23455406.280   123258975.887          50.000    23455410.480    92044031.297          50.000  
E27  25730589.840   135215121.973          50.000    25730595.120   100972315.043          50.000  
> 2020  5 14 22  7  4.0000000  0 13       0.000000000000
G 2  21003111.440   110372132.273          50.000                                                  
G 5  23118899.580   121490614.434          50.000                                                  
G 6  22257456.260   116963674.617          50.000    22257458.800    87343004.734          50.000  
G12  20160928.720   105946400.867          50.000                                                  
G19  24031997.740   126289000.125          50.000                                                  
G24  22977778.780   120748974.883          50.000    22977782.240    90169682.988          50.000  
G25  21469664.140   112823792.668          50.000    21469666.240    84251534.359          50.000  
G29  23498043.000   123483020.527          50.000                                                  
E 1  25479341.480   133894831.512          50.000    25479345.220    99986390.512          50.000  
E13  23504557.120   123517271.313          50.000    23504560.680    92236914.703          50.000  
E15  26944868.600   141596195.211          50.000    26944874.620   105737402.613          50.000  
E21  23455477.100   123259347.980          50.000    23455481.280    92044309.156          50.000  
E27  25731084.560   135217721.738          50.000    25731089.840   100974256.422          50.000  
> 2020  5 14 22  7  5.0000000  0 13       0.000000000000
G 2  21003326.540   110373262.617          50.000                                                  
G 5  23118313.620   121487535.285          50.000                                                  
G 6  22257979.880   116966426.234          50.000    22257982.420    87345059.512          50.000  
G12  20160796.180   105945704.340          50.000                                                  
G19  24032528.940   126291791.645          50.000                                                  
G24  22978335.180   120751898.793          50.000    22978338.640    90171866.426          50.000  
G25  21469210.060   112821406.500          50.000    21469212.160    84249752.480          50.000  
G29  23497597.420   123480678.980          50.000                                                  
E 1  25478934.460   133892692.613          50.000    25478938.200    99984793.281          50.000  
E13  23504770.660   123518393.484          50.000    23504774.240    92237752.684          50.000  
E15  26945359.040   141598772.473          50.000    26945365.060   105739327.188          50.000  
E21  23455547.980   123259720.500          50.000    23455552.180    92044587.332          50.000  
E27  25731579.320   135220321.723          50.000    25731584.600   100976197.965          50.000  
> 2020  5 14 22  7  6.0000000  0 13       0.000000000000
G 2  21003541.720   110374393.395          50.000                                                  
G 5  23117727.720   121484456.344          50.000                                                  
G 6  22258503.540   116969178.160          50.000    22258506.100    87347114.523          50.000  
G12  20160663.720   105945008.309          50.000                                                  
G19  24033060.160   126294583.184          50.000                                                  
G24  22978891.620   120754822.941          50.000    22978895.080    90174050.039          50.000  
G25  21468756.040   112819020.656          50.000    21468758.160    84247970.848          50.000  
G29  23497151.860   123478337.547          50.000                                                  
E 1  25478527.480   133890553.953          50.000    25478531.240    99983196.227          50.000  
E13  23504984.240   123519515.902          50.000    23504987.820    92238590.848          50.000  
E15  26945849.480   141601349.730          50.000    26945855.480   105741251.754          50.000  
E21  23455618.940   123260093.449          50.000    23455623.140    92044865.828          50.000  
E27  25732074.120   135222921.945          50.000    25732079.400   100978139.684          50.000  
> 2020  5 14 22  7  7.0000000  0 13       0.000000000000
G 2  21003756.980   110375524.594          50.000                                                  
G 5  23117141.860   121481377.594          50.000                                                  
G 6  22259027.280   116971930.391          50.000    22259029.820    87349169.758          50.000  
G12  20160531.360   105944312.777          50.000                                                  
G19  24033591.380   126297374.734          50.000                                                  
G24  22979448.100   120757747.301          50.000    22979451.580    90176233.816          50.000  
G25  21468302.100   112816635.152          50.000    21468304.200    84246189.465          50.000  
G29  23496706.320   123475996.230          50.000                                                  
E 1  25478120.540   133888415.512          50.000    25478124.300    99981599.336          50.000  
E13  23505197.880   123520638.570          50.000    23505201.460    92239429.199          50.000  
E15  26946339.900   141603926.973          50.000    26946345.920   105743176.316          50.000  
E21  23455690.000   123260466.809          50.000    23455694.200    92045144.633          50.000  
E27  25732568.980   135225522.387          50.000    25732574.260   100980081.566          50.000  
> 2020  5 14 22  7  8.0000000  0 13       0.000000000000
G 2  21003972.320   110376656.211          50.000                                                  
G 5  23116556.020   121478299.039          50.000                                                  
G 6  22259551.080   116974682.930          50.000    22259553.620    87351225.227          50.000  
G12  20160399.100   105943617.738          50.000                                                  
G19  24034122.600   126300166.313          50.000                                                  
G24  22980004.640   120760671.863          50.000    22980008.100    90178417.742          50.000  
G25  21467848.220   112814249.988          50.000    21467850.320    84244408.336          50.000  
G29  23496260.800   123473655.035          50.000                                                  
E 1  25477713.660   133886277.316          50.000    25477717.420    99980002.629          50.000  
E13  23505411.560   123521761.480          50.000    23505415.140    92240267.734          50.000  
E15  26946830.340   141606504.215          50.000    26946836.360   105745100.875          50.000  
E21  23455761.120   123260840.590          50.000    23455765.320    92045423.750          50.000  
E27  25733063.860   135228123.063          50.000    25733069.160   100982023.621          50.000  
> 2020  5 14 22  7  9.0000000  0 13       0.000000000000
G 2  21004187.740   110377788.258          50.000                                                  
G 5  23115970.240   121475220.688          50.000                                                  
G 6  22260074.920   116977435.777          50.000    22260077.460    87353280.922          50.000  
G12  20160266.940   105942923.184          50.000                                                  
G19  24034653.820   126302957.902          50.000                                                  
G24  22980561.200   120763596.641          50.000    22980564.660    90180601.824          50.000  
G25  21467394.400   112811865.160          50.000    21467396.500    84242627.457          50.000  
G29  23495815.320   123471313.961          50.000                                                  
E 1  25477306.820   133884139.352          50.000    25477310.580    99978406.094          50.000  
E13  23505625.300   123522884.648          50.000    23505628.880    92241106.457          50.000  
E15  26947320.780   141609081.441          50.000    26947326.800   105747025.422          50.000  
E21  23455832.340   123261214.797          50.000    23455836.540    92045703.188          50.000  
E27  25733558.800   135230723.965          50.000    25733564.080   100983965.852          50.000  
> 2020  5 14 22  7 10.0000000  0 13       0.000000000000
G 2  21004403.240   110378920.730          50.000                                                  
G 5  23115384.480   121472142.551          50.000                                                  
G 6  22260598.820   116980188.941          50.000    22260601.380    87355336.855          50.000  
G12  20160134.860   105942229.129          50.000                                                  
G19  24035185.040   126305749.520          50.000                                                  
G24  22981117.820   120766521.625          50.000    22981121.280    90182786.066          50.000  
G25  21466940.640   112809480.652          50.000    21466942.740    84240846.816          50.000  
G29  23495369.840   123468973.008          50.000                                                  
E 1  25476900.020   133882001.617          50.000    25476903.780    99976809.730          50.000  
E13  23505839.080   123524008.066          50.000    23505842.660    92241945.371          50.000  
E15  26947811.200   141611658.664          50.000    26947817.220   105748949.965          50.000  
E21  23455903.620   123261589.426          50.000    23455907.820    92045982.938          50.000  
E27  25734053.780   135233325.098          50.000    25734059.060   100985908.250          50.000  
> 2020  5 14 22  7 11.0000000  0 13       0.000000000000
G 2  21004618.820   110380053.625          50.000                                                  
G 5  23114798.760   121469064.605          50.000                                                  
G 6  22261122.800   116982942.398          50.000    22261125.340    87357393.008          50.000  
G12  20160002.880   105941535.574          50.000                                                  
G19  24035716.280   126308541.156          50.000                                                  
G24  22981674.460   120769446.836          50.000    22981677.920    90184970.473          50.000  
G25  21466486.960   112807096.484          50.000    21466489.060    84239066.434          50.000  
G29  23494924.400   123466632.176          50.000                                                  
E 1  25476493.260   133879864.113          50.000    25476497.020    99975213.539          50.000  
E13  23506052.900   123525131.719          50.000    23506056.480    92242784.457          50.000  
E15  26948301.640   141614235.887          50.000    26948307.660   105750874.508          50.000  
E21  23455975.000   123261964.477          50.000    23455979.200    92046263.004          50.000  
E27  25734548.800   135235926.453          50.000    25734554.100   100987850.816          50.000  
> 2020  5 14 22  7 12.0000000  0 13       0.000000000000
G 2  21004834.480   110381186.941          50.000                                                  
G 5  23114213.100   121465986.879          50.000                                                  
G 6  22261646.820   116985696.168          50.000    22261649.360    87359449.395          50.000  
G12  20159871.000   105940842.512          50.000                                                  
G19  24036247.500   126311332.805          50.000                                                  
G24  22982231.160   120772372.297          50.000    22982234.620    90187155.070          50.000  
G25  21466033.320   112804712.652          50.000    21466035.420    84237286.301          50.000  
G29  23494478.980   123464291.453          50.000                                                  
E 1  25476086.560   133877726.840          50.000    25476090.320    99973617.520          50.000  
E13  23506266.780   123526255.629          50.000    23506270.360    92243623.734          50.000  
E15  26948792.060   141616813.086          50.000    26948798.080   105752799.035          50.000  
E21  23456046.440   123262339.941          50.000    23456050.640    92046543.379          50.000  
E27  25735043.880   135238528.039          50.000    25735049.160   100989793.555          50.000  
> 2020  5 14 22  7 13.0000000  0 13       0.000000000000
G 2  21005050.240   110382320.676          50.000                                                  
G 5  23113627.460   121462909.320          50.000                                                  
G 6  22262170.900   116988450.234          50.000    22262173.440    87361506.000          50.000  
G12  20159739.200   105940149.941          50.000                                                  
G19  24036778.740   126314124.473          50.000                                                  
G24  22982787.900   120775297.969          50.000    22982791.360    90189339.824          50.000  
G25  21465579.760   112802329.145          50.000    21465581.860    84235506.410          50.000  
G29  23494033.560   123461950.863          50.000                                                  
E 1  25475679.900   133875589.809          50.000    25475683.660    99972021.680          50.000  
E13  23506480.700   123527379.785          50.000    23506484.280    92244463.199          50.000  
E15  26949282.480   141619390.281          50.000    26949288.500   105754723.559          50.000  
E21  23456117.980   123262715.828          50.000    23456122.180    92046824.070          50.000  
E27  25735538.980   135241129.859          50.000    25735544.280   100991736.465          50.000  
> 2020  5 14 22  7 14.0000000  0 13       0.000000000000
G 2  21005266.060   110383454.836          50.000                                                  
G 5  23113041.860   121459831.984          50.000                                                  
G 6  22262695.040   116991204.621          50.000    22262697.600    87363562.848          50.000  
G12  20159607.500   105939457.867          50.000                                                  
G19  24037309.980   126316916.172          50.000                                                  
G24  22983344.680   120778223.859          50.000    22983348.140    90191524.742          50.000  
G25  21465126.260   112799945.980          50.000    21465128.360    84233726.773          50.000  
G29  23493588.200   123459610.391          50.000                                                  
E 1  25475273.280   133873453.008          50.000    25475277.040    99970426.012          50.000  
E13  23506694.660   123528504.207          50.000    23506698.240    92245302.859          50.000  
E15  26949772.900   141621967.469          50.000    26949778.920   105756648.078          50.000  
E21  23456189.580   123263092.145          50.000    23456193.780    92047105.082          50.000  
E27  25736034.140   135243731.906          50.000    25736039.420   100993679.547          50.000  
> 2020  5 14 22  7 15.0000000  0 13       0.000000000000
G 2  21005481.960   110384589.414          50.000                                                  
G 5  23112456.300   121456754.859          50.000                                                  
G 6  22263219.240   116993959.297          50.000    22263221.800    87365619.910          50.000  
G12  20159475.900   105938766.293          50.000                                                  
G19  24037841.240   126319707.875          50.000                                                  
G24  22983901.500   120781149.988          50.000    22983904.960    90193709.840          50.000  
G25  21464672.820   112797563.160          50.000    21464674.920    84231947.398          50.000  
G29  23493142.840   123457270.047          50.000                                                  
E 1  25474866.700   133871316.434          50.000    25474870.460    99968830.516          50.000  
E13  23506908.680   123529628.855          50.000    23506912.260    92246142.691          50.000  
E15  26950263.320   141624544.652          50.000    26950269.360   105758572.594          50.000  
E21  23456261.280   123263468.871          50.000    23456265.480    92047386.398          50.000  
E27  25736529.340   135246334.172          50.000    25736534.620   100995622.797          50.000  
> 2020  5 14 22  7 16.0000000  0 13       0.000000000000
G 2  21005697.940   110385724.426          50.000                                                  
G 5  23111870.780   121453677.926          50.000                                                  
G 6  22263743.500   116996714.297          50.000    22263746.060    87367677.215          50.000  
G12  20159344.400   105938075.207          50.000                                                  
G19  24038372.480   126322499.617          50.000                                                  
G24  22984458.360   120784076.309          50.000    22984461.820    90195895.078          50.000  
G25  21464219.440   112795180.656          50.000    21464221.540    84230168.258          50.000  
G29  23492697.500   123454929.801          50.000                                                  
E 1  25474460.160   133869180.102          50.000    25474463.920    99967235.199          50.000  
E13  23507122.740   123530753.754          50.000    23507126.320    92246982.711          50.000  
E15  26950753.740   141627121.813          50.000    26950759.780   105760497.090          50.000  
E21  23456333.040   123263846.023          50.000    23456337.240    92047668.035          50.000  
E27  25737024.580   135248936.664          50.000    25737029.860   100997566.207          50.000  
> 2020  5 14 22  7 17.0000000  0 13       0.000000000000
G 2  21005914.020   110386859.859          50.000                                                  
G 5  23111285.300   121450601.195          50.000                                                  
G 6  22264267.820   116999469.602          50.000    22264270.360    87369734.746          50.000  
G12  20159212.980   105937384.629          50.000                                                  
G19  24038903.740   126325291.375          50.000                                                  
G24  22985015.260   120787002.852          50.000    22985018.740    90198080.480          50.000  
G25  21463766.140   112792798.496          50.000    21463768.240    84228389.371          50.000  
G29  23492252.180   123452589.676          50.000                                                  
E 1  25474053.680   133867043.992          50.000    25474057.440    99965640.051          50.000  
E13  23507336.840   123531878.914          50.000    23507340.440    92247822.922          50.000  
E15  26951244.160   141629698.977          50.000    26951250.200   105762421.590          50.000  
E21  23456404.900   123264223.598          50.000    23456409.100    92047949.984          50.000  
E27  25737519.860   135251539.398          50.000    25737525.160   100999509.801          50.000  
> 2020  5 14 22  7 18.0000000  0 13       0.000000000000
G 2  21006130.160   110387995.711          50.000                                                  
G 5  23110699.840   121447524.668          50.000                                                  
G 6  22264792.200   117002225.199          50.000    22264794.740    87371792.496          50.000  
G12  20159081.660   105936694.531          50.000                                                  
G19  24039435.000   126328083.148          50.000                                                  
G24  22985572.200   120789929.602          50.000    22985575.680    90200266.039          50.000  
G25  21463312.880   112790416.668          50.000    21463314.980    84226610.734          50.000  
G29  23491806.900   123450249.676          50.000                                                  
E 1  25473647.240   133864908.117          50.000    25473651.000    99964045.074          50.000  
E13  23507551.000   123533004.313          50.000    23507554.600    92248663.313          50.000  
E15  26951734.580   141632276.121          50.000    26951740.600   105764346.078          50.000  
E21  23456476.820   123264601.586          50.000    23456481.020    92048232.246          50.000  
E27  25738015.180   135254142.359          50.000    25738020.480   101001453.566          50.000  
> 2020  5 14 22  7 19.0000000  0 13       0.000000000000
G 2  21006346.380   110389131.980          50.000                                                  
G 5  23110114.440   121444448.344          50.000                                                  
G 6  22265316.620   117004981.109          50.000    22265319.180    87373850.480          50.000  
G12  20158950.440   105936004.938          50.000                                                  
G19  24039966.260   126330874.934          50.000                                                  
G24  22986129.200   120792856.574          50.000    22986132.660    90202451.766          50.000  
G25  21462859.700   112788035.176          50.000    21462861.800    84224832.348          50.000  
G29  23491361.640   123447909.793          50.000                                                  
E 1  25473240.840   133862772.477          50.000    25473244.600    99962450.277          50.000  
E13  23507765.200   123534129.949          50.000    23507768.800    92249503.883          50.000  
E15  26952225.000   141634853.262          50.000    26952231.020   105766270.559          50.000  
E21  23456548.820   123264979.992          50.000    23456553.040    92048514.816          50.000  
E27  25738510.560   135256745.531          50.000    25738515.840   101003397.488          50.000  
> 2020  5 14 22  7 20.0000000  0 13       0.000000000000
G 2  21006562.680   110390268.676          50.000                                                  
G 5  23109529.080   121441372.227          50.000                                                  
G 6  22265841.120   117007737.320          50.000    22265843.660    87375908.688          50.000  
G12  20158819.300   105935315.836          50.000                                                  
G19  24040497.520   126333666.742          50.000                                                  
G24  22986686.220   120795783.785          50.000    22986689.700    90204637.668          50.000  
G25  21462406.580   112785654.012          50.000    21462408.680    84223054.207          50.000  
G29  23490916.380   123445570.020          50.000                                                  
E 1  25472834.480   133860637.078          50.000    25472838.240    99960855.656          50.000  
E13  23507979.460   123535255.848          50.000    23507983.040    92250344.648          50.000  
E15  26952715.400   141637430.391          50.000    26952721.440   105768195.035          50.000  
E21  23456620.920   123265358.832          50.000    23456625.140    92048797.715          50.000  
E27  25739005.960   135259348.945          50.000    25739011.260   101005341.594          50.000  
> 2020  5 14 22  7 21.0000000  0 13       0.000000000000
G 2  21006779.080   110391405.797          50.000                                                  
G 5  23108943.740   121438296.313          50.000                                                  
G 6  22266365.660   117010493.848          50.000    22266368.220    87377967.133          50.000  
G12  20158688.260   105934627.230          50.000                                                  
G19  24041028.780   126336458.566          50.000                                                  
G24  22987243.300   120798711.199          50.000    22987246.760    90206823.723          50.000  
G25  21461953.520   112783273.188          50.000    21461955.620    84221276.316          50.000  
G29  23490471.160   123443230.367          50.000                                                  
E 1  25472428.160   133858501.902          50.000    25472431.940    99959261.207          50.000  
E13  23508193.760   123536381.984          50.000    23508197.340    92251185.590          50.000  
E15  26953205.820   141640007.512          50.000    26953211.860   105770119.504          50.000  
E21  23456693.080   123265738.086          50.000    23456697.300    92049080.918          50.000  
E27  25739501.420   135261952.578          50.000    25739506.720   101007285.859          50.000  
> 2020  5 14 22  7 22.0000000  0 13       0.000000000000
G 2  21006995.540   110392543.352          50.000                                                  
G 5  23108358.460   121435220.598          50.000                                                  
G 6  22266890.280   117013250.680          50.000    22266892.820    87380025.805          50.000  
G12  20158557.320   105933939.121          50.000                                                  
G19  24041560.060   126339250.418          50.000                                                  
G24  22987800.400   120801638.840          50.000    22987803.880    90209009.945          50.000  
G25  21461500.520   112780892.695          50.000    21461502.640    84219498.680          50.000  
G29  23490025.960   123440890.836          50.000                                                  
E 1  25472021.900   133856366.969          50.000    25472025.680    99957666.934          50.000  
E13  23508408.100   123537508.383          50.000    23508411.700    92252026.727          50.000  
E15  26953696.220   141642584.629          50.000    26953702.260   105772043.969          50.000  
E21  23456765.340   123266117.762          50.000    23456769.560    92049364.438          50.000  
E27  25739996.920   135264556.445          50.000    25740002.220   101009230.301          50.000  
> 2020  5 14 22  7 23.0000000  0 13       0.000000000000
G 2  21007212.100   110393681.316          50.000                                                  
G 5  23107773.200   121432145.082          50.000                                                  
G 6  22267414.940   117016007.809          50.000    22267417.480    87382084.703          50.000  
G12  20158426.480   105933251.504          50.000                                                  
G19  24042091.340   126342042.293          50.000                                                  
G24  22988357.560   120804566.699          50.000    22988361.020    90211196.336          50.000  
G25  21461047.600   112778512.543          50.000    21461049.700    84217721.293          50.000  
G29  23489580.800   123438551.422          50.000                                                  
E 1  25471615.680   133854232.270          50.000    25471619.460    99956072.836          50.000  
E13  23508622.500   123538635.016          50.000    23508626.080    92252868.039          50.000  
E15  26954186.640   141645161.723          50.000    26954192.660   105773968.418          50.000  
E21  23456837.680   123266497.863          50.000    23456841.880    92049648.277          50.000  
E27  25740492.460   135267160.535          50.000    25740497.760   101011174.906          50.000  
> 2020  5 14 22  7 24.0000000  0 13       0.000000000000
G 2  21007428.720   110394819.707          50.000                                                  
G 5  23107188.000   121429069.766          50.000                                                  
G 6  22267939.660   117018765.238          50.000    22267942.220    87384143.820          50.000  
G12  20158295.720   105932564.379          50.000                                                  
G19  24042622.620   126344834.184          50.000                                                  
G24  22988914.740   120807494.758          50.000    22988918.220    90213382.871          50.000  
G25  21460594.740   112776132.727          50.000    21460596.840    84215944.160          50.000  
G29  23489135.640   123436212.125          50.000                                                  
E 1  25471209.500   133852097.789          50.000    25471213.280    99954478.902          50.000  
E13  23508836.940   123539761.898          50.000    23508840.520    92253709.539          50.000  
E15  26954677.040   141647738.824          50.000    26954683.080   105775892.871          50.000  
E21  23456910.080   123266878.383          50.000    23456914.300    92049932.426          50.000  
E27  25740988.040   135269764.844          50.000    25740993.360   101013119.680          50.000  
> 2020  5 14 22  7 25.0000000  0 13       0.000000000000
G 2  21007645.420   110395958.520          50.000                                                  
G 5  23106602.820   121425994.668          50.000                                                  
G 6  22268464.440   117021522.988          50.000    22268467.000    87386203.176          50.000  
G12  20158165.060   105931877.766          50.000                                                  
G19  24043153.900   126347626.102          50.000                                                  
G24  22989471.980   120810423.047          50.000    22989475.460    90215569.578          50.000  
G25  21460141.940   112773753.242          50.000    21460144.040    84214167.273          50.000  
G29  23488690.500   123433872.953          50.000                                                  
E 1  25470803.380   133849963.555          50.000    25470807.140    99952885.152          50.000  
E13  23509051.420   123540889.027          50.000    23509055.020    92254551.223          50.000  
E15  26955167.440   141650315.906          50.000    26955173.480   105777817.309          50.000  
E21  23456982.580   123267259.320          50.000    23456986.780    92050216.887          50.000  
E27  25741483.680   135272369.402          50.000    25741488.980   101015064.637          50.000  
> 2020  5 14 22  7 26.0000000  0 13       0.000000000000
G 2  21007862.220   110397097.758          50.000                                                  
G 5  23106017.680   121422919.754          50.000                                                  
G 6  22268989.280   117024281.039          50.000    22268991.840    87388262.758          50.000  
G12  20158034.500   105931191.660          50.000                                                  
G19  24043685.200   126350418.035          50.000                                                  
G24  22990029.260   120813351.551          50.000    22990032.740    90217756.449          50.000  
G25  21459689.200   112771374.102          50.000    21459691.300    84212390.641          50.000  
G29  23488245.400   123431533.895          50.000                                                  
E 1  25470397.280   133847829.551          50.000    25470401.060    99951291.574          50.000  
E13  23509265.940   123542016.410          50.000    23509269.540    92255393.094          50.000  
E15  26955657.840   141652892.977          50.000    26955663.880   105779741.742          50.000  
E21  23457055.140   123267640.680          50.000    23457059.360    92050501.668          50.000  
E27  25741979.360   135274974.184          50.000    25741984.660   101017009.758          50.000  
> 2020  5 14 22  7 27.0000000  0 13       0.000000000000
G 2  21008079.080   110398237.410          50.000                                                  
G 5  23105432.580   121419845.051          50.000                                                  
G 6  22269514.180   117027039.395          50.000    22269516.740    87390322.570          50.000  
G12  20157904.040   105930506.051          50.000                                                  
G19  24044216.480   126353209.992          50.000                                                  
G24  22990586.580   120816280.273          50.000    22990590.040    90219943.480          50.000  
G25  21459236.520   112768995.301          50.000    21459238.620    84210614.266          50.000  
G29  23487800.320   123429194.953          50.000                                                  
E 1  25469991.240   133845695.777          50.000    25469995.020    99949698.168          50.000  
E13  23509480.540   123543144.039          50.000    23509484.120    92256235.148          50.000  
E15  26956148.240   141655470.047          50.000    26956154.280   105781666.172          50.000  
E21  23457127.800   123268022.465          50.000    23457132.020    92050786.762          50.000  
E27  25742475.060   135277579.184          50.000    25742480.380   101018955.047          50.000  
> 2020  5 14 22  7 28.0000000  0 13       0.000000000000
G 2  21008296.040   110399377.488          50.000                                                  
G 5  23104847.520   121416770.543          50.000                                                  
G 6  22270039.140   117029798.051          50.000    22270041.680    87392382.605          50.000  
G12  20157773.660   105929820.930          50.000                                                  
G19  24044747.780   126356001.961          50.000                                                  
G24  22991143.940   120819209.207          50.000    22991147.400    90222130.668          50.000  
G25  21458783.920   112766616.813          50.000    21458786.020    84208838.121          50.000  
G29  23487355.240   123426856.137          50.000                                                  
E 1  25469585.240   133843562.242          50.000    25469589.020    99948104.945          50.000  
E13  23509695.160   123544271.910          50.000    23509698.760    92257077.391          50.000  
E15  26956638.640   141658047.098          50.000    26956644.680   105783590.590          50.000  
E21  23457200.520   123268404.672          50.000    23457204.740    92051072.176          50.000  
E27  25742970.820   135280184.410          50.000    25742976.140   101020900.508          50.000  
> 2020  5 14 22  7 29.0000000  0 13       0.000000000000
G 2  21008513.060   110400517.984          50.000                                                  
G 5  23104262.500   121413696.238          50.000                                                  
G 6  22270564.160   117032557.016          50.000    22270566.700    87394442.871          50.000  
G12  20157643.380   105929136.313          50.000                                                  
G19  24045279.080   126358793.961          50.000                                                  
G24  22991701.340   120822138.387          50.000    22991704.820    90224318.043          50.000  
G25  21458331.380   112764238.668          50.000    21458333.480    84207062.234          50.000  
G29  23486910.200   123424517.441          50.000                                                  
E 1  25469179.300   133841428.945          50.000    25469183.060    99946511.902          50.000  
E13  23509909.840   123545400.031          50.000    23509913.440    92257919.820          50.000  
E15  26957129.040   141660624.148          50.000    26957135.080   105785515.012          50.000  
E21  23457273.340   123268787.293          50.000    23457277.560    92051357.898          50.000  
E27  25743466.640   135282789.867          50.000    25743471.940   101022846.141          50.000  
> 2020  5 14 22  7 30.0000000  0 13       0.000000000000
G 2  21008730.180   110401658.914          50.000                                                  
G 5  23103677.520   121410622.125          50.000                                                  
G 6  22271089.220   117035316.281          50.000    22271091.780    87396503.359          50.000  
G12  20157513.200   105928452.188          50.000                                                  
G19  24045810.380   126361585.973          50.000                                                  
G24  22992258.800   120825067.793          50.000    22992262.260    90226505.582          50.000  
G25  21457878.880   112761860.863          50.000    21457880.980    84205286.602          50.000  
G29  23486465.200   123422178.859          50.000                                                  
E 1  25468773.380   133839295.871          50.000    25468777.160    99944919.023          50.000  
E13  23510124.560   123546528.398          50.000    23510128.160    92258762.434          50.000  
E15  26957619.440   141663201.176          50.000    26957625.480   105787439.414          50.000  
E21  23457346.220   123269170.344          50.000    23457350.440    92051643.941          50.000  
E27  25743962.480   135285395.547          50.000    25743967.780   101024791.938          50.000  
> 2020  5 14 22  7 31.0000000  0 13       0.000000000000
G 2  21008947.360   110402800.258          50.000                                                  
G 5  23103092.580   121407548.227          50.000                                                  
G 6  22271614.360   117038075.852          50.000    22271616.900    87398564.078          50.000  
G12  20157383.100   105927768.547          50.000                                                  
G19  24046341.680   126364378.004          50.000                                                  
G24  22992816.280   120827997.406          50.000    22992819.760    90228693.281          50.000  
G25  21457426.460   112759483.383          50.000    21457428.560    84203511.211          50.000  
G29  23486020.200   123419840.398          50.000                                                  
E 1  25468367.520   133837163.043          50.000    25468371.280    99943326.324          50.000  
E13  23510339.320   123547657.020          50.000    23510342.920    92259605.234          50.000  
E15  26958109.820   141665778.203          50.000    26958115.860   105789363.816          50.000  
E21  23457419.200   123269553.805          50.000    23457423.420    92051930.293          50.000  
E27  25744458.360   135288001.461          50.000    25744463.680   101026737.910          50.000  
> 2020  5 14 22  7 32.0000000  0 13       0.000000000000
G 2  21009164.640   110403942.020          50.000                                                  
G 5  23102507.680   121404474.547          50.000                                                  
G 6  22272139.540   117040835.727          50.000    22272142.080    87400625.023          50.000  
G12  20157253.100   105927085.406          50.000                                                  
G19  24046873.000   126367170.066          50.000                                                  
G24  22993373.800   120830927.250          50.000    22993377.280    90230881.148          50.000  
G25  21456974.120   112757106.250          50.000    21456976.220    84201736.078          50.000  
G29  23485575.220   123417502.063          50.000                                                  
E 1  25467961.700   133835030.438          50.000    25467965.460    99941733.797          50.000  
E13  23510554.140   123548785.883          50.000    23510557.740    92260448.215          50.000  
E15  26958600.220   141668355.227          50.000    26958606.260   105791288.215          50.000  
E21  23457492.240   123269937.695          50.000    23457496.460    92052216.965          50.000  
E27  25744954.300   135290607.594          50.000    25744959.600   101028684.051          50.000  
> 2020  5 14 22  7 33.0000000  0 13       0.000000000000
G 2  21009381.980   110405084.211          50.000                                                  
G 5  23101922.800   121401401.039          50.000                                                  
G 6  22272664.780   117043595.910          50.000    22272667.340    87402686.199          50.000  
G12  20157123.200   105926402.754          50.000                                                  
G19  24047404.320   126369962.133          50.000                                                  
G24  22993931.380   120833857.332          50.000    22993934.860    90233069.195          50.000  
G25  21456521.820   112754729.457          50.000    21456523.920    84199961.203          50.000  
G29  23485130.280   123415163.844          50.000                                                  
E 1  25467555.920   133832898.078          50.000    25467559.680    99940141.449          50.000  
E13  23510769.000   123549915.000          50.000    23510772.600    92261291.387          50.000  
E15  26959090.600   141670932.227          50.000    26959096.640   105793212.598          50.000  
E21  23457565.380   123270322.008          50.000    23457569.600    92052503.949          50.000  
E27  25745450.280   135293213.969          50.000    25745455.580   101030630.367          50.000  
> 2020  5 14 22  7 34.0000000  0 13       0.000000000000
G 2  21009599.420   110406226.828          50.000                                                  
G 5  23101337.980   121398327.773          50.000                                                  
G 6  22273190.080   117046356.395          50.000    22273192.640    87404747.598          50.000  
G12  20156993.380   105925720.602          50.000                                                  
G19  24047935.640   126372754.227          50.000                                                  
G24  22994489.000   120836787.613          50.000    22994492.480    90235257.395          50.000  
G25  21456069.600   112752352.996          50.000    21456071.700    84198186.574          50.000  
G29  23484685.340   123412825.738          50.000                                                  
E 1  25467150.180   133830765.941          50.000    25467153.960    99938549.270          50.000  
E13  23510983.920   123551044.352          50.000    23510987.500    92262134.734          50.000  
E15  26959581.000   141673509.219          50.000    26959587.040   105795136.973          50.000  
E21  23457638.600   123270706.742          50.000    23457642.820    92052791.254          50.000  
E27  25745946.300   135295820.551          50.000    25745951.600   101032576.840          50.000  
> 2020  5 14 22  7 35.0000000  0 13       0.000000000000
G 2  21009816.940   110407369.859          50.000                                                  
G 5  23100753.180   121395254.684          50.000                                                  
G 6  22273715.440   117049117.176          50.000    22273718.000    87406809.219          50.000  
G12  20156863.680   105925038.934          50.000                                                  
G19  24048466.960   126375546.344          50.000                                                  
G24  22995046.660   120839718.117          50.000    22995050.140    90237445.754          50.000  
G25  21455617.440   112749976.871          50.000    21455619.540    84196412.195          50.000  
G29  23484240.440   123410487.754          50.000                                                  
E 1  25466744.500   133828634.043          50.000    25466748.260    99936957.270          50.000  
E13  23511198.860   123552173.953          50.000    23511202.460    92262978.270          50.000  
E15  26960071.380   141676086.211          50.000    26960077.420   105797061.348          50.000  
E21  23457711.880   123271091.887          50.000    23457716.100    92053078.859          50.000  
E27  25746442.360   135298427.371          50.000    25746447.660   101034523.488          50.000  
> 2020  5 14 22  7 36.0000000  0 13       0.000000000000
G 2  21010034.520   110408513.324          50.000                                                  
G 5  23100168.440   121392181.801          50.000                                                  
G 6  22274240.860   117051878.273          50.000    22274243.420    87408871.078          50.000  
G12  20156734.060   105924357.770          50.000                                                  
G19  24048998.280   126378338.477          50.000                                                  
G24  22995604.360   120842648.844          50.000    22995607.840    90239634.281          50.000  
G25  21455165.340   112747601.074          50.000    21455167.440    84194638.063          50.000  
G29  23483795.560   123408149.898          50.000                                                  
E 1  25466338.860   133826502.379          50.000    25466342.620    99935365.445          50.000  
E13  23511413.880   123553303.813          50.000    23511417.480    92263821.996          50.000  
E15  26960561.760   141678663.191          50.000    26960567.800   105798985.715          50.000  
E21  23457785.260   123271477.469          50.000    23457789.480    92053366.793          50.000  
E27  25746938.460   135301034.422          50.000    25746943.780   101036470.309          50.000  
> 2020  5 14 22  7 37.0000000  0 13       0.000000000000
G 2  21010252.200   110409657.203          50.000                                                  
G 5  23099583.720   121389109.113          50.000                                                  
G 6  22274766.340   117054639.668          50.000    22274768.900    87410933.156          50.000  
G12  20156604.520   105923677.098          50.000                                                  
G19  24049529.620   126381130.629          50.000                                                  
G24  22996162.100   120845579.789          50.000    22996165.580    90241822.977          50.000  
G25  21454713.300   112745225.613          50.000    21454715.400    84192864.180          50.000  
G29  23483350.700   123405812.148          50.000                                                  
E 1  25465933.260   133824370.953          50.000    25465937.020    99933773.793          50.000  
E13  23511628.920   123554433.918          50.000    23511632.520    92264665.902          50.000  
E15  26961052.140   141681240.152          50.000    26961058.180   105800910.070          50.000  
E21  23457858.720   123271863.461          50.000    23457862.920    92053655.035          50.000  
E27  25747434.600   135303641.699          50.000    25747439.920   101038417.301          50.000  
> 2020  5 14 22  7 38.0000000  0 13       0.000000000000
G 2  21010469.960   110410801.500          50.000                                                  
G 5  23098999.040   121386036.652          50.000                                                  
G 6  22275291.880   117057401.371          50.000    22275294.420    87412995.469          50.000  
G12  20156475.100   105922996.926          50.000                                                  
G19  24050060.940   126383922.805          50.000                                                  
G24  22996719.880   120848510.926          50.000    22996723.360    90244011.813          50.000  
G25  21454261.340   112742850.496          50.000    21454263.440    84191090.555          50.000  
G29  23482905.860   123403474.527          50.000                                                  
E 1  25465527.700   133822239.754          50.000    25465531.480    99932182.316          50.000  
E13  23511844.020   123555564.266          50.000    23511847.620    92265509.992          50.000  
E15  26961542.520   141683817.117          50.000    26961548.560   105802834.426          50.000  
E21  23457932.240   123272249.879          50.000    23457936.460    92053943.594          50.000  
E27  25747930.800   135306249.199          50.000    25747936.120   101040364.461          50.000  
> 2020  5 14 22  7 39.0000000  0 13       0.000000000000
G 2  21010687.780   110411946.219          50.000                                                  
G 5  23098414.420   121382964.375          50.000                                                  
G 6  22275817.480   117060163.379          50.000    22275820.020    87415058.008          50.000  
G12  20156345.760   105922317.246          50.000                                                  
G19  24050592.280   126386714.992          50.000                                                  
G24  22997277.700   120851442.273          50.000    22997281.160    90246200.801          50.000  
G25  21453809.420   112740475.719          50.000    21453811.520    84189317.184          50.000  
G29  23482461.060   123401137.016          50.000                                                  
E 1  25465122.200   133820108.789          50.000    25465125.960    99930591.012          50.000  
E13  23512059.160   123556694.852          50.000    23512062.760    92266354.262          50.000  
E15  26962032.900   141686394.063          50.000    26962038.940   105804758.766          50.000  
E21  23458005.860   123272636.711          50.000    23458010.080    92054232.461          50.000  
E27  25748427.040   135308856.922          50.000    25748432.340   101042311.785          50.000  
> 2020  5 14 22  7 40.0000000  0 13       0.000000000000
G 2  21010905.700   110413091.352          50.000                                                  
G 5  23097829.800   121379892.352          50.000                                                  
G 6  22276343.120   117062925.691          50.000    22276345.680    87417120.773          50.000  
G12  20156216.500   105921638.063          50.000                                                  
G19  24051123.620   126389507.223          50.000                                                  
G24  22997835.560   120854373.813          50.000    22997839.040    90248389.926          50.000  
G25  21453357.580   112738101.270          50.000    21453359.680    84187544.051          50.000  
G29  23482016.260   123398799.609          50.000                                                  
E 1  25464716.740   133817978.047          50.000    25464720.500    99928999.863          50.000  
E13  23512274.360   123557825.691          50.000    23512277.960    92267198.719          50.000  
E15  26962523.280   141688971.012          50.000    26962529.320   105806683.117          50.000  
E21  23458079.540   123273023.977          50.000    23458083.760    92054521.652          50.000  
E27  25748923.320   135311464.855          50.000    25748928.640   101044259.254          50.000  
> 2020  5 14 22  7 41.0000000  0 13       0.000000000000
G 2  21011123.700   110414236.914          50.000                                                  
G 5  23097245.240   121376820.492          50.000                                                  
G 6  22276868.840   117065688.309          50.000    22276871.380    87419183.766          50.000  
G12  20156087.360   105920959.379          50.000                                                  
G19  24051654.960   126392299.457          50.000                                                  
G24  22998393.460   120857305.594          50.000    22998396.940    90250579.238          50.000  
G25  21452905.800   112735727.156          50.000    21452907.900    84185771.176          50.000  
G29  23481571.500   123396462.340          50.000                                                  
E 1  25464311.320   133815847.559          50.000    25464315.080    99927408.918          50.000  
E13  23512489.600   123558956.781          50.000    23512493.200    92268043.363          50.000  
E15  26963013.640   141691547.941          50.000    26963019.700   105808607.441          50.000  
E21  23458153.320   123273411.660          50.000    23458157.540    92054811.156          50.000  
E27  25749419.640   135314073.039          50.000    25749424.960   101046206.922          50.000  
> 2020  5 14 22  7 42.0000000  0 13       0.000000000000
G 2  21011341.760   110415382.891          50.000                                                  
G 5  23096660.740   121373748.836          50.000                                                  
G 6  22277394.600   117068451.227          50.000    22277397.140    87421246.984          50.000  
G12  20155958.300   105920281.184          50.000                                                  
G19  24052186.320   126395091.703          50.000                                                  
G24  22998951.400   120860237.594          50.000    22998954.880    90252768.719          50.000  
G25  21452454.100   112733353.387          50.000    21452456.200    84183998.555          50.000  
G29  23481126.760   123394125.195          50.000                                                  
E 1  25463905.940   133813717.301          50.000    25463909.720    99925818.141          50.000  
E13  23512704.880   123560088.121          50.000    23512708.480    92268888.195          50.000  
E15  26963504.020   141694124.859          50.000    26963510.060   105810531.762          50.000  
E21  23458227.180   123273799.762          50.000    23458231.400    92055100.977          50.000  
E27  25749916.000   135316681.449          50.000    25749921.320   101048154.758          50.000  
> 2020  5 14 22  7 43.0000000  0 13       0.000000000000
G 2  21011559.920   110416529.301          50.000                                                  
G 5  23096076.260   121370677.379          50.000                                                  
G 6  22277920.420   117071214.445          50.000    22277922.980    87423310.426          50.000  
G12  20155829.340   105919603.480          50.000                                                  
G19  24052717.660   126397883.965          50.000                                                  
G24  22999509.380   120863169.816          50.000    22999512.860    90254958.363          50.000  
G25  21452002.440   112730979.953          50.000    21452004.540    84182226.188          50.000  
G29  23480682.020   123391788.160          50.000                                                  
E 1  25463500.600   133811587.273          50.000    25463504.380    99924227.535          50.000  
E13  23512920.220   123561219.703          50.000    23512923.820    92269733.207          50.000  
E15  26963994.380   141696701.770          50.000    26964000.440   105812456.078          50.000  
E21  23458301.120   123274188.285          50.000    23458305.320    92055391.105          50.000  
E27  25750412.420   135319290.082          50.000    25750417.720   101050102.762          50.000  
> 2020  5 14 22  7 44.0000000  0 13       0.000000000000
G 2  21011778.160   110417676.117          50.000                                                  
G 5  23095491.820   121367606.137          50.000                                                  
G 6  22278446.300   117073977.973          50.000    22278448.860    87425374.098          50.000  
G12  20155700.480   105918926.289          50.000                                                  
G19  24053249.020   126400676.254          50.000                                                  
G24  23000067.400   120866102.246          50.000    23000070.880    90257148.164          50.000  
G25  21451550.860   112728606.859          50.000    21451552.960    84180454.074          50.000  
G29  23480237.320   123389451.246          50.000                                                  
E 1  25463095.320   133809457.492          50.000    25463099.100    99922637.113          50.000  
E13  23513135.600   123562351.531          50.000    23513139.200    92270578.402          50.000  
E15  26964484.760   141699278.660          50.000    26964490.800   105814380.379          50.000  
E21  23458375.120   123274577.230          50.000    23458379.340    92055681.551          50.000  
E27  25750908.860   135321898.941          50.000    25750914.180   101052050.934          50.000  
> 2020  5 14 22  7 45.0000000  0 13       0.000000000000
G 2  21011996.460   110418823.359          50.000                                                  
G 5  23094907.420   121364535.105          50.000                                                  
G 6  22278972.240   117076741.805          50.000    22278974.800    87427437.996          50.000  
G12  20155571.700   105918249.586          50.000                                                  
G19  24053780.380   126403468.559          50.000                                                  
G24  23000625.480   120869034.902          50.000    23000628.960    90259338.133          50.000  
G25  21451099.340   112726234.082          50.000    21451101.440    84178682.195          50.000  
G29  23479792.640   123387114.453          50.000                                                  
E 1  25462690.080   133807327.941          50.000    25462693.860    99921046.867          50.000  
E13  23513351.020   123563483.605          50.000    23513354.620    92271423.781          50.000  
E15  26964975.120   141701855.559          50.000    26964981.160   105816304.684          50.000  
E21  23458449.220   123274966.598          50.000    23458453.440    92055972.313          50.000  
E27  25751405.360   135324508.031          50.000    25751410.680   101053999.281          50.000  
> 2020  5 14 22  7 46.0000000  0 13       0.000000000000
G 2  21012214.860   110419971.020          50.000                                                  
G 5  23094323.060   121361464.273          50.000                                                  
G 6  22279498.240   117079505.930          50.000    22279500.800    87429502.113          50.000  
G12  20155443.020   105917573.375          50.000                                                  
G19  24054311.740   126406260.883          50.000                                                  
G24  23001183.580   120871967.762          50.000    23001187.060    90261528.254          50.000  
G25  21450647.880   112723861.652          50.000    21450649.980    84176910.574          50.000  
G29  23479348.000   123384777.781          50.000                                                  
E 1  25462284.880   133805198.621          50.000    25462288.660    99919456.789          50.000  
E13  23513566.500   123564615.918          50.000    23513570.100    92272269.344          50.000  
E15  26965465.480   141704432.430          50.000    26965471.540   105818228.973          50.000  
E21  23458523.400   123275356.383          50.000    23458527.620    92056263.387          50.000  
E27  25751901.900   135327117.348          50.000    25751907.200   101055947.797          50.000  
> 2020  5 14 22  7 47.0000000  0 13       0.000000000000
G 2  21012433.340   110421119.102          50.000                                                  
G 5  23093738.740   121358393.641          50.000                                                  
G 6  22280024.300   117082270.359          50.000    22280026.840    87431566.461          50.000  
G12  20155314.440   105916897.672          50.000                                                  
G19  24054843.100   126409053.227          50.000                                                  
G24  23001741.720   120874900.836          50.000    23001745.200    90263718.539          50.000  
G25  21450196.480   112721489.563          50.000    21450198.580    84175139.211          50.000  
G29  23478903.360   123382441.227          50.000                                                  
E 1  25461879.740   133803069.547          50.000    25461883.500    99917866.895          50.000  
E13  23513782.020   123565748.488          50.000    23513785.620    92273115.094          50.000  
E15  26965955.840   141707009.293          50.000    26965961.900   105820153.254          50.000  
E21  23458597.640   123275746.590          50.000    23458601.860    92056554.773          50.000  
E27  25752398.480   135329726.887          50.000    25752403.780   101057896.477          50.000  
> 2020  5 14 22  7 48.0000000  0 13       0.000000000000
G 2  21012651.880   110422267.609          50.000                                                  
G 5  23093154.440   121355323.219          50.000                                                  
G 6  22280550.400   117085035.102          50.000    22280552.960    87433631.039          50.000  
G12  20155185.960   105916222.465          50.000                                                  
G19  24055374.480   126411845.594          50.000                                                  
G24  23002299.920   120877834.125          50.000    23002303.400    90265908.980          50.000  
G25  21449745.160   112719117.820          50.000    21449747.260    84173368.105          50.000  
G29  23478458.760   123380104.793          50.000                                                  
E 1  25461474.640   133800940.699          50.000    25461478.400    99916277.176          50.000  
E13  23513997.580   123566881.309          50.000    23514001.180    92273961.031          50.000  
E15  26966446.220   141709586.156          50.000    26966452.260   105822077.531          50.000  
E21  23458671.980   123276137.227          50.000    23458676.200    92056846.484          50.000  
E27  25752895.100   135332336.656          50.000    25752900.420   101059845.328          50.000  
> 2020  5 14 22  7 49.0000000  0 13       0.000000000000
G 2  21012870.520   110423416.527          50.000                                                  
G 5  23092570.200   121352253.004          50.000                                                  
G 6  22281076.580   117087800.133          50.000    22281079.120    87435695.836          50.000  
G12  20155057.560   105915547.746          50.000                                                  
G19  24055905.860   126414637.977          50.000                                                  
G24  23002858.140   120880767.609          50.000    23002861.620    90268099.566          50.000  
G25  21449293.880   112716746.410          50.000    21449295.980    84171597.246          50.000  
G29  23478014.160   123377768.465          50.000                                                  
E 1  25461069.560   133798812.082          50.000    25461073.340    99914687.621          50.000  
E13  23514213.200   123568014.367          50.000    23514216.800    92274807.145          50.000  
E15  26966936.560   141712162.996          50.000    26966942.620   105824001.793          50.000  
E21  23458746.400   123276528.273          50.000    23458750.620    92057138.500          50.000  
E27  25753391.760   135334946.652          50.000    25753397.080   101061794.352          50.000  
> 2020  5 14 22  7 50.0000000  0 13       0.000000000000
G 2  21013089.240   110424565.879          50.000                                                  
G 5  23091986.000   121349182.992          50.000                                                  
G 6  22281602.800   117090565.480          50.000    22281605.360    87437760.867          50.000  
G12  20154929.260   105914873.527          50.000                                                  
G19  24056437.240   126417430.379          50.000                                                  
G24  23003416.400   120883701.297          50.000    23003419.880    90270290.305          50.000  
G25  21448842.680   112714375.320          50.000    21448844.780    84169826.629          50.000  
G29  23477569.600   123375432.262          50.000                                                  
E 1  25460664.560   133796683.703          50.000    25460668.320    99913098.250          50.000  
E13  23514428.860   123569147.672          50.000    23514432.460    92275653.445          50.000  
E15  26967426.920   141714739.836          50.000    26967432.980   105825926.059          50.000  
E21  23458820.900   123276919.746          50.000    23458825.120    92057430.832          50.000  
E27  25753888.460   135337556.867          50.000    25753893.780   101063743.535          50.000  
> 2020  5 14 22  7 51.0000000  0 13       0.000000000000
G 2  21013308.020   110425715.648          50.000                                                  
G 5  23091401.840   121346113.191          50.000                                                  
G 6  22282129.100   117093331.133          50.000    22282131.640    87439826.129          50.000  
G12  20154801.060   105914199.809          50.000                                                  
G19  24056968.620   126420222.805          50.000                                                  
G24  23003974.700   120886635.211          50.000    23003978.180    90272481.215          50.000  
G25  21448391.540   112712004.582          50.000    21448393.640    84168056.270          50.000  
G29  23477125.060   123373096.180          50.000                                                  
E 1  25460259.580   133794555.570          50.000    25460263.340    99911509.059          50.000  
E13  23514644.580   123570281.238          50.000    23514648.180    92276499.938          50.000  
E15  26967917.280   141717316.668          50.000    26967923.320   105827850.313          50.000  
E21  23458895.460   123277311.641          50.000    23458899.680    92057723.480          50.000  
E27  25754385.220   135340167.313          50.000    25754390.540   101065692.895          50.000  
> 2020  5 14 22  7 52.0000000  0 13       0.000000000000
G 2  21013526.900   110426865.844          50.000                                                  
G 5  23090817.720   121343043.602          50.000                                                  
G 6  22282655.440   117096097.086          50.000    22282657.980    87441891.609          50.000  
G12  20154672.940   105913526.590          50.000                                                  
G19  24057500.000   126423015.250          50.000                                                  
G24  23004533.060   120889569.352          50.000    23004536.540    90274672.293          50.000  
G25  21447940.480   112709634.184          50.000    21447942.580    84166286.168          50.000  
G29  23476680.540   123370760.215          50.000                                                  
E 1  25459854.660   133792427.668          50.000    25459858.420    99909920.043          50.000  
E13  23514860.320   123571415.035          50.000    23514863.920    92277346.605          50.000  
E15  26968407.640   141719893.488          50.000    26968413.680   105829774.559          50.000  
E21  23458970.120   123277703.969          50.000    23458974.340    92058016.453          50.000  
E27  25754882.020   135342777.996          50.000    25754887.340   101067642.426          50.000  
> 2020  5 14 22  7 53.0000000  0 13       0.000000000000
G 2  21013745.860   110428016.453          50.000                                                  
G 5  23090233.620   121339974.195          50.000                                                  
G 6  22283181.840   117098863.332          50.000    22283184.380    87443957.313          50.000  
G12  20154544.940   105912853.863          50.000                                                  
G19  24058031.380   126425807.719          50.000                                                  
G24  23005091.440   120892503.703          50.000    23005094.920    90276863.527          50.000  
G25  21447489.460   112707264.105          50.000    21447491.560    84164516.309          50.000  
G29  23476236.040   123368424.363          50.000                                                  
E 1  25459449.760   133790299.992          50.000    25459453.540    99908331.195          50.000  
E13  23515076.120   123572549.078          50.000    23515079.720    92278193.453          50.000  
E15  26968897.980   141722470.293          50.000    26968904.040   105831698.797          50.000  
E21  23459044.860   123278096.699          50.000    23459049.080    92058309.723          50.000  
E27  25755378.860   135345388.898          50.000    25755384.180   101069592.125          50.000  
> 2020  5 14 22  7 54.0000000  0 13       0.000000000000
G 2  21013964.880   110429167.484          50.000                                                  
G 5  23089649.580   121336905.008          50.000                                                  
G 6  22283708.300   117101629.891          50.000    22283710.840    87446023.250          50.000  
G12  20154417.000   105912181.633          50.000                                                  
G19  24058562.780   126428600.211          50.000                                                  
G24  23005649.880   120895438.273          50.000    23005653.360    90279054.926          50.000  
G25  21447038.520   112704894.383          50.000    21447040.620    84162746.711          50.000  
G29  23475791.560   123366088.637          50.000                                                  
E 1  25459044.940   133788172.559          50.000    25459048.700    99906742.527          50.000  
E13  23515291.980   123573683.375          50.000    23515295.580    92279040.492          50.000  
E15  26969388.340   141725047.090          50.000    26969394.380   105833623.027          50.000  
E21  23459119.680   123278489.863          50.000    23459123.900    92058603.320          50.000  
E27  25755875.740   135348000.023          50.000    25755881.060   101071541.992          50.000  
> 2020  5 14 22  7 55.0000000  0 13       0.000000000000
G 2  21014184.000   110430318.930          50.000                                                  
G 5  23089065.560   121333836.031          50.000                                                  
G 6  22284234.800   117104396.746          50.000    22284237.360    87448089.406          50.000  
G12  20154289.180   105911509.902          50.000                                                  
G19  24059094.180   126431392.723          50.000                                                  
G24  23006208.340   120898373.063          50.000    23006211.840    90281246.488          50.000  
G25  21446587.640   112702524.996          50.000    21446589.740    84160977.363          50.000  
G29  23475347.100   123363753.031          50.000                                                  
E 1  25458640.140   133786045.359          50.000    25458643.900    99905154.035          50.000  
E13  23515507.880   123574817.914          50.000    23515511.480    92279887.715          50.000  
E15  26969878.680   141727623.871          50.000    26969884.720   105835547.246          50.000  
E21  23459194.580   123278883.445          50.000    23459198.800    92058897.230          50.000  
E27  25756372.660   135350611.375          50.000    25756377.980   101073492.023          50.000  
> 2020  5 14 22  7 56.0000000  0 13       0.000000000000
G 2  21014403.200   110431470.816          50.000                                                  
G 5  23088481.600   121330767.258          50.000                                                  
G 6  22284761.380   117107163.902          50.000    22284763.940    87450155.789          50.000  
G12  20154161.460   105910838.668          50.000                                                  
G19  24059625.580   126434185.250          50.000                                                  
G24  23006766.860   120901308.082          50.000    23006770.340    90283438.223          50.000  
G25  21446136.820   112700155.945          50.000    21446138.920    84159208.266          50.000  
G29  23474902.680   123361417.547          50.000                                                  
E 1  25458235.400   133783918.398          50.000    25458239.160    99903565.719          50.000  
E13  23515723.820   123575952.699          50.000    23515727.420    92280735.117          50.000  
E15  26970369.020   141730200.648          50.000    26970375.080   105837471.461          50.000  
E21  23459269.540   123279277.445          50.000    23459273.760    92059191.449          50.000  
E27  25756869.640   135353222.957          50.000    25756874.960   101075442.230          50.000  
> 2020  5 14 22  7 57.0000000  0 13       0.000000000000
G 2  21014622.480   110432623.125          50.000                                                  
G 5  23087897.660   121327698.695          50.000                                                  
G 6  22285288.020   117109931.371          50.000    22285290.560    87452222.406          50.000  
G12  20154033.820   105910167.930          50.000                                                  
G19  24060156.980   126436977.789          50.000                                                  
G24  23007325.420   120904243.301          50.000    23007328.900    90285630.105          50.000  
G25  21445686.080   112697787.230          50.000    21445688.160    84157439.422          50.000  
G29  23474458.280   123359082.176          50.000                                                  
E 1  25457830.680   133781791.672          50.000    25457834.460    99901977.582          50.000  
E13  23515939.800   123577087.730          50.000    23515943.400    92281582.707          50.000  
E15  26970859.360   141732777.414          50.000    26970865.420   105839395.668          50.000  
E21  23459344.600   123279671.875          50.000    23459348.820    92059485.992          50.000  
E27  25757366.640   135355834.762          50.000    25757371.960   101077392.605          50.000  
> 2020  5 14 22  7 58.0000000  0 13       0.000000000000
G 2  21014841.820   110433775.832          50.000                                                  
G 5  23087313.780   121324630.324          50.000                                                  
G 6  22285814.700   117112699.125          50.000    22285817.260    87454289.234          50.000  
G12  20153906.260   105909497.680          50.000                                                  
G19  24060688.400   126439770.352          50.000                                                  
G24  23007884.020   120907178.715          50.000    23007887.500    90287822.137          50.000  
G25  21445235.380   112695418.855          50.000    21445237.480    84155670.832          50.000  
G29  23474013.900   123356746.930          50.000                                                  
E 1  25457426.020   133779665.168          50.000    25457429.800    99900389.605          50.000  
E13  23516155.840   123578223.004          50.000    23516159.440    92282430.477          50.000  
E15  26971349.700   141735354.164          50.000    26971355.760   105841319.863          50.000  
E21  23459419.740   123280066.715          50.000    23459423.960    92059780.840          50.000  
E27  25757863.700   135358446.789          50.000    25757869.020   101079343.145          50.000  
> 2020  5 14 22  7 59.0000000  0 13       0.000000000000
G 2  21015061.260   110434928.980          50.000                                                  
G 5  23086729.920   121321562.180          50.000                                                  
G 6  22286341.440   117115467.195          50.000    22286344.000    87456356.301          50.000  
G12  20153778.820   105908827.934          50.000                                                  
G19  24061219.800   126442562.938          50.000                                                  
G24  23008442.640   120910114.367          50.000    23008446.140    90290014.340          50.000  
G25  21444784.760   112693050.820          50.000    21444786.860    84153902.496          50.000  
G29  23473569.520   123354411.805          50.000                                                  
E 1  25457021.420   133777538.910          50.000    25457025.180    99898801.820          50.000  
E13  23516371.920   123579358.527          50.000    23516375.520    92283278.434          50.000  
E15  26971840.040   141737930.906          50.000    26971846.100   105843244.051          50.000  
E21  23459494.960   123280461.977          50.000    23459499.180    92060076.004          50.000  
E27  25758360.800   135361059.047          50.000    25758366.120   101081293.852          50.000  
> 2020  5 14 22  8  0.0000000  0 13       0.000000000000
G 2  21015280.780   110436082.527          50.000                                                  
G 5  23086146.120   121318494.227          50.000                                                  
G 6  22286868.240   117118235.563          50.000    22286870.800    87458423.582          50.000  
G12  20153651.460   105908158.684          50.000                                                  
G19  24061751.220   126445355.539          50.000                                                  
G24  23009001.320   120913050.262          50.000    23009004.820    90292206.727          50.000  
G25  21444334.200   112690683.129          50.000    21444336.300    84152134.414          50.000  
G29  23473125.200   123352076.789          50.000                                                  
E 1  25456616.840   133775412.887          50.000    25456620.620    99897214.207          50.000  
E13  23516588.060   123580494.293          50.000    23516591.660    92284126.566          50.000  
E15  26972330.380   141740507.641          50.000    26972336.440   105845168.234          50.000  
E21  23459570.260   123280857.668          50.000    23459574.480    92060371.484          50.000  
E27  25758857.940   135363671.531          50.000    25758863.260   101083244.734          50.000  
> 2020  5 14 22  8  1.0000000  0 13       0.000000000000
G 2  21015500.380   110437236.508          50.000                                                  
G 5  23085562.340   121315426.492          50.000                                                  
G 6  22287395.120   117121004.234          50.000    22287397.660    87460491.098          50.000  
G12  20153524.200   105907489.934          50.000                                                  
G19  24062282.640   126448148.152          50.000                                                  
G24  23009560.060   120915986.363          50.000    23009563.540    90294399.270          50.000  
G25  21443883.720   112688315.773          50.000    21443885.800    84150366.582          50.000  
G29  23472680.880   123349741.902          50.000                                                  
E 1  25456212.320   133773287.105          50.000    25456216.080    99895626.773          50.000  
E13  23516804.220   123581630.305          50.000    23516807.820    92284974.891          50.000  
E15  26972820.720   141743084.352          50.000    26972826.760   105847092.402          50.000  
E21  23459645.640   123281253.781          50.000    23459649.860    92060667.285          50.000  
E27  25759355.120   135366284.230          50.000    25759360.440   101085195.773          50.000  
> 2020  5 14 22  8  2.0000000  0 13       0.000000000000
G 2  21015720.040   110438390.891          50.000                                                  
G 5  23084978.600   121312358.965          50.000                                                  
G 6  22287922.020   117123773.203          50.000    22287924.580    87462558.836          50.000  
G12  20153397.040   105906821.688          50.000                                                  
G19  24062814.060   126450940.793          50.000                                                  
G24  23010118.820   120918922.664          50.000    23010122.300    90296591.961          50.000  
G25  21443433.280   112685948.754          50.000    21443435.380    84148599.004          50.000  
G29  23472236.580   123347407.137          50.000                                                  
E 1  25455807.840   133771161.559          50.000    25455811.620    99894039.512          50.000  
E13  23517020.460   123582766.563          50.000    23517024.060    92285823.395          50.000  
E15  26973311.040   141745661.063          50.000    26973317.100   105849016.566          50.000  
E21  23459721.080   123281650.313          50.000    23459725.300    92060963.395          50.000  
E27  25759852.340   135368897.172          50.000    25759857.660   101087146.996          50.000  
> 2020  5 14 22  8  3.0000000  0 13       0.000000000000
G 2  21015939.800   110439545.715          50.000                                                  
G 5  23084394.920   121309291.648          50.000                                                  
G 6  22288449.000   117126542.477          50.000    22288451.560    87464626.797          50.000  
G12  20153269.980   105906153.930          50.000                                                  
G19  24063345.480   126453733.449          50.000                                                  
G24  23010677.620   120921859.176          50.000    23010681.100    90298784.809          50.000  
G25  21442982.920   112683582.070          50.000    21442985.020    84146831.676          50.000  
G29  23471792.320   123345072.488          50.000                                                  
E 1  25455403.400   133769036.242          50.000    25455407.180    99892452.426          50.000  
E13  23517236.720   123583903.074          50.000    23517240.320    92286672.086          50.000  
E15  26973801.380   141748237.770          50.000    26973807.420   105850940.730          50.000  
E21  23459796.620   123282047.266          50.000    23459800.840    92061259.820          50.000  
E27  25760349.600   135371510.324          50.000    25760354.940   101089098.375          50.000  
> 2020  5 14 22  8  4.0000000  0 13       0.000000000000
G 2  21016159.640   110440700.941          50.000                                                  
G 5  23083811.260   121306224.535          50.000                                                  
G 6  22288976.040   117129312.047          50.000    22288978.600    87466694.984          50.000  
G12  20153143.000   105905486.672          50.000                                                  
G19  24063876.920   126456526.129          50.000                                                  
G24  23011236.460   120924795.922          50.000    23011239.940    90300977.832          50.000  
G25  21442532.620   112681215.723          50.000    21442534.720    84145064.602          50.000  
G29  23471348.060   123342737.965          50.000                                                  
E 1  25454999.020   133766911.168          50.000    25455002.780    99890865.523          50.000  
E13  23517453.040   123585039.824          50.000    23517456.640    92287520.961          50.000  
E15  26974291.700   141750814.453          50.000    26974297.760   105852864.875          50.000  
E21  23459872.240   123282444.645          50.000    23459876.460    92061556.566          50.000  
E27  25760846.920   135374123.727          50.000    25760852.240   101091049.938          50.000  
> 2020  5 14 22  8  5.0000000  0 13       0.000000000000
G 2  21016379.540   110441856.594          50.000                                                  
G 5  23083227.640   121303157.629          50.000                                                  
G 6  22289503.120   117132081.930          50.000    22289505.680    87468763.402          50.000  
G12  20153016.120   105904819.918          50.000                                                  
G19  24064408.360   126459318.828          50.000                                                  
G24  23011795.340   120927732.871          50.000    23011798.820    90303171.008          50.000  
G25  21442082.380   112678849.727          50.000    21442084.480    84143297.785          50.000  
G29  23470903.840   123340403.559          50.000                                                  
E 1  25454594.680   133764786.332          50.000    25454598.440    99889278.793          50.000  
E13  23517669.400   123586176.824          50.000    23517673.000    92288370.016          50.000  
E15  26974782.040   141753391.129          50.000    26974788.080   105854789.020          50.000  
E21  23459947.940   123282842.445          50.000    23459952.160    92061853.625          50.000  
E27  25761344.280   135376737.344          50.000    25761349.600   101093001.664          50.000  
> 2020  5 14 22  8  6.0000000  0 13       0.000000000000
G 2  21016599.540   110443012.668          50.000                                                  
G 5  23082644.080   121300090.922          50.000                                                  
G 6  22290030.280   117134852.105          50.000    22290032.840    87470832.039          50.000  
G12  20152889.340   105904153.652          50.000                                                  
G19  24064939.800   126462111.555          50.000                                                  
G24  23012354.260   120930670.016          50.000    23012357.740    90305364.328          50.000  
G25  21441632.220   112676484.055          50.000    21441634.300    84141531.215          50.000  
G29  23470459.640   123338069.266          50.000                                                  
E 1  25454190.380   133762661.723          50.000    25454194.140    99887692.234          50.000  
E13  23517885.820   123587314.066          50.000    23517889.420    92289219.258          50.000  
E15  26975272.360   141755967.797          50.000    26975278.400   105856713.148          50.000  
E21  23460023.720   123283240.664          50.000    23460027.940    92062150.992          50.000  
E27  25761841.680   135379351.180          50.000    25761847.000   101094953.555          50.000  
> 2020  5 14 22  8  7.0000000  0 13       0.000000000000
G 2  21016819.620   110444169.168          50.000                                                  
G 5  23082060.540   121297024.430          50.000                                                  
G 6  22290557.480   117137622.586          50.000    22290560.040    87472900.902          50.000  
G12  20152762.640   105903487.902          50.000                                                  
G19  24065471.240   126464904.309          50.000                                                  
G24  23012913.220   120933607.383          50.000    23012916.720    90307557.816          50.000  
G25  21441182.100   112674118.723          50.000    21441184.200    84139764.895          50.000  
G29  23470015.460   123335735.094          50.000                                                  
E 1  25453786.120   133760537.359          50.000    25453789.880    99886105.859          50.000  
E13  23518102.280   123588451.563          50.000    23518105.860    92290068.684          50.000  
E15  26975762.680   141758544.453          50.000    26975768.740   105858637.273          50.000  
E21  23460099.580   123283639.309          50.000    23460103.800    92062448.684          50.000  
E27  25762339.120   135381965.246          50.000    25762344.440   101096905.617          50.000  
> 2020  5 14 22  8  8.0000000  0 13       0.000000000000
G 2  21017039.760   110445326.082          50.000                                                  
G 5  23081477.040   121293958.145          50.000                                                  
G 6  22291084.740   117140393.359          50.000    22291087.300    87474969.988          50.000  
G12  20152636.040   105902822.629          50.000                                                  
G19  24066002.680   126467697.074          50.000                                                  
G24  23013472.220   120936544.961          50.000    23013475.720    90309751.461          50.000  
G25  21440732.060   112671753.734          50.000    21440734.160    84137998.832          50.000  
G29  23469571.300   123333401.039          50.000                                                  
E 1  25453381.920   133758413.227          50.000    25453385.680    99884519.656          50.000  
E13  23518318.780   123589589.285          50.000    23518322.380    92290918.281          50.000  
E15  26976253.000   141761121.098          50.000    26976259.060   105860561.395          50.000  
E21  23460175.520   123284038.375          50.000    23460179.740    92062746.688          50.000  
E27  25762836.600   135384579.543          50.000    25762841.920   101098857.852          50.000  
> 2020  5 14 22  8  9.0000000  0 13       0.000000000000
G 2  21017260.000   110446483.418          50.000                                                  
G 5  23080893.580   121290892.066          50.000                                                  
G 6  22291612.060   117143164.445          50.000    22291614.620    87477039.305          50.000  
G12  20152509.540   105902157.863          50.000                                                  
G19  24066534.140   126470489.855          50.000                                                  
G24  23014031.280   120939482.781          50.000    23014034.760    90311945.285          50.000  
G25  21440282.080   112669389.086          50.000    21440284.180    84136233.023          50.000  
G29  23469127.180   123331067.105          50.000                                                  
E 1  25452977.740   133756289.324          50.000    25452981.520    99882933.629          50.000  
E13  23518535.320   123590727.266          50.000    23518538.920    92291768.074          50.000  
E15  26976743.320   141763697.734          50.000    26976749.360   105862485.504          50.000  
E21  23460251.540   123284437.855          50.000    23460255.760    92063045.000          50.000  
E27  25763334.120   135387194.051          50.000    25763339.460   101100810.238          50.000  
> 2020  5 14 22  8 10.0000000  0 13       0.000000000000
G 2  21017480.320   110447641.168          50.000                                                  
G 5  23080310.160   121287826.188          50.000                                                  
G 6  22292139.440   117145935.824          50.000    22292142.000    87479108.840          50.000  
G12  20152383.140   105901493.586          50.000                                                  
G19  24067065.580   126473282.660          50.000                                                  
G24  23014590.360   120942420.789          50.000    23014593.860    90314139.254          50.000  
G25  21439832.160   112667024.766          50.000    21439834.260    84134467.461          50.000  
G29  23468683.060   123328733.273          50.000                                                  
E 1  25452573.620   133754165.664          50.000    25452577.400    99881347.777          50.000  
E13  23518751.920   123591865.488          50.000    23518755.520    92292618.043          50.000  
E15  26977233.640   141766274.352          50.000    26977239.680   105864409.598          50.000  
E21  23460327.640   123284837.766          50.000    23460331.860    92063343.633          50.000  
E27  25763831.700   135389808.797          50.000    25763837.020   101102762.809          50.000  
> 2020  5 14 22  8 11.0000000  0 13       0.000000000000
G 2  21017700.700   110448799.344          50.000                                                  
G 5  23079726.800   121284760.527          50.000                                                  
G 6  22292666.880   117148707.504          50.000    22292669.420    87481178.598          50.000  
G12  20152256.820   105900829.813          50.000                                                  
G19  24067597.040   126476075.477          50.000                                                  
G24  23015149.500   120945359.016          50.000    23015152.980    90316333.383          50.000  
G25  21439382.320   112664660.793          50.000    21439384.400    84132702.156          50.000  
G29  23468238.980   123326399.590          50.000                                                  
E 1  25452169.560   133752042.238          50.000    25452173.320    99879762.105          50.000  
E13  23518968.560   123593003.957          50.000    23518972.160    92293468.199          50.000  
E15  26977723.940   141768850.965          50.000    26977730.000   105866333.691          50.000  
E21  23460403.820   123285238.090          50.000    23460408.040    92063642.578          50.000  
E27  25764329.300   135392423.758          50.000    25764334.640   101104715.539          50.000  
> 2020  5 14 22  8 12.0000000  0 13       0.000000000000
G 2  21017921.180   110449957.941          50.000                                                  
G 5  23079143.460   121281695.082          50.000                                                  
G 6  22293194.360   117151479.492          50.000    22293196.920    87483248.590          50.000  
G12  20152130.620   105900166.539          50.000                                                  
G19  24068128.500   126478868.320          50.000                                                  
G24  23015708.660   120948297.441          50.000    23015712.140    90318527.660          50.000  
G25  21438932.540   112662297.156          50.000    21438934.620    84130937.102          50.000  
G29  23467794.900   123324066.023          50.000                                                  
E 1  25451765.520   133749919.051          50.000    25451769.300    99878176.609          50.000  
E13  23519185.260   123594142.680          50.000    23519188.860    92294318.543          50.000  
E15  26978214.260   141771427.570          50.000    26978220.320   105868257.777          50.000  
E21  23460480.080   123285638.844          50.000    23460484.300    92063941.840          50.000  
E27  25764826.960   135395038.965          50.000    25764832.300   101106668.453          50.000  
> 2020  5 14 22  8 13.0000000  0 13       0.000000000000
G 2  21018141.740   110451116.938          50.000                                                  
G 5  23078560.160   121278629.840          50.000                                                  
G 6  22293721.920   117154251.773          50.000    22293724.460    87485318.797          50.000  
G12  20152004.480   105899503.758          50.000                                                  
G19  24068659.960   126481661.176          50.000                                                  
G24  23016267.860   120951236.090          50.000    23016271.360    90320722.105          50.000  
G25  21438482.820   112659933.859          50.000    21438484.900    84129172.309          50.000  
G29  23467350.860   123321732.574          50.000                                                  
E 1  25451361.540   133747796.098          50.000    25451365.300    99876591.285          50.000  
E13  23519402.000   123595281.633          50.000    23519405.600    92295169.063          50.000  
E15  26978704.560   141774004.152          50.000    26978710.620   105870181.848          50.000  
E21  23460556.420   123286040.012          50.000    23460560.640    92064241.414          50.000  
E27  25765324.660   135397654.383          50.000    25765329.980   101108621.520          50.000  
> 2020  5 14 22  8 14.0000000  0 13       0.000000000000
G 2  21018362.360   110452276.363          50.000                                                  
G 5  23077976.900   121275564.801          50.000                                                  
G 6  22294249.520   117157024.355          50.000    22294252.080    87487389.234          50.000  
G12  20151878.460   105898841.477          50.000                                                  
G19  24069191.440   126484454.047          50.000                                                  
G24  23016827.100   120954174.949          50.000    23016830.600    90322916.707          50.000  
G25  21438033.160   112657570.902          50.000    21438035.240    84127407.762          50.000  
G29  23466906.840   123319399.238          50.000                                                  
E 1  25450957.600   133745673.379          50.000    25450961.360    99875006.141          50.000  
E13  23519618.780   123596420.836          50.000    23519622.380    92296019.766          50.000  
E15  26979194.880   141776580.723          50.000    26979200.920   105872105.910          50.000  
E21  23460632.840   123286441.598          50.000    23460637.060    92064541.301          50.000  
E27  25765822.400   135400270.023          50.000    25765827.740   101110574.758          50.000  
> 2020  5 14 22  8 15.0000000  0 13       0.000000000000
G 2  21018583.080   110453436.215          50.000                                                  
G 5  23077393.680   121272499.969          50.000                                                  
G 6  22294777.180   117159797.238          50.000    22294779.740    87489459.891          50.000  
G12  20151752.520   105898179.695          50.000                                                  
G19  24069722.900   126487246.934          50.000                                                  
G24  23017386.400   120957114.031          50.000    23017389.880    90325111.473          50.000  
G25  21437583.560   112655208.301          50.000    21437585.660    84125643.480          50.000  
G29  23466462.840   123317066.039          50.000                                                  
E 1  25450553.700   133743550.910          50.000    25450557.480    99873421.176          50.000  
E13  23519835.600   123597560.293          50.000    23519839.200    92296870.656          50.000  
E15  26979685.180   141779157.293          50.000    26979691.240   105874029.973          50.000  
E21  23460709.340   123286843.617          50.000    23460713.560    92064841.508          50.000  
E27  25766320.200   135402885.898          50.000    25766325.520   101112528.172          50.000  
> 2020  5 14 22  8 16.0000000  0 13       0.000000000000
G 2  21018803.860   110454596.477          50.000                                                  
G 5  23076810.500   121269435.348          50.000                                                  
G 6  22295304.900   117162570.426          50.000    22295307.460    87491530.777          50.000  
G12  20151626.680   105897518.414          50.000                                                  
G19  24070254.380   126490039.836          50.000                                                  
G24  23017945.740   120960053.340          50.000    23017949.220    90327306.410          50.000  
G25  21437134.040   112652846.020          50.000    21437136.120    84123879.441          50.000  
G29  23466018.880   123314732.965          50.000                                                  
E 1  25450149.860   133741428.672          50.000    25450153.620    99871836.391          50.000  
E13  23520052.480   123598699.988          50.000    23520056.080    92297721.730          50.000  
E15  26980175.480   141781733.852          50.000    26980181.540   105875954.023          50.000  
E21  23460785.920   123287246.063          50.000    23460790.140    92065142.035          50.000  
E27  25766818.020   135405501.996          50.000    25766823.340   101114481.750          50.000  
> 2020  5 14 22  8 17.0000000  0 13       0.000000000000
G 2  21019024.740   110455757.148          50.000                                                  
G 5  23076227.360   121266370.938          50.000                                                  
G 6  22295832.680   117165343.910          50.000    22295835.240    87493601.883          50.000  
G12  20151500.940   105896857.621          50.000                                                  
G19  24070785.860   126492832.766          50.000                                                  
G24  23018505.100   120962992.859          50.000    23018508.600    90329501.504          50.000  
G25  21436684.580   112650484.090          50.000    21436686.660    84122115.664          50.000  
G29  23465574.920   123312399.977          50.000                                                  
E 1  25449746.060   133739306.668          50.000    25449749.820    99870251.777          50.000  
E13  23520269.400   123599839.926          50.000    23520273.000    92298572.980          50.000  
E15  26980665.780   141784310.395          50.000    26980671.840   105877878.066          50.000  
E21  23460862.580   123287648.914          50.000    23460866.800    92065442.867          50.000  
E27  25767315.880   135408118.313          50.000    25767321.220   101116435.492          50.000  
> 2020  5 14 22  8 18.0000000  0 13       0.000000000000
G 2  21019245.680   110456918.246          50.000                                                  
G 5  23075644.260   121263306.738          50.000                                                  
G 6  22296360.520   117168117.695          50.000    22296363.060    87495673.215          50.000  
G12  20151375.300   105896197.336          50.000                                                  
G19  24071317.340   126495625.703          50.000                                                  
G24  23019064.520   120965932.570          50.000    23019068.000    90331696.742          50.000  
G25  21436235.180   112648122.488          50.000    21436237.260    84120352.133          50.000  
G29  23465131.000   123310067.125          50.000                                                  
E 1  25449342.300   133737184.906          50.000    25449346.060    99868667.344          50.000  
E13  23520486.380   123600980.113          50.000    23520489.980    92299424.422          50.000  
E15  26981156.080   141786886.918          50.000    26981162.140   105879802.090          50.000  
E21  23460939.320   123288052.191          50.000    23460943.540    92065744.016          50.000  
E27  25767813.800   135410734.863          50.000    25767819.120   101118389.406          50.000  
> 2020  5 14 22  8 19.0000000  0 13       0.000000000000
G 2  21019466.720   110458079.766          50.000                                                  
G 5  23075061.200   121260242.738          50.000                                                  
G 6  22296888.400   117170891.785          50.000    22296890.960    87497744.777          50.000  
G12  20151249.740   105895537.543          50.000                                                  
G19  24071848.820   126498418.660          50.000                                                  
G24  23019623.960   120968872.504          50.000    23019627.460    90333892.145          50.000  
G25  21435785.840   112645761.242          50.000    21435787.940    84118588.863          50.000  
G29  23464687.100   123307734.387          50.000                                                  
E 1  25448938.580   133735063.371          50.000    25448942.340    99867083.082          50.000  
E13  23520703.400   123602120.547          50.000    23520707.000    92300276.039          50.000  
E15  26981646.380   141789463.445          50.000    26981652.440   105881726.121          50.000  
E21  23461016.160   123288455.895          50.000    23461020.380    92066045.484          50.000  
E27  25768311.760   135413351.629          50.000    25768317.080   101120343.484          50.000  
> 2020  5 14 22  8 20.0000000  0 13       0.000000000000
G 2  21019687.820   110459241.703          50.000                                                  
G 5  23074478.180   121257178.957          50.000                                                  
G 6  22297416.360   117173666.168          50.000    22297418.900    87499816.555          50.000  
G12  20151124.280   105894878.258          50.000                                                  
G19  24072380.300   126501211.641          50.000                                                  
G24  23020183.460   120971812.652          50.000    23020186.940    90336087.711          50.000  
G25  21435336.580   112643400.328          50.000    21435338.680    84116825.844          50.000  
G29  23464243.200   123305401.781          50.000                                                  
E 1  25448534.920   133732942.082          50.000    25448538.680    99865499.004          50.000  
E13  23520920.460   123603261.215          50.000    23520924.060    92301127.840          50.000  
E15  26982136.680   141792039.953          50.000    26982142.720   105883650.133          50.000  
E21  23461093.060   123288860.023          50.000    23461097.280    92066347.266          50.000  
E27  25768809.760   135415968.633          50.000    25768815.080   101122297.738          50.000  
> 2020  5 14 22  8 21.0000000  0 13       0.000000000000
G 2  21019909.020   110460404.066          50.000                                                  
G 5  23073895.200   121254115.375          50.000                                                  
G 6  22297944.360   117176440.863          50.000    22297946.920    87501888.566          50.000  
G12  20150998.920   105894219.473          50.000                                                  
G19  24072911.800   126504004.637          50.000                                                  
G24  23020742.980   120974752.996          50.000    23020746.480    90338283.418          50.000  
G25  21434887.380   112641039.754          50.000    21434889.460    84115063.078          50.000  
G29  23463799.340   123303069.266          50.000                                                  
E 1  25448131.280   133730821.023          50.000    25448135.060    99863915.098          50.000  
E13  23521137.560   123604402.148          50.000    23521141.160    92301979.836          50.000  
E15  26982626.960   141794616.453          50.000    26982633.020   105885574.141          50.000  
E21  23461170.040   123289264.574          50.000    23461174.260    92066649.363          50.000  
E27  25769307.800   135418585.859          50.000    25769313.120   101124252.160          50.000  
> 2020  5 14 22  8 22.0000000  0 13       0.000000000000
G 2  21020130.280   110461566.832          50.000                                                  
G 5  23073312.260   121251052.012          50.000                                                  
G 6  22298472.420   117179215.844          50.000    22298474.980    87503960.793          50.000  
G12  20150873.660   105893561.176          50.000                                                  
G19  24073443.280   126506797.656          50.000                                                  
G24  23021302.560   120977693.566          50.000    23021306.060    90340479.297          50.000  
G25  21434438.240   112638679.516          50.000    21434440.320    84113300.563          50.000  
G29  23463355.500   123300736.879          50.000                                                  
E 1  25447727.700   133728700.203          50.000    25447731.480    99862331.367          50.000  
E13  23521354.720   123605543.313          50.000    23521358.320    92302832.000          50.000  
E15  26983117.260   141797192.934          50.000    26983123.300   105887498.137          50.000  
E21  23461247.100   123289669.539          50.000    23461251.320    92066951.773          50.000  
E27  25769805.880   135421203.305          50.000    25769811.220   101126206.746          50.000  
> 2020  5 14 22  8 23.0000000  0 13       0.000000000000
G 2  21020351.620   110462730.027          50.000                                                  
G 5  23072729.360   121247988.859          50.000                                                  
G 6  22299000.540   117181991.125          50.000    22299003.100    87506033.242          50.000  
G12  20150748.480   105892903.383          50.000                                                  
G19  24073974.780   126509590.691          50.000                                                  
G24  23021862.180   120980634.344          50.000    23021865.660    90342675.332          50.000  
G25  21433989.160   112636319.613          50.000    21433991.260    84111538.297          50.000  
G29  23462911.700   123298404.625          50.000                                                  
E 1  25447324.180   133726579.617          50.000    25447327.940    99860747.816          50.000  
E13  23521571.920   123606684.719          50.000    23521575.520    92303684.352          50.000  
E15  26983607.540   141799769.406          50.000    26983613.600   105889422.125          50.000  
E21  23461324.240   123290074.934          50.000    23461328.460    92067254.504          50.000  
E27  25770304.000   135423820.977          50.000    25770309.340   101128161.500          50.000  
> 2020  5 14 22  8 24.0000000  0 13       0.000000000000
G 2  21020573.060   110463893.637          50.000                                                  
G 5  23072146.500   121244925.926          50.000                                                  
G 6  22299528.720   117184766.711          50.000    22299531.280    87508105.918          50.000  
G12  20150623.400   105892246.094          50.000                                                  
G19  24074506.280   126512383.754          50.000                                                  
G24  23022421.820   120983575.348          50.000    23022425.320    90344871.535          50.000  
G25  21433540.160   112633960.055          50.000    21433542.240    84109776.293          50.000  
G29  23462467.900   123296072.484          50.000                                                  
E 1  25446920.680   133724459.273          50.000    25446924.440    99859164.441          50.000  
E13  23521789.180   123607826.375          50.000    23521792.780    92304536.887          50.000  
E15  26984097.820   141802345.867          50.000    26984103.880   105891346.105          50.000  
E21  23461401.460   123290480.750          50.000    23461405.680    92067557.547          50.000  
E27  25770802.180   135426438.867          50.000    25770807.500   101130116.414          50.000  
> 2020  5 14 22  8 25.0000000  0 13       0.000000000000
G 2  21020794.560   110465057.668          50.000                                                  
G 5  23071563.680   121241863.191          50.000                                                  
G 6  22300056.960   117187542.598          50.000    22300059.500    87510178.820          50.000  
G12  20150498.420   105891589.289          50.000                                                  
G19  24075037.800   126515176.820          50.000                                                  
G24  23022981.520   120986516.543          50.000    23022985.020    90347067.883          50.000  
G25  21433091.200   112631600.832          50.000    21433093.300    84108014.535          50.000  
G29  23462024.120   123293740.465          50.000                                                  
E 1  25446517.240   133722339.168          50.000    25446521.000    99857581.246          50.000  
E13  23522006.480   123608968.270          50.000    23522010.080    92305389.602          50.000  
E15  26984588.100   141804922.316          50.000    26984594.160   105893270.074          50.000  
E21  23461478.780   123290886.980          50.000    23461483.000    92067860.902          50.000  
E27  25771300.400   135429056.996          50.000    25771305.720   101132071.512          50.000  
> 2020  5 14 22  8 26.0000000  0 13       0.000000000000
G 2  21021016.160   110466222.125          50.000                                                  
G 5  23070980.900   121238800.672          50.000                                                  
G 6  22300585.240   117190318.777          50.000    22300587.800    87512251.941          50.000  
G12  20150373.520   105890932.992          50.000                                                  
G19  24075569.300   126517969.914          50.000                                                  
G24  23023541.260   120989457.965          50.000    23023544.740    90349264.395          50.000  
G25  21432642.320   112629241.957          50.000    21432644.420    84106253.039          50.000  
G29  23461580.380   123291408.555          50.000                                                  
E 1  25446113.840   133720219.293          50.000    25446117.600    99855998.223          50.000  
E13  23522223.820   123610110.414          50.000    23522227.420    92306242.500          50.000  
E15  26985078.380   141807498.758          50.000    26985084.440   105895194.039          50.000  
E21  23461556.160   123291293.637          50.000    23461560.380    92068164.574          50.000  
E27  25771798.640   135431675.340          50.000    25771803.980   101134026.766          50.000  
> 2020  5 14 22  8 27.0000000  0 13       0.000000000000
G 2  21021237.820   110467386.988          50.000                                                  
G 5  23070398.180   121235738.375          50.000                                                  
G 6  22301113.600   117193095.270          50.000    22301116.140    87514325.293          50.000  
G12  20150248.720   105890277.176          50.000                                                  
G19  24076100.800   126520763.004          50.000                                                  
G24  23024101.020   120992399.582          50.000    23024104.520    90351461.059          50.000  
G25  21432193.520   112626883.422          50.000    21432195.600    84104491.797          50.000  
G29  23461136.660   123289076.777          50.000                                                  
E 1  25445710.500   133718099.664          50.000    25445714.260    99854415.387          50.000  
E13  23522441.200   123611252.805          50.000    23522444.800    92307095.582          50.000  
E15  26985568.660   141810075.180          50.000    26985574.720   105897117.988          50.000  
E21  23461633.620   123291700.715          50.000    23461637.840    92068468.559          50.000  
E27  25772296.940   135434293.914          50.000    25772302.280   101135982.195          50.000  
> 2020  5 14 22  8 28.0000000  0 13       0.000000000000
G 2  21021459.560   110468552.273          50.000                                                  
G 5  23069815.480   121232676.285          50.000                                                  
G 6  22301642.000   117195872.047          50.000    22301644.560    87516398.863          50.000  
G12  20150124.020   105889621.875          50.000                                                  
G19  24076632.320   126523556.121          50.000                                                  
G24  23024660.840   120995341.395          50.000    23024664.320    90353657.867          50.000  
G25  21431744.760   112624525.223          50.000    21431746.860    84102730.805          50.000  
G29  23460692.960   123286745.117          50.000                                                  
E 1  25445307.180   133715980.266          50.000    25445310.940    99852832.719          50.000  
E13  23522658.640   123612395.438          50.000    23522662.240    92307948.848          50.000  
E15  26986058.940   141812651.598          50.000    26986065.000   105899041.938          50.000  
E21  23461711.160   123292108.215          50.000    23461715.380    92068772.863          50.000  
E27  25772795.280   135436912.715          50.000    25772800.620   101137937.793          50.000  
> 2020  5 14 22  8 29.0000000  0 13       0.000000000000
G 2  21021681.400   110469717.980          50.000                                                  
G 5  23069232.820   121229614.398          50.000                                                  
G 6  22302170.460   117198649.129          50.000    22302173.020    87518472.656          50.000  
G12  20149999.420   105888967.082          50.000                                                  
G19  24077163.840   126526349.273          50.000                                                  
G24  23025220.680   120998283.434          50.000    23025224.180    90355854.840          50.000  
G25  21431296.080   112622167.367          50.000    21431298.160    84100970.070          50.000  
G29  23460249.280   123284413.570          50.000                                                  
E 1  25444903.920   133713861.109          50.000    25444907.680    99851250.234          50.000  
E13  23522876.120   123613538.316          50.000    23522879.720    92308802.297          50.000  
E15  26986549.220   141815228.000          50.000    26986555.280   105900965.871          50.000  
E21  23461788.800   123292516.141          50.000    23461793.020    92069077.480          50.000  
E27  25773293.680   135439531.734          50.000    25773299.000   101139893.551          50.000  
> 2020  5 14 22  8 30.0000000  0 13       0.000000000000
G 2  21021903.300   110470884.113          50.000                                                  
G 5  23068650.200   121226552.734          50.000                                                  
G 6  22302698.980   117201426.516          50.000    22302701.540    87520546.676          50.000  
G12  20149874.920   105888312.781          50.000                                                  
G19  24077695.360   126529142.441          50.000                                                  
G24  23025780.580   121001225.684          50.000    23025784.080    90358051.973          50.000  
G25  21430847.460   112619809.863          50.000    21430849.540    84099209.594          50.000  
G29  23459805.620   123282082.152          50.000                                                  
E 1  25444500.700   133711742.188          50.000    25444504.460    99849667.922          50.000  
E13  23523093.660   123614681.438          50.000    23523097.260    92309655.926          50.000  
E15  26987039.480   141817804.387          50.000    26987045.540   105902889.797          50.000  
E21  23461866.500   123292924.484          50.000    23461870.720    92069382.414          50.000  
E27  25773792.100   135442150.984          50.000    25773797.420   101141849.484          50.000  
> 2020  5 14 22  8 31.0000000  0 13       0.000000000000
G 2  21022125.280   110472050.664          50.000                                                  
G 5  23068067.620   121223491.273          50.000                                                  
G 6  22303227.560   117204204.195          50.000    22303230.100    87522620.918          50.000  
G12  20149750.500   105887658.977          50.000                                                  
G19  24078226.880   126531935.617          50.000                                                  
G24  23026340.520   121004168.164          50.000    23026344.000    90360249.281          50.000  
G25  21430398.900   112617452.688          50.000    21430401.000    84097449.363          50.000  
G29  23459362.000   123279750.855          50.000                                                  
E 1  25444097.540   133709623.516          50.000    25444101.300    99848085.797          50.000  
E13  23523311.220   123615824.801          50.000    23523314.820    92310509.738          50.000  
E15  26987529.760   141820380.766          50.000    26987535.820   105904813.715          50.000  
E21  23461944.280   123293333.254          50.000    23461948.500    92069687.660          50.000  
E27  25774290.560   135444770.453          50.000    25774295.900   101143805.578          50.000  
