     3.03           OBSERVATION DATA    M: Mixed            RINEX VERSION / TYPE
sbp2rinex v2.2 (RTKL                    20210504 171528 UTC PGM / RUN BY / DATE 
log: 2020-08-13-US-MTV-1.sbp                                COMMENT             
format: Swift Navigation SBP, option: CONVBASE,EPHALL,OBSALLCOMMENT             
                                                            MARKER NAME         
                                                            MARKER NUMBER       
                                                            MARKER TYPE         
                                                            OBSERVER / AGENCY   
                                                            REC # / TYPE / VERS 
                                                            ANT # / TYPE        
 -2724472.1928 -4348251.9588  3775531.3785                  APPROX POSITION XYZ 
        0.0000        0.0000        0.0000                  ANTENNA: DELTA H/E/N
G    6 C1C L1C S1C C5I L5I S5I                              SYS / # / OBS TYPES 
E    6 C1B L1B S1B C5I L5I S5I                              SYS / # / OBS TYPES 
  2020     8    13    21    40   30.0000000     GPS         TIME OF FIRST OBS   
  2020     8    13    22    21   12.0000000     GPS         TIME OF LAST OBS    
G                                                           SYS / PHASE SHIFT   
E                                                           SYS / PHASE SHIFT   
  0                                                         GLONASS SLOT / FRQ #
 C1C    0.000 C1P    0.000 C2C    0.000 C2P    0.000        GLONASS COD/PHS/BIS 
                                                            END OF HEADER       
> 2020  8 13 21 40 30.0000000  0 15       0.000000000000
G10  21149795.660   111142873.984          50.000    21149795.680    82996293.652          50.000  
G15  22612779.140   118830765.125          50.000                                                  
G16  23665396.020   124362479.973          50.000                                                  
G20  20230667.080   106312871.297          50.000                                                  
G21  22668799.720   119125358.242          50.000                                                  
G26  24396869.480   128206290.801          50.000    24396873.500    95738436.980          50.000  
G27  22351518.940   117457971.551          50.000    22351520.340    87712113.508          50.000  
G29  24216581.600   127258948.207          50.000                                                  
G32  24074317.220   126511306.301          50.000    24074319.980    94472708.629          50.000  
E 3  25518396.440   134100049.500          50.000    25518401.300   100139639.863          50.000  
E 7  26118295.000   137252514.586          50.000    26118301.840   102493747.414          50.000  
E 8  21704678.340   114058854.910          50.000    21704681.260    85173817.566          50.000  
E13  23504007.840   123514376.191          50.000    23504011.520    92234755.355          50.000  
E15  24338524.080   127899762.621          50.000    24338529.760    95509552.227          50.000  
E26  26104791.240   137181544.098          50.000    26104798.080   102440749.047          50.000  
> 2020  8 13 21 40 31.0000000  0 15       0.000000000000
G10  21149565.560   111141664.824          50.000    21149565.580    82995390.707          50.000  
G15  22613254.240   118833261.750          50.000                                                  
G16  23665692.240   124364036.656          50.000                                                  
G20  20230763.920   106313380.234          50.000                                                  
G21  22668433.360   119123432.957          50.000                                                  
G26  24397358.480   128208860.527          50.000    24397362.520    95740355.930          50.000  
G27  22351059.400   117455556.617          50.000    22351060.800    87710310.152          50.000  
G29  24217293.080   127262686.953          50.000                                                  
G32  24073623.320   126507659.832          50.000    24073626.080    94469985.617          50.000  
E 3  25518753.100   134101923.707          50.000    25518757.960   100141039.434          50.000  
E 7  26117753.040   137249666.566          50.000    26117759.880   102491620.648          50.000  
E 8  21704525.840   114058053.453          50.000    21704528.740    85173219.074          50.000  
E13  23503830.820   123513445.988          50.000    23503834.500    92234060.723          50.000  
E15  24338768.080   127901044.785          50.000    24338773.740    95510509.688          50.000  
E26  26104346.980   137179209.531          50.000    26104353.840   102439005.703          50.000  
> 2020  8 13 21 40 32.0000000  0 15       0.000000000000
G10  21149335.540   111140456.031          50.000    21149335.540    82994488.039          50.000  
G15  22613729.420   118835758.887          50.000                                                  
G16  23665988.560   124365593.813          50.000                                                  
G20  20230860.840   106313889.516          50.000                                                  
G21  22668067.000   119121507.742          50.000                                                  
G26  24397847.500   128211430.336          50.000    24397851.520    95742274.941          50.000  
G27  22350599.940   117453142.145          50.000    22350601.340    87708507.137          50.000  
G29  24218004.560   127266425.832          50.000                                                  
G32  24072929.420   126504013.426          50.000    24072932.180    94467262.656          50.000  
E 3  25519109.800   134103798.227          50.000    25519114.660   100142439.238          50.000  
E 7  26117211.120   137246818.707          50.000    26117217.960   102489494.000          50.000  
E 8  21704373.400   114057252.434          50.000    21704376.320    85172620.910          50.000  
E13  23503653.840   123512515.945          50.000    23503657.520    92233366.211          50.000  
E15  24339012.100   127902327.160          50.000    24339017.760    95511467.305          50.000  
E26  26103902.720   137176874.941          50.000    26103909.580   102437262.344          50.000  
> 2020  8 13 21 40 33.0000000  0 15       0.000000000000
G10  21149105.580   111139247.617          50.000    21149105.600    82993585.652          50.000  
G15  22614204.720   118838256.539          50.000                                                  
G16  23666284.960   124367151.438          50.000                                                  
G20  20230957.820   106314399.137          50.000                                                  
G21  22667700.640   119119582.586          50.000                                                  
G26  24398336.520   128214000.211          50.000    24398340.560    95744194.000          50.000  
G27  22350140.560   117450728.117          50.000    22350141.960    87706704.457          50.000  
G29  24218716.060   127270164.852          50.000                                                  
G32  24072235.540   126500367.078          50.000    24072238.300    94464539.734          50.000  
E 3  25519466.580   134105673.066          50.000    25519471.440   100143839.281          50.000  
E 7  26116669.220   137243971.035          50.000    26116676.060   102487367.496          50.000  
E 8  21704221.060   114056451.859          50.000    21704223.960    85172023.082          50.000  
E13  23503476.900   123511586.105          50.000    23503480.580    92232671.852          50.000  
E15  24339256.180   127903609.762          50.000    24339261.840    95512425.090          50.000  
E26  26103458.460   137174540.328          50.000    26103465.320   102435518.965          50.000  
> 2020  8 13 21 40 34.0000000  0 15       0.000000000000
G10  21148875.700   111138039.574          50.000    21148875.720    82992683.543          50.000  
G15  22614680.100   118840754.699          50.000                                                  
G16  23666581.460   124368709.531          50.000                                                  
G20  20231054.860   106314909.117          50.000                                                  
G21  22667334.320   119117657.469          50.000                                                  
G26  24398825.580   128216570.152          50.000    24398829.600    95746113.113          50.000  
G27  22349681.280   117448314.555          50.000    22349682.680    87704902.121          50.000  
G29  24219427.620   127273904.023          50.000                                                  
G32  24071541.680   126496720.766          50.000    24071544.440    94461816.844          50.000  
E 3  25519823.400   134107548.227          50.000    25519828.280   100145239.563          50.000  
E 7  26116127.360   137241123.539          50.000    26116134.200   102485241.117          50.000  
E 8  21704068.800   114055651.723          50.000    21704071.700    85171425.578          50.000  
E13  23503300.000   123510656.441          50.000    23503303.680    92231977.621          50.000  
E15  24339500.280   127904892.602          50.000    24339505.960    95513383.055          50.000  
E26  26103014.200   137172205.691          50.000    26103021.040   102433775.570          50.000  
> 2020  8 13 21 40 35.0000000  0 15       0.000000000000
G10  21148645.880   111136831.895          50.000    21148645.900    82991781.707          50.000  
G15  22615155.580   118843253.367          50.000                                                  
G16  23666878.040   124370268.094          50.000                                                  
G20  20231151.980   106315419.445          50.000                                                  
G21  22666967.980   119115732.422          50.000                                                  
G26  24399314.640   128219140.164          50.000    24399318.660    95748032.277          50.000  
G27  22349222.080   117445901.438          50.000    22349223.480    87703100.117          50.000  
G29  24220139.180   127277643.320          50.000                                                  
G32  24070847.820   126493074.512          50.000    24070850.580    94459093.992          50.000  
E 3  25520180.300   134109423.695          50.000    25520185.160   100146640.074          50.000  
E 7  26115585.520   137238276.211          50.000    26115592.360   102483114.871          50.000  
E 8  21703916.620   114054852.027          50.000    21703919.520    85170828.402          50.000  
E13  23503123.120   123509726.961          50.000    23503126.800    92231283.527          50.000  
E15  24339744.440   127906175.676          50.000    24339750.120    95514341.195          50.000  
E26  26102569.920   137169871.008          50.000    26102576.760   102432032.137          50.000  
> 2020  8 13 21 40 36.0000000  0 15       0.000000000000
G10  21148416.140   111135624.602          50.000    21148416.160    82990880.156          50.000  
G15  22615631.160   118845752.555          50.000                                                  
G16  23667174.720   124371827.121          50.000                                                  
G20  20231249.160   106315930.117          50.000                                                  
G21  22666601.680   119113807.430          50.000                                                  
G26  24399803.700   128221710.277          50.000    24399807.740    95749951.516          50.000  
G27  22348762.960   117443488.773          50.000    22348764.360    87701298.453          50.000  
G29  24220850.780   127281382.773          50.000                                                  
G32  24070153.960   126489428.320          50.000    24070156.720    94456371.188          50.000  
E 3  25520537.240   134111299.492          50.000    25520542.120   100148040.828          50.000  
E 7  26115043.740   137235429.070          50.000    26115050.580   102480988.762          50.000  
E 8  21703764.520   114054052.781          50.000    21703767.440    85170231.563          50.000  
E13  23502946.280   123508797.656          50.000    23502949.960    92230589.570          50.000  
E15  24339988.660   127907458.984          50.000    24339994.320    95515299.512          50.000  
E26  26102125.640   137167536.309          50.000    26102132.480   102430288.695          50.000  
> 2020  8 13 21 40 37.0000000  0 15       0.000000000000
G10  21148186.480   111134417.680          50.000    21148186.480    82989978.883          50.000  
G15  22616106.840   118848252.254          50.000                                                  
G16  23667471.480   124373386.625          50.000                                                  
G20  20231346.400   106316441.133          50.000                                                  
G21  22666235.380   119111882.504          50.000                                                  
G26  24400292.800   128224280.453          50.000    24400296.840    95751870.801          50.000  
G27  22348303.920   117441076.559          50.000    22348305.340    87699497.125          50.000  
G29  24221562.400   127285122.367          50.000                                                  
G32  24069460.120   126485782.184          50.000    24069462.880    94453648.426          50.000  
E 3  25520894.260   134113175.609          50.000    25520899.120   100149441.824          50.000  
E 7  26114501.980   137232582.102          50.000    26114508.820   102478862.781          50.000  
E 8  21703612.520   114053253.973          50.000    21703615.420    85169635.051          50.000  
E13  23502769.480   123507868.551          50.000    23502773.160    92229895.754          50.000  
E15  24340232.900   127908742.516          50.000    24340238.580    95516257.988          50.000  
E26  26101681.360   137165201.582          50.000    26101688.200   102428545.230          50.000  
> 2020  8 13 21 40 38.0000000  0 15       0.000000000000
G10  21147956.880   111133211.125          50.000    21147956.880    82989077.883          50.000  
G15  22616582.620   118850752.465          50.000                                                  
G16  23667768.340   124374946.594          50.000                                                  
G20  20231443.700   106316952.492          50.000                                                  
G21  22665869.080   119109957.629          50.000                                                  
G26  24400781.900   128226850.707          50.000    24400785.940    95753790.148          50.000  
G27  22347844.980   117438664.797          50.000    22347846.380    87697696.137          50.000  
G29  24222274.040   127288862.098          50.000                                                  
G32  24068766.300   126482136.090          50.000    24068769.060    94450925.695          50.000  
E 3  25521251.340   134115052.035          50.000    25521256.200   100150843.051          50.000  
E 7  26113960.240   137229735.305          50.000    26113967.080   102476736.926          50.000  
E 8  21703460.600   114052455.617          50.000    21703463.500    85169038.875          50.000  
E13  23502592.700   123506939.625          50.000    23502596.380    92229202.074          50.000  
E15  24340477.200   127910026.273          50.000    24340482.860    95517216.641          50.000  
E26  26101237.060   137162866.820          50.000    26101243.920   102426801.742          50.000  
> 2020  8 13 21 40 39.0000000  0 15       0.000000000000
G10  21147727.340   111132004.953          50.000    21147727.360    82988177.172          50.000  
G15  22617058.480   118853253.180          50.000                                                  
G16  23668065.280   124376507.020          50.000                                                  
G20  20231541.080   106317464.199          50.000                                                  
G21  22665502.800   119108032.805          50.000                                                  
G26  24401271.020   128229421.031          50.000    24401275.060    95755709.543          50.000  
G27  22347386.120   117436253.492          50.000    22347387.540    87695895.488          50.000  
G29  24222985.720   127292601.992          50.000                                                  
G32  24068072.480   126478490.059          50.000    24068075.240    94448203.012          50.000  
E 3  25521608.460   134116928.785          50.000    25521613.340   100152244.523          50.000  
E 7  26113418.540   137226888.680          50.000    26113425.380   102474611.199          50.000  
E 8  21703308.760   114051657.699          50.000    21703311.660    85168443.027          50.000  
E13  23502415.980   123506010.883          50.000    23502419.660    92228508.535          50.000  
E15  24340721.540   127911310.285          50.000    24340727.200    95518175.480          50.000  
E26  26100792.760   137160532.039          50.000    26100799.620   102425058.238          50.000  
> 2020  8 13 21 40 40.0000000  0 15       0.000000000000
G10  21147497.880   111130799.145          50.000    21147497.900    82987276.730          50.000  
G15  22617534.460   118855754.410          50.000                                                  
G16  23668362.320   124378067.930          50.000                                                  
G20  20231638.520   106317976.246          50.000                                                  
G21  22665136.520   119106108.051          50.000                                                  
G26  24401760.140   128231991.426          50.000    24401764.180    95757628.992          50.000  
G27  22346927.360   117433842.652          50.000    22346928.760    87694095.188          50.000  
G29  24223697.420   127296342.012          50.000                                                  
G32  24067378.680   126474844.090          50.000    24067381.440    94445480.371          50.000  
E 3  25521965.660   134118805.855          50.000    25521970.520   100153646.230          50.000  
E 7  26112876.880   137224042.234          50.000    26112883.720   102472485.609          50.000  
E 8  21703157.000   114050860.223          50.000    21703159.920    85167847.508          50.000  
E13  23502239.280   123505082.320          50.000    23502242.960    92227815.129          50.000  
E15  24340965.920   127912594.512          50.000    24340971.580    95519134.477          50.000  
E26  26100348.460   137158197.223          50.000    26100355.320   102423314.707          50.000  
> 2020  8 13 21 40 41.0000000  0 15       0.000000000000
G10  21147268.500   111129593.695          50.000    21147268.520    82986376.559          50.000  
G15  22618010.520   118858256.156          50.000                                                  
G16  23668659.420   124379629.293          50.000                                                  
G20  20231736.020   106318488.641          50.000                                                  
G21  22664770.260   119104183.348          50.000                                                  
G26  24402249.300   128234561.898          50.000    24402253.320    95759548.500          50.000  
G27  22346468.680   117431432.258          50.000    22346470.080    87692295.215          50.000  
G29  24224409.160   127300082.176          50.000                                                  
G32  24066684.880   126471198.156          50.000    24066687.640    94442757.762          50.000  
E 3  25522322.920   134120683.230          50.000    25522327.780   100155048.164          50.000  
E 7  26112335.260   137221195.973          50.000    26112342.100   102470360.156          50.000  
E 8  21703005.340   114050063.188          50.000    21703008.240    85167252.320          50.000  
E13  23502062.600   123504153.941          50.000    23502066.280    92227121.859          50.000  
E15  24341210.340   127913878.977          50.000    24341216.000    95520093.656          50.000  
E26  26099904.160   137155862.391          50.000    26099911.000   102421571.164          50.000  
> 2020  8 13 21 40 42.0000000  0 15       0.000000000000
G10  21147039.180   111128388.645          50.000    21147039.200    82985476.684          50.000  
G15  22618486.680   118860758.406          50.000                                                  
G16  23668956.640   124381191.129          50.000                                                  
G20  20231833.600   106319001.383          50.000                                                  
G21  22664404.020   119102258.703          50.000                                                  
G26  24402738.460   128237132.449          50.000    24402742.500    95761468.063          50.000  
G27  22346010.080   117429022.305          50.000    22346011.480    87690495.578          50.000  
G29  24225120.920   127303822.477          50.000                                                  
G32  24065991.080   126467552.281          50.000    24065993.840    94440035.195          50.000  
E 3  25522680.220   134122560.934          50.000    25522685.100   100156450.348          50.000  
E 7  26111793.660   137218349.875          50.000    26111800.500   102468234.824          50.000  
E 8  21702853.740   114049266.598          50.000    21702856.660    85166657.465          50.000  
E13  23501885.980   123503225.750          50.000    23501889.660    92226428.730          50.000  
E15  24341454.800   127915163.664          50.000    24341460.480    95521053.004          50.000  
E26  26099459.840   137153527.516          50.000    26099466.700   102419827.594          50.000  
> 2020  8 13 21 40 43.0000000  0 15       0.000000000000
G10  21146809.940   111127183.941          50.000    21146809.960    82984577.070          50.000  
G15  22618962.940   118863261.164          50.000                                                  
G16  23669253.940   124382753.434          50.000                                                  
G20  20231931.220   106319514.465          50.000                                                  
G21  22664037.780   119100334.109          50.000                                                  
G26  24403227.620   128239703.074          50.000    24403231.660    95763387.688          50.000  
G27  22345551.560   117426612.816          50.000    22345552.980    87688696.285          50.000  
G29  24225832.700   127307562.918          50.000                                                  
G32  24065297.300   126463906.461          50.000    24065300.060    94437312.668          50.000  
E 3  25523037.600   134124438.945          50.000    25523042.480   100157852.758          50.000  
E 7  26111252.100   137215503.953          50.000    26111258.940   102466109.625          50.000  
E 8  21702702.240   114048470.445          50.000    21702705.160    85166062.938          50.000  
E13  23501709.380   123502297.738          50.000    23501713.060    92225735.734          50.000  
E15  24341699.320   127916448.590          50.000    24341705.000    95522012.523          50.000  
E26  26099015.540   137151192.625          50.000    26099022.380   102418084.008          50.000  
> 2020  8 13 21 40 44.0000000  0 15       0.000000000000
G10  21146580.760   111125979.621          50.000    21146580.780    82983677.738          50.000  
G15  22619439.300   118865764.438          50.000                                                  
G16  23669551.320   124384316.203          50.000                                                  
G20  20232028.940   106320027.902          50.000                                                  
G21  22663671.560   119098409.582          50.000                                                  
G26  24403716.820   128242273.762          50.000    24403720.860    95765307.355          50.000  
G27  22345093.140   117424203.781          50.000    22345094.540    87686897.332          50.000  
G29  24226544.500   127311303.500          50.000                                                  
G32  24064603.540   126460260.703          50.000    24064606.300    94434590.188          50.000  
E 3  25523395.040   134126317.273          50.000    25523399.900   100159255.402          50.000  
E 7  26110710.580   137212658.203          50.000    26110717.400   102463984.555          50.000  
E 8  21702550.820   114047674.738          50.000    21702553.740    85165468.742          50.000  
E13  23501532.820   123501369.910          50.000    23501536.500    92225042.875          50.000  
E15  24341943.880   127917733.738          50.000    24341949.540    95522972.215          50.000  
E26  26098571.200   137148857.699          50.000    26098578.060   102416340.395          50.000  
> 2020  8 13 21 40 45.0000000  0 15       0.000000000000
G10  21146351.660   111124775.668          50.000    21146351.660    82982778.684          50.000  
G15  22619915.760   118868268.223          50.000                                                  
G16  23669848.800   124385879.445          50.000                                                  
G20  20232126.700   106320541.684          50.000                                                  
G21  22663305.340   119096485.105          50.000                                                  
G26  24404206.020   128244844.543          50.000    24404210.060    95767227.094          50.000  
G27  22344634.800   117421795.191          50.000    22344636.200    87685098.711          50.000  
G29  24227256.340   127315044.234          50.000                                                  
G32  24063909.780   126456615.000          50.000    24063912.540    94431867.750          50.000  
E 3  25523752.540   134128195.934          50.000    25523757.400   100160658.301          50.000  
E 7  26110169.080   137209812.645          50.000    26110175.920   102461859.625          50.000  
E 8  21702399.500   114046879.484          50.000    21702402.400    85164874.883          50.000  
E13  23501356.300   123500442.270          50.000    23501359.980    92224350.156          50.000  
E15  24342188.480   127919019.133          50.000    24342194.160    95523932.086          50.000  
E26  26098126.880   137146522.746          50.000    26098133.720   102414596.762          50.000  
> 2020  8 13 21 40 46.0000000  0 15       0.000000000000
G10  21146122.620   111123572.098          50.000    21146122.640    82981879.914          50.000  
G15  22620392.300   118870772.531          50.000                                                  
G16  23670146.360   124387443.148          50.000                                                  
G20  20232224.540   106321055.813          50.000                                                  
G21  22662939.140   119094560.695          50.000                                                  
G26  24404695.240   128247415.383          50.000    24404699.280    95769146.875          50.000  
G27  22344176.560   117419387.070          50.000    22344177.960    87683300.438          50.000  
G29  24227968.220   127318785.113          50.000                                                  
G32  24063216.040   126452969.340          50.000    24063218.800    94429145.344          50.000  
E 3  25524110.100   134130074.906          50.000    25524114.960   100162061.426          50.000  
E 7  26109627.620   137206967.246          50.000    26109634.460   102459734.816          50.000  
E 8  21702248.240   114046084.668          50.000    21702251.160    85164281.352          50.000  
E13  23501179.820   123499514.824          50.000    23501183.500    92223657.582          50.000  
E15  24342433.120   127920304.766          50.000    24342438.800    95524892.133          50.000  
E26  26097682.540   137144187.777          50.000    26097689.400   102412853.117          50.000  
> 2020  8 13 21 40 47.0000000  0 15       0.000000000000
G10  21145893.660   111122368.895          50.000    21145893.680    82980981.418          50.000  
G15  22620868.960   118873277.344          50.000                                                  
G16  23670444.020   124389007.320          50.000                                                  
G20  20232322.440   106321570.285          50.000                                                  
G21  22662572.940   119092636.336          50.000                                                  
G26  24405184.460   128249986.301          50.000    24405188.500    95771066.715          50.000  
G27  22343718.380   117416979.395          50.000    22343719.780    87681502.500          50.000  
G29  24228680.100   127322526.121          50.000                                                  
G32  24062522.300   126449323.750          50.000    24062525.060    94426422.988          50.000  
E 3  25524467.700   134131954.195          50.000    25524472.580   100163464.789          50.000  
E 7  26109086.200   137204122.035          50.000    26109093.020   102457610.148          50.000  
E 8  21702097.080   114045290.293          50.000    21702099.980    85163688.148          50.000  
E13  23501003.360   123498587.566          50.000    23501007.040    92222965.152          50.000  
E15  24342677.820   127921590.613          50.000    24342683.480    95525852.344          50.000  
E26  26097238.220   137141852.777          50.000    26097245.060   102411109.449          50.000  
> 2020  8 13 21 40 48.0000000  0 15       0.000000000000
G10  21145664.760   111121166.051          50.000    21145664.780    82980083.191          50.000  
G15  22621345.700   118875782.656          50.000                                                  
G16  23670741.760   124390571.961          50.000                                                  
G20  20232420.400   106322085.113          50.000                                                  
G21  22662206.760   119090712.027          50.000                                                  
G26  24405673.700   128252557.285          50.000    24405677.740    95772986.605          50.000  
G27  22343260.300   117414572.188          50.000    22343261.720    87679704.910          50.000  
G29  24229392.020   127326267.281          50.000                                                  
G32  24061828.580   126445678.199          50.000    24061831.340    94423700.664          50.000  
E 3  25524825.380   134133833.805          50.000    25524830.260   100164868.395          50.000  
E 7  26108544.800   137201276.992          50.000    26108551.640   102455485.605          50.000  
E 8  21701946.000   114044496.367          50.000    21701948.900    85163095.281          50.000  
E13  23500826.940   123497660.465          50.000    23500830.620    92222272.836          50.000  
E15  24342922.560   127922876.691          50.000    24342928.220    95526812.727          50.000  
E26  26096793.860   137139517.734          50.000    26096800.720   102409365.750          50.000  
> 2020  8 13 21 40 49.0000000  0 15       0.000000000000
G10  21145435.940   111119963.594          50.000    21145435.960    82979185.254          50.000  
G15  22621822.540   118878288.496          50.000                                                  
G16  23671039.580   124392137.063          50.000                                                  
G20  20232518.440   106322600.273          50.000                                                  
G21  22661840.580   119088787.777          50.000                                                  
G26  24406162.960   128255128.352          50.000    24406167.000    95774906.555          50.000  
G27  22342802.320   117412165.414          50.000    22342803.720    87677907.645          50.000  
G29  24230103.980   127330008.570          50.000                                                  
G32  24061134.860   126442032.703          50.000    24061137.620    94420978.375          50.000  
E 3  25525183.120   134135713.719          50.000    25525188.000   100166272.227          50.000  
E 7  26108003.440   137198432.129          50.000    26108010.260   102453361.195          50.000  
E 8  21701795.000   114043702.875          50.000    21701797.920    85162502.738          50.000  
E13  23500650.560   123496733.559          50.000    23500654.240    92221580.664          50.000  
E15  24343167.340   127924163.016          50.000    24343173.000    95527773.293          50.000  
E26  26096349.520   137137182.680          50.000    26096356.360   102407622.039          50.000  
> 2020  8 13 21 40 50.0000000  0 15       0.000000000000
G10  21145207.200   111118761.508          50.000    21145207.220    82978287.594          50.000  
G15  22622299.500   118880794.844          50.000                                                  
G16  23671337.500   124393702.641          50.000                                                  
G20  20232616.540   106323115.785          50.000                                                  
G21  22661474.420   119086863.590          50.000                                                  
G26  24406652.240   128257699.492          50.000    24406656.280    95776826.563          50.000  
G27  22342344.400   117409759.109          50.000    22342345.820    87676110.730          50.000  
G29  24230815.940   127333750.020          50.000                                                  
G32  24060441.160   126438387.266          50.000    24060443.920    94418256.137          50.000  
E 3  25525540.920   134137593.961          50.000    25525545.800   100167676.305          50.000  
E 7  26107462.120   137195587.445          50.000    26107468.940   102451236.922          50.000  
E 8  21701644.100   114042909.824          50.000    21701647.000    85161910.527          50.000  
E13  23500474.200   123495806.836          50.000    23500477.880    92220888.633          50.000  
E15  24343412.160   127925449.566          50.000    24343417.820    95528734.027          50.000  
E26  26095905.160   137134847.594          50.000    26095912.020   102405878.309          50.000  
> 2020  8 13 21 40 51.0000000  0 15       0.000000000000
G10  21144978.520   111117559.797          50.000    21144978.540    82977390.211          50.000  
G15  22622776.540   118883301.699          50.000                                                  
G16  23671635.520   124395268.684          50.000                                                  
G20  20232714.700   106323631.648          50.000                                                  
G21  22661108.280   119084939.465          50.000                                                  
G26  24407141.520   128260270.699          50.000    24407145.560    95778746.617          50.000  
G27  22341886.580   117407353.246          50.000    22341887.980    87674314.145          50.000  
G29  24231527.940   127337491.602          50.000                                                  
G32  24059747.460   126434741.887          50.000    24059750.220    94415533.941          50.000  
E 3  25525898.780   134139474.523          50.000    25525903.660   100169080.621          50.000  
E 7  26106920.820   137192742.938          50.000    26106927.640   102449112.777          50.000  
E 8  21701493.260   114042117.223          50.000    21701496.180    85161318.648          50.000  
E13  23500297.900   123494880.316          50.000    23500301.580    92220196.754          50.000  
E15  24343657.020   127926736.355          50.000    24343662.700    95529694.941          50.000  
E26  26095460.800   137132512.480          50.000    26095467.660   102404134.559          50.000  
> 2020  8 13 21 40 52.0000000  0 15       0.000000000000
G10  21144749.920   111116358.453          50.000    21144749.920    82976493.105          50.000  
G15  22623253.660   118885809.066          50.000                                                  
G16  23671933.620   124396835.195          50.000                                                  
G20  20232812.940   106324147.852          50.000                                                  
G21  22660742.140   119083015.395          50.000                                                  
G26  24407630.820   128262841.984          50.000    24407634.860    95780666.730          50.000  
G27  22341428.860   117404947.836          50.000    22341430.260    87672517.898          50.000  
G29  24232239.980   127341233.320          50.000                                                  
G32  24059053.780   126431096.563          50.000    24059056.540    94412811.785          50.000  
E 3  25526256.700   134141355.391          50.000    25526261.560   100170485.164          50.000  
E 7  26106379.560   137189898.602          50.000    26106386.380   102446988.762          50.000  
E 8  21701342.520   114041325.066          50.000    21701345.420    85160727.105          50.000  
E13  23500121.620   123493953.953          50.000    23500125.300    92219504.988          50.000  
E15  24343901.940   127928023.371          50.000    24343907.600    95530656.023          50.000  
E26  26095016.440   137130177.336          50.000    26095023.300   102402390.785          50.000  
> 2020  8 13 21 40 53.0000000  0 15       0.000000000000
G10  21144521.380   111115157.480          50.000    21144521.380    82975596.273          50.000  
G15  22623730.900   118888316.941          50.000                                                  
G16  23672231.800   124398402.184          50.000                                                  
G20  20232911.220   106324664.398          50.000                                                  
G21  22660376.000   119081091.379          50.000                                                  
G26  24408120.140   128265413.340          50.000    24408124.180    95782586.898          50.000  
G27  22340971.200   117402542.887          50.000    22340972.600    87670721.996          50.000  
G29  24232952.020   127344975.176          50.000                                                  
G32  24058360.100   126427451.289          50.000    24058362.860    94410089.664          50.000  
E 3  25526614.680   134143236.586          50.000    25526619.540   100171889.949          50.000  
E 7  26105838.340   137187054.449          50.000    26105845.160   102444864.883          50.000  
E 8  21701191.860   114040533.352          50.000    21701194.760    85160135.887          50.000  
E13  23499945.380   123493027.797          50.000    23499949.060    92218813.375          50.000  
E15  24344146.880   127929310.609          50.000    24344152.560    95531617.273          50.000  
E26  26094572.080   137127842.180          50.000    26094578.920   102400647.000          50.000  
> 2020  8 13 21 40 54.0000000  0 15       0.000000000000
G10  21144292.900   111113956.883          50.000    21144292.920    82974699.727          50.000  
G15  22624208.240   118890825.324          50.000                                                  
G16  23672530.080   124399969.625          50.000                                                  
G20  20233009.600   106325181.301          50.000                                                  
G21  22660009.880   119079167.422          50.000                                                  
G26  24408609.460   128267984.770          50.000    24408613.500    95784507.121          50.000  
G27  22340513.640   117400138.387          50.000    22340515.040    87668926.430          50.000  
G29  24233664.100   127348717.180          50.000                                                  
G32  24057666.440   126423806.082          50.000    24057669.200    94407367.598          50.000  
E 3  25526972.720   134145118.094          50.000    25526977.580   100173294.973          50.000  
E 7  26105297.140   137184210.461          50.000    26105303.960   102442741.129          50.000  
E 8  21701041.280   114039742.074          50.000    21701044.200    85159545.000          50.000  
E13  23499769.160   123492101.820          50.000    23499772.840    92218121.902          50.000  
E15  24344391.880   127930598.078          50.000    24344397.560    95532578.695          50.000  
E26  26094127.700   137125506.977          50.000    26094134.560   102398903.180          50.000  
> 2020  8 13 21 40 55.0000000  0 15       0.000000000000
G10  21144064.520   111112756.668          50.000    21144064.520    82973803.461          50.000  
G15  22624685.660   118893334.223          50.000                                                  
G16  23672828.440   124401537.531          50.000                                                  
G20  20233108.020   106325698.543          50.000                                                  
G21  22659643.780   119077243.523          50.000                                                  
G26  24409098.800   128270556.270          50.000    24409102.840    95786427.398          50.000  
G27  22340056.180   117397734.355          50.000    22340057.580    87667131.211          50.000  
G29  24234376.220   127352459.332          50.000                                                  
G32  24056972.800   126420160.922          50.000    24056975.560    94404645.563          50.000  
E 3  25527330.820   134146999.914          50.000    25527335.680   100174700.227          50.000  
E 7  26104755.980   137181366.652          50.000    26104762.800   102440617.504          50.000  
E 8  21700890.800   114038951.250          50.000    21700893.700    85158954.449          50.000  
E13  23499593.000   123491176.020          50.000    23499596.680    92217430.559          50.000  
E15  24344636.920   127931885.785          50.000    24344642.600    95533540.293          50.000  
E26  26093683.320   137123171.762          50.000    26093690.180   102397159.352          50.000  
> 2020  8 13 21 40 56.0000000  0 15       0.000000000000
G10  21143836.180   111111556.813          50.000    21143836.200    82972907.465          50.000  
G15  22625163.180   118895843.621          50.000                                                  
G16  23673126.900   124403105.922          50.000                                                  
G20  20233206.520   106326216.125          50.000                                                  
G21  22659277.680   119075319.680          50.000                                                  
G26  24409588.160   128273127.848          50.000    24409592.200    95788347.730          50.000  
G27  22339598.780   117395330.777          50.000    22339600.180    87665336.332          50.000  
G29  24235088.360   127356201.609          50.000                                                  
G32  24056279.160   126416515.816          50.000    24056281.920    94401923.570          50.000  
E 3  25527688.980   134148882.059          50.000    25527693.840   100176105.723          50.000  
E 7  26104214.860   137178523.027          50.000    26104221.680   102438494.020          50.000  
E 8  21700740.400   114038160.863          50.000    21700743.300    85158364.227          50.000  
E13  23499416.860   123490250.414          50.000    23499420.540    92216739.359          50.000  
E15  24344882.020   127933173.734          50.000    24344887.680    95534502.074          50.000  
E26  26093238.940   137120836.508          50.000    26093245.780   102395415.496          50.000  
> 2020  8 13 21 40 57.0000000  0 15       0.000000000000
G10  21143607.940   111110357.344          50.000    21143607.940    82972011.766          50.000  
G15  22625640.800   118898353.539          50.000                                                  
G16  23673425.440   124404674.781          50.000                                                  
G20  20233305.080   106326734.070          50.000                                                  
G21  22658911.600   119073395.902          50.000                                                  
G26  24410077.540   128275699.480          50.000    24410081.580    95790268.102          50.000  
G27  22339141.480   117392927.645          50.000    22339142.880    87663541.789          50.000  
G29  24235800.520   127359944.047          50.000                                                  
G32  24055585.520   126412870.766          50.000    24055588.280    94399201.621          50.000  
E 3  25528047.200   134150764.512          50.000    25528052.060   100177511.453          50.000  
E 7  26103673.760   137175679.590          50.000    26103680.600   102436370.676          50.000  
E 8  21700590.080   114037370.922          50.000    21700592.980    85157774.336          50.000  
E13  23499240.760   123489324.992          50.000    23499244.440    92216048.297          50.000  
E15  24345127.140   127934461.906          50.000    24345132.820    95535464.020          50.000  
E26  26092794.560   137118501.238          50.000    26092801.400   102393671.625          50.000  
> 2020  8 13 21 40 58.0000000  0 15       0.000000000000
G10  21143379.760   111109158.230          50.000    21143379.760    82971116.320          50.000  
G15  22626118.520   118900863.965          50.000                                                  
G16  23673724.060   124406244.094          50.000                                                  
G20  20233403.700   106327252.348          50.000                                                  
G21  22658545.520   119071472.188          50.000                                                  
G26  24410566.920   128278271.203          50.000    24410570.960    95792188.539          50.000  
G27  22338684.260   117390524.965          50.000    22338685.660    87661747.582          50.000  
G29  24236512.700   127363686.629          50.000                                                  
G32  24054891.900   126409225.777          50.000    24054894.660    94396479.715          50.000  
E 3  25528405.480   134152647.293          50.000    25528410.340   100178917.422          50.000  
E 7  26103132.700   137172836.313          50.000    26103139.540   102434247.453          50.000  
E 8  21700439.840   114036581.426          50.000    21700442.740    85157184.777          50.000  
E13  23499064.680   123488399.750          50.000    23499068.360    92215357.367          50.000  
E15  24345372.320   127935750.313          50.000    24345378.000    95536426.141          50.000  
E26  26092350.160   137116165.941          50.000    26092357.000   102391927.734          50.000  
> 2020  8 13 21 40 59.0000000  0 15       0.000000000000
G10  21143151.640   111107959.496          50.000    21143151.640    82970221.160          50.000  
G15  22626596.340   118903374.902          50.000                                                  
G16  23674022.780   124407813.863          50.000                                                  
G20  20233502.380   106327770.965          50.000                                                  
G21  22658179.460   119069548.520          50.000                                                  
G26  24411056.300   128280842.988          50.000    24411060.360    95794109.027          50.000  
G27  22338227.140   117388122.750          50.000    22338228.540    87659953.719          50.000  
G29  24237224.920   127367429.324          50.000                                                  
G32  24054198.300   126405580.844          50.000    24054201.040    94393757.848          50.000  
E 3  25528763.820   134154530.383          50.000    25528768.680   100180323.625          50.000  
E 7  26102591.680   137169993.207          50.000    26102598.500   102432124.355          50.000  
E 8  21700289.680   114035792.359          50.000    21700292.580    85156595.539          50.000  
E13  23498888.660   123487474.699          50.000    23498892.340    92214666.586          50.000  
E15  24345617.540   127937038.945          50.000    24345623.220    95537388.434          50.000  
E26  26091905.760   137113830.598          50.000    26091912.600   102390183.813          50.000  
> 2020  8 13 21 41  0.0000000  0 15       0.000000000000
G10  21142923.600   111106761.133          50.000    21142923.600    82969326.281          50.000  
G15  22627074.240   118905886.340          50.000                                                  
G16  23674321.600   124409384.109          50.000                                                  
G20  20233601.140   106328289.926          50.000                                                  
G21  22657813.420   119067624.914          50.000                                                  
G26  24411545.720   128283414.859          50.000    24411549.760    95796029.582          50.000  
G27  22337770.100   117385720.984          50.000    22337771.500    87658160.191          50.000  
G29  24237937.160   127371172.172          50.000                                                  
G32  24053504.700   126401935.973          50.000    24053507.460    94391036.031          50.000  
E 3  25529122.220   134156413.781          50.000    25529127.080   100181730.063          50.000  
E 7  26102050.680   137167150.285          50.000    26102057.520   102430001.395          50.000  
E 8  21700139.620   114035003.750          50.000    21700142.520    85156006.645          50.000  
E13  23498712.660   123486549.820          50.000    23498716.340    92213975.930          50.000  
E15  24345862.800   127938327.816          50.000    24345868.480    95538350.898          50.000  
E26  26091461.360   137111495.250          50.000    26091468.200   102388439.883          50.000  
> 2020  8 13 21 41  1.0000000  0 15       0.000000000000
G10  21142695.620   111105563.137          50.000    21142695.640    82968431.676          50.000  
G15  22627552.260   118908398.301          50.000                                                  
G16  23674620.500   124410954.828          50.000                                                  
G20  20233699.960   106328809.234          50.000                                                  
G21  22657447.380   119065701.371          50.000                                                  
G26  24412035.140   128285986.805          50.000    24412039.180    95797950.188          50.000  
G27  22337313.140   117383319.672          50.000    22337314.540    87656367.004          50.000  
G29  24238649.420   127374915.160          50.000                                                  
G32  24052811.100   126398291.133          50.000    24052813.860    94388314.238          50.000  
E 3  25529480.680   134158297.520          50.000    25529485.560   100183136.746          50.000  
E 7  26101509.740   137164307.543          50.000    26101516.560   102427878.570          50.000  
E 8  21699989.620   114034215.578          50.000    21699992.540    85155418.074          50.000  
E13  23498536.700   123485625.148          50.000    23498540.380    92213285.426          50.000  
E15  24346108.120   127939616.922          50.000    24346113.780    95539313.543          50.000  
E26  26091016.940   137109159.863          50.000    26091023.780   102386695.930          50.000  
> 2020  8 13 21 41  2.0000000  0 15       0.000000000000
G10  21142467.720   111104365.523          50.000    21142467.740    82967537.355          50.000  
G15  22628030.360   118910910.762          50.000                                                  
G16  23674919.480   124412525.996          50.000                                                  
G20  20233798.860   106329328.895          50.000                                                  
G21  22657081.360   119063777.887          50.000                                                  
G26  24412524.580   128288558.816          50.000    24412528.620    95799870.844          50.000  
G27  22336856.280   117380918.824          50.000    22336857.680    87654574.168          50.000  
G29  24239361.720   127378658.301          50.000                                                  
G32  24052117.540   126394646.375          50.000    24052120.280    94385592.504          50.000  
E 3  25529839.200   134160181.563          50.000    25529844.080   100184543.660          50.000  
E 7  26100968.800   137161464.984          50.000    26100975.640   102425755.879          50.000  
E 8  21699839.740   114033427.859          50.000    21699842.640    85154829.840          50.000  
E13  23498360.760   123484700.645          50.000    23498364.440    92212595.051          50.000  
E15  24346353.460   127940906.250          50.000    24346359.140    95540276.352          50.000  
E26  26090572.540   137106824.453          50.000    26090579.380   102384951.953          50.000  
> 2020  8 13 21 41  3.0000000  0 15       0.000000000000
G10  21142239.900   111103168.285          50.000    21142239.920    82966643.313          50.000  
G15  22628508.560   118913423.734          50.000                                                  
G16  23675218.560   124414097.648          50.000                                                  
G20  20233897.800   106329848.891          50.000                                                  
G21  22656715.340   119061854.465          50.000                                                  
G26  24413014.040   128291130.898          50.000    24413018.080    95801791.551          50.000  
G27  22336399.500   117378518.430          50.000    22336400.900    87652781.664          50.000  
G29  24240074.040   127382401.559          50.000                                                  
G32  24051423.960   126391001.656          50.000    24051426.720    94382870.801          50.000  
E 3  25530197.780   134162065.918          50.000    25530202.660   100185950.809          50.000  
E 7  26100427.920   137158622.590          50.000    26100434.740   102423633.316          50.000  
E 8  21699689.920   114032640.574          50.000    21699692.820    85154241.934          50.000  
E13  23498184.880   123483776.328          50.000    23498188.560    92211904.813          50.000  
E15  24346598.860   127942195.828          50.000    24346604.540    95541239.348          50.000  
E26  26090128.120   137104489.016          50.000    26090134.960   102383207.961          50.000  
> 2020  8 13 21 41  4.0000000  0 15       0.000000000000
G10  21142012.140   111101971.402          50.000    21142012.160    82965749.539          50.000  
G15  22628986.880   118915937.219          50.000                                                  
G16  23675517.720   124415669.758          50.000                                                  
G20  20233996.820   106330369.230          50.000                                                  
G21  22656349.340   119059931.102          50.000                                                  
G26  24413503.500   128293703.055          50.000    24413507.540    95803712.320          50.000  
G27  22335942.800   117376118.488          50.000    22335944.200    87650989.504          50.000  
G29  24240786.400   127386144.969          50.000                                                  
G32  24050730.400   126387357.000          50.000    24050733.160    94380149.145          50.000  
E 3  25530556.420   134163950.598          50.000    25530561.300   100187358.199          50.000  
E 7  26099887.060   137155780.375          50.000    26099893.880   102421510.887          50.000  
E 8  21699540.180   114031853.742          50.000    21699543.100    85153654.367          50.000  
E13  23498009.020   123482852.207          50.000    23498012.700    92211214.727          50.000  
E15  24346844.300   127943485.621          50.000    24346849.980    95542202.504          50.000  
E26  26089683.680   137102153.559          50.000    26089690.520   102381463.953          50.000  
> 2020  8 13 21 41  5.0000000  0 15       0.000000000000
G10  21141784.460   111100774.902          50.000    21141784.460    82964856.047          50.000  
G15  22629465.260   118918451.211          50.000                                                  
G16  23675816.960   124417242.336          50.000                                                  
G20  20234095.900   106330889.914          50.000                                                  
G21  22655983.340   119058007.785          50.000                                                  
G26  24413992.980   128296275.285          50.000    24413997.020    95805633.141          50.000  
G27  22335486.200   117373719.008          50.000    22335487.600    87649197.684          50.000  
G29  24241498.760   127389888.527          50.000                                                  
G32  24050036.860   126383712.406          50.000    24050039.620    94377427.535          50.000  
E 3  25530915.120   134165835.590          50.000    25530920.000   100188765.824          50.000  
E 7  26099346.240   137152938.344          50.000    26099353.060   102419388.590          50.000  
E 8  21699390.540   114031067.344          50.000    21699393.440    85153067.121          50.000  
E13  23497833.200   123481928.270          50.000    23497836.880    92210524.770          50.000  
E15  24347089.780   127944775.645          50.000    24347095.460    95543165.832          50.000  
E26  26089239.260   137099818.063          50.000    26089246.100   102379719.914          50.000  
> 2020  8 13 21 41  6.0000000  0 15       0.000000000000
G10  21141556.840   111099578.781          50.000    21141556.840    82963962.840          50.000  
G15  22629943.760   118920965.711          50.000                                                  
G16  23676116.300   124418815.375          50.000                                                  
G20  20234195.060   106331410.949          50.000                                                  
G21  22655617.360   119056084.523          50.000                                                  
G26  24414482.480   128298847.574          50.000    24414486.520    95807554.004          50.000  
G27  22335029.680   117371319.980          50.000    22335031.080    87647406.203          50.000  
G29  24242211.180   127393632.227          50.000                                                  
G32  24049343.320   126380067.855          50.000    24049346.080    94374705.953          50.000  
E 3  25531273.900   134167720.895          50.000    25531278.760   100190173.680          50.000  
E 7  26098805.460   137150096.492          50.000    26098812.280   102417266.430          50.000  
E 8  21699240.980   114030281.395          50.000    21699243.880    85152480.211          50.000  
E13  23497657.420   123481004.512          50.000    23497661.100    92209834.949          50.000  
E15  24347335.320   127946065.918          50.000    24347341.000    95544129.348          50.000  
E26  26088794.820   137097482.539          50.000    26088801.660   102377975.859          50.000  
> 2020  8 13 21 41  7.0000000  0 15       0.000000000000
G10  21141329.300   111098383.023          50.000    21141329.300    82963069.906          50.000  
G15  22630422.360   118923480.723          50.000                                                  
G16  23676415.740   124420388.879          50.000                                                  
G20  20234294.260   106331932.320          50.000                                                  
G21  22655251.380   119054161.324          50.000                                                  
G26  24414971.980   128301419.945          50.000    24414976.020    95809474.926          50.000  
G27  22334573.240   117368921.398          50.000    22334574.640    87645615.055          50.000  
G29  24242923.600   127397376.066          50.000                                                  
G32  24048649.800   126376423.379          50.000    24048652.560    94371984.430          50.000  
E 3  25531632.720   134169606.516          50.000    25531637.580   100191581.773          50.000  
E 7  26098264.700   137147254.805          50.000    26098271.520   102415144.395          50.000  
E 8  21699091.500   114029495.891          50.000    21699094.400    85151893.633          50.000  
E13  23497481.660   123480080.934          50.000    23497485.340    92209145.266          50.000  
E15  24347580.900   127947356.410          50.000    24347586.560    95545093.027          50.000  
E26  26088350.380   137095146.992          50.000    26088357.220   102376231.781          50.000  
> 2020  8 13 21 41  8.0000000  0 15       0.000000000000
G10  21141101.820   111097187.641          50.000    21141101.820    82962177.250          50.000  
G15  22630901.040   118925996.238          50.000                                                  
G16  23676715.260   124421962.863          50.000                                                  
G20  20234393.540   106332454.043          50.000                                                  
G21  22654885.420   119052238.188          50.000                                                  
G26  24415461.500   128303992.387          50.000    24415465.540    95811395.906          50.000  
G27  22334116.900   117366523.293          50.000    22334118.300    87643824.262          50.000  
G29  24243636.060   127401120.027          50.000                                                  
G32  24047956.300   126372778.945          50.000    24047959.040    94369262.941          50.000  
E 3  25531991.600   134171492.453          50.000    25531996.460   100192990.105          50.000  
E 7  26097723.980   137144413.301          50.000    26097730.800   102413022.492          50.000  
E 8  21698942.100   114028710.824          50.000    21698945.020    85151307.383          50.000  
E13  23497305.940   123479157.547          50.000    23497309.620    92208455.727          50.000  
E15  24347826.500   127948647.125          50.000    24347832.180    95546056.875          50.000  
E26  26087905.940   137092811.418          50.000    26087912.780   102374487.684          50.000  
> 2020  8 13 21 41  9.0000000  0 15       0.000000000000
G10  21140874.420   111095992.625          50.000    21140874.420    82961284.867          50.000  
G15  22631379.820   118928512.262          50.000                                                  
G16  23677014.860   124423537.297          50.000                                                  
G20  20234492.900   106332976.105          50.000                                                  
G21  22654519.460   119050315.105          50.000                                                  
G26  24415951.040   128306564.898          50.000    24415955.080    95813316.938          50.000  
G27  22333660.640   117364125.621          50.000    22333662.040    87642033.793          50.000  
G29  24244348.540   127404864.152          50.000                                                  
G32  24047262.800   126369134.578          50.000    24047265.540    94366541.500          50.000  
E 3  25532350.540   134173378.715          50.000    25532355.420   100194398.676          50.000  
E 7  26097183.280   137141571.980          50.000    26097190.120   102410900.727          50.000  
E 8  21698792.800   114027926.203          50.000    21698795.700    85150721.465          50.000  
E13  23497130.280   123478234.348          50.000    23497133.960    92207766.324          50.000  
E15  24348072.180   127949938.098          50.000    24348077.840    95547020.910          50.000  
E26  26087461.480   137090475.820          50.000    26087468.320   102372743.570          50.000  
> 2020  8 13 21 41 10.0000000  0 15       0.000000000000
G10  21140647.080   111094797.973          50.000    21140647.100    82960392.758          50.000  
G15  22631858.700   118931028.797          50.000                                                  
G16  23677314.560   124425112.195          50.000                                                  
G20  20234592.300   106333498.504          50.000                                                  
G21  22654153.520   119048392.086          50.000                                                  
G26  24416440.580   128309137.488          50.000    24416444.620    95815238.023          50.000  
G27  22333204.460   117361728.418          50.000    22333205.860    87640243.676          50.000  
G29  24245061.060   127408608.410          50.000                                                  
G32  24046569.300   126365490.262          50.000    24046572.040    94363820.094          50.000  
E 3  25532709.540   134175265.289          50.000    25532714.420   100195807.480          50.000  
E 7  26096642.640   137138730.836          50.000    26096649.460   102408779.094          50.000  
E 8  21698643.580   114027142.035          50.000    21698646.480    85150135.883          50.000  
E13  23496954.620   123477311.340          50.000    23496958.300    92207077.066          50.000  
E15  24348317.880   127951229.297          50.000    24348323.560    95547985.117          50.000  
E26  26087017.040   137088140.207          50.000    26087023.880   102370999.445          50.000  
> 2020  8 13 21 41 11.0000000  0 15       0.000000000000
G10  21140419.820   111093603.707          50.000    21140419.820    82959500.938          50.000  
G15  22632337.680   118933545.844          50.000                                                  
G16  23677614.340   124426687.566          50.000                                                  
G20  20234691.780   106334021.262          50.000                                                  
G21  22653787.600   119046469.113          50.000                                                  
G26  24416930.140   128311710.141          50.000    24416934.180    95817159.160          50.000  
G27  22332748.380   117359331.664          50.000    22332749.760    87638453.895          50.000  
G29  24245773.580   127412352.813          50.000                                                  
G32  24045875.820   126361846.012          50.000    24045878.560    94361098.742          50.000  
E 3  25533068.600   134177152.180          50.000    25533073.480   100197216.520          50.000  
E 7  26096102.020   137135889.867          50.000    26096108.840   102406657.594          50.000  
E 8  21698494.440   114026358.305          50.000    21698497.340    85149550.633          50.000  
E13  23496779.020   123476388.516          50.000    23496782.700    92206387.941          50.000  
E15  24348563.620   127952520.711          50.000    24348569.300    95548949.484          50.000  
E26  26086572.560   137085804.555          50.000    26086579.400   102369255.289          50.000  
> 2020  8 13 21 41 12.0000000  0 15       0.000000000000
G10  21140192.620   111092409.813          50.000    21140192.640    82958609.395          50.000  
G15  22632816.760   118936063.379          50.000                                                  
G16  23677914.200   124428263.398          50.000                                                  
G20  20234791.320   106334544.352          50.000                                                  
G21  22653421.680   119044546.207          50.000                                                  
G26  24417419.720   128314282.859          50.000    24417423.760    95819080.344          50.000  
G27  22332292.380   117356935.375          50.000    22332293.760    87636664.457          50.000  
G29  24246486.140   127416097.344          50.000                                                  
G32  24045182.360   126358201.805          50.000    24045185.100    94358377.418          50.000  
E 3  25533427.720   134179039.387          50.000    25533432.600   100198625.797          50.000  
E 7  26095561.440   137133049.070          50.000    26095568.260   102404536.223          50.000  
E 8  21698345.380   114025575.016          50.000    21698348.280    85148965.711          50.000  
E13  23496603.440   123475465.863          50.000    23496607.120    92205698.949          50.000  
E15  24348809.420   127953812.359          50.000    24348815.100    95549914.027          50.000  
E26  26086128.100   137083468.879          50.000    26086134.940   102367511.117          50.000  
> 2020  8 13 21 41 13.0000000  0 15       0.000000000000
G10  21139965.500   111091216.281          50.000    21139965.520    82957718.117          50.000  
G15  22633295.920   118938581.434          50.000                                                  
G16  23678214.160   124429839.695          50.000                                                  
G20  20234890.920   106335067.789          50.000                                                  
G21  22653055.780   119042623.355          50.000                                                  
G26  24417909.300   128316855.652          50.000    24417913.340    95821001.582          50.000  
G27  22331836.460   117354539.531          50.000    22331837.860    87634875.355          50.000  
G29  24247198.740   127419842.023          50.000                                                  
G32  24044488.900   126354557.652          50.000    24044491.640    94355656.137          50.000  
E 3  25533786.920   134180926.906          50.000    25533791.780   100200035.309          50.000  
E 7  26095020.880   137130208.445          50.000    26095027.700   102402414.977          50.000  
E 8  21698196.420   114024792.168          50.000    21698199.320    85148381.113          50.000  
E13  23496427.900   123474543.406          50.000    23496431.580    92205010.102          50.000  
E15  24349055.260   127955104.242          50.000    24349060.940    95550878.742          50.000  
E26  26085683.640   137081133.168          50.000    26085690.480   102365766.922          50.000  
> 2020  8 13 21 41 14.0000000  0 15       0.000000000000
G10  21139738.460   111090023.133          50.000    21139738.460    82956827.133          50.000  
G15  22633775.200   118941100.004          50.000                                                  
G16  23678514.220   124431416.453          50.000                                                  
G20  20234990.600   106335591.570          50.000                                                  
G21  22652689.880   119040700.566          50.000                                                  
G26  24418398.900   128319428.520          50.000    24418402.960    95822922.883          50.000  
G27  22331380.640   117352144.156          50.000    22331382.020    87633086.598          50.000  
G29  24247911.360   127423586.836          50.000                                                  
G32  24043795.440   126350913.563          50.000    24043798.180    94352934.906          50.000  
E 3  25534146.160   134182814.734          50.000    25534151.020   100201445.051          50.000  
E 7  26094480.360   137127368.008          50.000    26094487.180   102400293.875          50.000  
E 8  21698047.520   114024009.766          50.000    21698050.420    85147796.852          50.000  
E13  23496252.400   123473621.129          50.000    23496256.080    92204321.391          50.000  
E15  24349301.140   127956396.371          50.000    24349306.820    95551843.645          50.000  
E26  26085239.160   137078797.434          50.000    26085246.000   102364022.703          50.000  
> 2020  8 13 21 41 15.0000000  0 15       0.000000000000
G10  21139511.480   111088830.344          50.000    21139511.480    82955936.414          50.000  
G15  22634254.560   118943619.074          50.000                                                  
G16  23678814.360   124432993.684          50.000                                                  
G20  20235090.340   106336115.699          50.000                                                  
G21  22652324.000   119038777.832          50.000                                                  
G26  24418888.520   128322001.461          50.000    24418892.560    95824844.234          50.000  
G27  22330924.900   117349749.223          50.000    22330926.280    87631298.180          50.000  
G29  24248624.000   127427331.801          50.000                                                  
G32  24043102.000   126347269.547          50.000    24043104.760    94350213.723          50.000  
E 3  25534505.460   134184702.898          50.000    25534510.340   100202855.043          50.000  
E 7  26093939.880   137124527.750          50.000    26093946.700   102398172.902          50.000  
E 8  21697898.720   114023227.801          50.000    21697901.620    85147212.922          50.000  
E13  23496076.940   123472699.039          50.000    23496080.620    92203632.816          50.000  
E15  24349547.060   127957688.723          50.000    24349552.740    95552808.711          50.000  
E26  26084794.680   137076461.676          50.000    26084801.520   102362278.473          50.000  
> 2020  8 13 21 41 16.0000000  0 15       0.000000000000
G10  21139284.560   111087637.938          50.000    21139284.580    82955045.980          50.000  
G15  22634734.020   118946138.652          50.000                                                  
G16  23679114.580   124434571.363          50.000                                                  
G20  20235190.140   106336640.176          50.000                                                  
G21  22651958.120   119036855.156          50.000                                                  
G26  24419378.140   128324574.465          50.000    24419382.200    95826765.629          50.000  
G27  22330469.240   117347354.762          50.000    22330470.640    87629510.105          50.000  
G29  24249336.680   127431076.902          50.000                                                  
G32  24042408.580   126343625.570          50.000    24042411.320    94347492.578          50.000  
E 3  25534864.820   134186591.363          50.000    25534869.700   100204265.258          50.000  
E 7  26093399.420   137121687.660          50.000    26093406.240   102396052.059          50.000  
E 8  21697750.000   114022446.285          50.000    21697752.900    85146629.320          50.000  
E13  23495901.500   123471777.141          50.000    23495905.180    92202944.383          50.000  
E15  24349793.040   127958981.297          50.000    24349798.720    95553773.945          50.000  
E26  26084350.180   137074125.887          50.000    26084357.020   102360534.215          50.000  
> 2020  8 13 21 41 17.0000000  0 15       0.000000000000
G10  21139057.740   111086445.902          50.000    21139057.740    82954155.828          50.000  
G15  22635213.580   118948658.750          50.000                                                  
G16  23679414.880   124436149.520          50.000                                                  
G20  20235290.020   106337165.000          50.000                                                  
G21  22651592.260   119034932.547          50.000                                                  
G26  24419867.780   128327147.551          50.000    24419871.840    95828687.090          50.000  
G27  22330013.680   117344960.746          50.000    22330015.060    87627722.367          50.000  
G29  24250049.360   127434822.133          50.000                                                  
G32  24041715.160   126339981.656          50.000    24041717.920    94344771.473          50.000  
E 3  25535224.240   134188480.148          50.000    25535229.120   100205675.715          50.000  
E 7  26092859.000   137118847.770          50.000    26092865.820   102393931.363          50.000  
E 8  21697601.380   114021665.223          50.000    21697604.280    85146046.059          50.000  
E13  23495726.100   123470855.422          50.000    23495729.780    92202256.086          50.000  
E15  24350039.060   127960274.117          50.000    24350044.720    95554739.363          50.000  
E26  26083905.700   137071790.090          50.000    26083912.540   102358789.953          50.000  
> 2020  8 13 21 41 18.0000000  0 15       0.000000000000
G10  21138830.960   111085254.238          50.000    21138830.980    82953265.945          50.000  
G15  22635693.240   118951179.348          50.000                                                  
G16  23679715.300   124437728.145          50.000                                                  
G20  20235389.940   106337690.164          50.000                                                  
G21  22651226.400   119033009.984          50.000                                                  
G26  24420357.440   128329720.699          50.000    24420361.500    95830608.594          50.000  
G27  22329558.200   117342567.195          50.000    22329559.600    87625934.980          50.000  
G29  24250762.080   127438567.512          50.000                                                  
G32  24041021.760   126336337.809          50.000    24041024.520    94342050.422          50.000  
E 3  25535583.740   134190369.266          50.000    25535588.620   100207086.418          50.000  
E 7  26092318.620   137116008.047          50.000    26092325.440   102391810.793          50.000  
E 8  21697452.820   114020884.602          50.000    21697455.740    85145463.129          50.000  
E13  23495550.740   123469933.902          50.000    23495554.420    92201567.941          50.000  
E15  24350285.120   127961567.184          50.000    24350290.800    95555704.965          50.000  
E26  26083461.200   137069454.266          50.000    26083468.040   102357045.668          50.000  
> 2020  8 13 21 41 19.0000000  0 15       0.000000000000
G10  21138604.280   111084062.949          50.000    21138604.280    82952376.348          50.000  
G15  22636172.980   118953700.457          50.000                                                  
G16  23680015.780   124439307.242          50.000                                                  
G20  20235489.940   106338215.672          50.000                                                  
G21  22650860.560   119031087.484          50.000                                                  
G26  24420847.120   128332293.918          50.000    24420851.160    95832530.152          50.000  
G27  22329102.800   117340174.105          50.000    22329104.200    87624147.930          50.000  
G29  24251474.840   127442313.020          50.000                                                  
G32  24040328.380   126332694.012          50.000    24040331.120    94339329.406          50.000  
E 3  25535943.280   134192258.676          50.000    25535948.160   100208497.344          50.000  
E 7  26091778.280   137113168.488          50.000    26091785.100   102389690.344          50.000  
E 8  21697304.360   114020104.414          50.000    21697307.260    85144880.520          50.000  
E13  23495375.420   123469012.555          50.000    23495379.100    92200879.922          50.000  
E15  24350531.220   127962860.461          50.000    24350536.900    95556670.719          50.000  
E26  26083016.700   137067118.398          50.000    26083023.540   102355301.352          50.000  
> 2020  8 13 21 41 20.0000000  0 15       0.000000000000
G10  21138377.640   111082872.027          50.000    21138377.660    82951487.023          50.000  
G15  22636652.840   118956222.074          50.000                                                  
G16  23680316.360   124440886.773          50.000                                                  
G20  20235590.020   106338741.531          50.000                                                  
G21  22650494.740   119029165.043          50.000                                                  
G26  24421336.800   128334867.211          50.000    24421340.840    95834451.766          50.000  
G27  22328647.500   117337781.477          50.000    22328648.900    87622361.227          50.000  
G29  24252187.620   127446058.676          50.000                                                  
G32  24039634.980   126329050.273          50.000    24039637.740    94336608.434          50.000  
E 3  25536302.880   134194148.406          50.000    25536307.760   100209908.504          50.000  
E 7  26091237.960   137110329.121          50.000    26091244.780   102387570.039          50.000  
E 8  21697155.980   114019324.680          50.000    21697158.880    85144298.254          50.000  
E13  23495200.140   123468091.398          50.000    23495203.800    92200192.047          50.000  
E15  24350777.360   127964153.969          50.000    24350783.040    95557636.652          50.000  
E26  26082572.200   137064782.504          50.000    26082579.040   102353557.020          50.000  
> 2020  8 13 21 41 21.0000000  0 15       0.000000000000
G10  21138151.100   111081681.473          50.000    21138151.100    82950597.977          50.000  
G15  22637132.780   118958744.199          50.000                                                  
G16  23680617.020   124442466.789          50.000                                                  
G20  20235690.140   106339267.730          50.000                                                  
G21  22650128.920   119027242.660          50.000                                                  
G26  24421826.480   128337440.578          50.000    24421830.540    95836373.434          50.000  
G27  22328192.280   117335389.305          50.000    22328193.680    87620574.867          50.000  
G29  24252900.420   127449804.473          50.000                                                  
G32  24038941.620   126325406.586          50.000    24038944.360    94333887.496          50.000  
E 3  25536662.540   134196038.457          50.000    25536667.420   100211319.902          50.000  
E 7  26090697.680   137107489.934          50.000    26090704.500   102385449.867          50.000  
E 8  21697007.680   114018545.383          50.000    21697010.600    85143716.313          50.000  
E13  23495024.880   123467170.426          50.000    23495028.560    92199504.309          50.000  
E15  24351023.560   127965447.727          50.000    24351029.240    95558602.770          50.000  
E26  26082127.680   137062446.586          50.000    26082134.520   102351812.664          50.000  
> 2020  8 13 21 41 22.0000000  0 15       0.000000000000
G10  21137924.600   111080491.285          50.000    21137924.620    82949709.199          50.000  
G15  22637612.820   118961266.824          50.000                                                  
G16  23680917.780   124444047.273          50.000                                                  
G20  20235790.340   106339794.273          50.000                                                  
G21  22649763.120   119025320.344          50.000                                                  
G26  24422316.200   128340014.012          50.000    24422320.240    95838295.152          50.000  
G27  22327737.160   117332997.570          50.000    22327738.540    87618788.832          50.000  
G29  24253613.240   127453550.395          50.000                                                  
G32  24038248.260   126321762.969          50.000    24038251.000    94331166.617          50.000  
E 3  25537022.280   134197928.816          50.000    25537027.140   100212731.535          50.000  
E 7  26090157.440   137104650.918          50.000    26090164.240   102383329.824          50.000  
E 8  21696859.480   114017766.523          50.000    21696862.380    85143134.695          50.000  
E13  23494849.660   123466249.641          50.000    23494853.340    92198816.707          50.000  
E15  24351269.800   127966741.699          50.000    24351275.460    95559569.047          50.000  
E26  26081683.160   137060110.641          50.000    26081690.000   102350068.293          50.000  
> 2020  8 13 21 41 23.0000000  0 15       0.000000000000
G10  21137698.200   111079301.496          50.000    21137698.200    82948820.719          50.000  
G15  22638092.960   118963789.957          50.000                                                  
G16  23681218.620   124445628.215          50.000                                                  
G20  20235890.620   106340321.164          50.000                                                  
G21  22649397.320   119023398.074          50.000                                                  
G26  24422805.920   128342587.512          50.000    24422809.960    95840216.922          50.000  
G27  22327282.120   117330606.313          50.000    22327283.500    87617003.152          50.000  
G29  24254326.100   127457296.465          50.000                                                  
G32  24037554.920   126318119.406          50.000    24037557.660    94328445.777          50.000  
E 3  25537382.060   134199819.500          50.000    25537386.940   100214143.410          50.000  
E 7  26089617.220   137101812.082          50.000    26089624.040   102381209.918          50.000  
E 8  21696711.340   114016988.113          50.000    21696714.260    85142553.414          50.000  
E13  23494674.460   123465329.035          50.000    23494678.140    92198129.242          50.000  
E15  24351516.080   127968035.918          50.000    24351521.760    95560535.512          50.000  
E26  26081238.660   137057774.676          50.000    26081245.480   102348323.906          50.000  
> 2020  8 13 21 41 24.0000000  0 15       0.000000000000
G10  21137471.860   111078112.059          50.000    21137471.860    82947932.504          50.000  
G15  22638573.180   118966313.598          50.000                                                  
G16  23681519.560   124447209.621          50.000                                                  
G20  20235990.940   106340848.398          50.000                                                  
G21  22649031.540   119021475.867          50.000                                                  
G26  24423295.660   128345161.086          50.000    24423299.700    95842138.746          50.000  
G27  22326827.160   117328215.496          50.000    22326828.540    87615217.805          50.000  
G29  24255038.980   127461042.676          50.000                                                  
G32  24036861.580   126314475.895          50.000    24036864.320    94325724.973          50.000  
E 3  25537741.900   134201710.500          50.000    25537746.780   100215555.520          50.000  
E 7  26089077.040   137098973.426          50.000    26089083.860   102379090.145          50.000  
E 8  21696563.300   114016210.148          50.000    21696566.200    85141972.469          50.000  
E13  23494499.320   123464408.621          50.000    23494503.000    92197441.922          50.000  
E15  24351762.400   127969330.359          50.000    24351768.080    95561502.137          50.000  
E26  26080794.120   137055438.680          50.000    26080800.960   102346579.492          50.000  
> 2020  8 13 21 41 25.0000000  0 15       0.000000000000
G10  21137245.580   111076922.996          50.000    21137245.580    82947044.570          50.000  
G15  22639053.520   118968837.750          50.000                                                  
G16  23681820.580   124448791.492          50.000                                                  
G20  20236091.340   106341375.973          50.000                                                  
G21  22648665.760   119019553.715          50.000                                                  
G26  24423785.400   128347734.730          50.000    24423789.460    95844060.625          50.000  
G27  22326372.280   117325825.145          50.000    22326373.680    87613432.805          50.000  
G29  24255751.880   127464789.020          50.000                                                  
G32  24036168.240   126310832.445          50.000    24036171.000    94323004.219          50.000  
E 3  25538101.800   134203601.801          50.000    25538106.680   100216967.855          50.000  
E 7  26088536.900   137096134.945          50.000    26088543.700   102376970.500          50.000  
E 8  21696415.340   114015432.625          50.000    21696418.260    85141391.852          50.000  
E13  23494324.200   123463488.387          50.000    23494327.880    92196754.734          50.000  
E15  24352008.780   127970625.039          50.000    24352014.440    95562468.945          50.000  
E26  26080349.600   137053102.656          50.000    26080356.420   102344835.063          50.000  
> 2020  8 13 21 41 26.0000000  0 15       0.000000000000
G10  21137019.380   111075734.309          50.000    21137019.400    82946156.910          50.000  
G15  22639533.940   118971362.422          50.000                                                  
G16  23682121.680   124450373.832          50.000                                                  
G20  20236191.800   106341903.906          50.000                                                  
G21  22648300.000   119017631.641          50.000                                                  
G26  24424275.180   128350308.422          50.000    24424279.220    95845982.520          50.000  
G27  22325917.500   117323435.258          50.000    22325918.900    87611648.152          50.000  
G29  24256464.820   127468535.477          50.000                                                  
G32  24035474.920   126307189.148          50.000    24035477.640    94320283.625          50.000  
E 3  25538461.780   134205493.426          50.000    25538466.640   100218380.434          50.000  
E 7  26087996.780   137093296.645          50.000    26088003.600   102374850.988          50.000  
E 8  21696267.480   114014655.531          50.000    21696270.380    85140811.547          50.000  
E13  23494149.120   123462568.348          50.000    23494152.800    92196067.691          50.000  
E15  24352255.180   127971919.945          50.000    24352260.860    95563435.922          50.000  
E26  26079905.060   137050766.570          50.000    26079911.900   102343090.559          50.000  
> 2020  8 13 21 41 27.0000000  0 15       0.000000000000
G10  21136793.260   111074545.984          50.000    21136793.260    82945269.527          50.000  
G15  22640014.460   118973887.586          50.000                                                  
G16  23682422.880   124451956.621          50.000                                                  
G20  20236292.320   106342432.168          50.000                                                  
G21  22647934.240   119015709.621          50.000                                                  
G26  24424764.940   128352882.199          50.000    24424769.000    95847904.496          50.000  
G27  22325462.800   117321045.820          50.000    22325464.200    87609863.836          50.000  
G29  24257177.780   127472282.105          50.000                                                  
G32  24034781.620   126303545.809          50.000    24034784.340    94317562.953          50.000  
E 3  25538821.800   134207385.375          50.000    25538826.680   100219793.250          50.000  
E 7  26087456.700   137090458.520          50.000    26087463.520   102372731.613          50.000  
E 8  21696119.680   114013878.898          50.000    21696122.600    85140231.594          50.000  
E13  23493974.080   123461648.500          50.000    23493977.760    92195380.793          50.000  
E15  24352501.640   127973215.094          50.000    24352507.320    95564403.078          50.000  
E26  26079460.520   137048430.500          50.000    26079467.360   102341346.090          50.000  
> 2020  8 13 21 41 28.0000000  0 15       0.000000000000
G10  21136567.200   111073358.035          50.000    21136567.200    82944382.422          50.000  
G15  22640495.080   118976413.262          50.000                                                  
G16  23682724.160   124453539.871          50.000                                                  
G20  20236392.920   106342960.770          50.000                                                  
G21  22647568.500   119013787.652          50.000                                                  
G26  24425254.740   128355456.047          50.000    24425258.780    95849826.520          50.000  
G27  22325008.200   117318656.844          50.000    22325009.600    87608079.859          50.000  
G29  24257890.780   127476028.871          50.000                                                  
G32  24034088.320   126299902.535          50.000    24034091.040    94314842.328          50.000  
E 3  25539181.880   134209277.625          50.000    25539186.760   100221206.293          50.000  
E 7  26086916.660   137087620.578          50.000    26086923.480   102370612.371          50.000  
E 8  21695971.980   114013102.711          50.000    21695974.880    85139651.973          50.000  
E13  23493799.080   123460728.824          50.000    23493802.760    92194694.023          50.000  
E15  24352748.140   127974510.469          50.000    24352753.820    95565370.398          50.000  
E26  26079015.980   137046094.398          50.000    26079022.820   102339601.602          50.000  
> 2020  8 13 21 41 29.0000000  0 15       0.000000000000
G10  21136341.200   111072170.457          50.000    21136341.220    82943495.598          50.000  
G15  22640975.800   118978939.445          50.000                                                  
G16  23683025.540   124455123.590          50.000                                                  
G20  20236493.560   106343489.727          50.000                                                  
G21  22647202.780   119011865.758          50.000                                                  
G26  24425744.540   128358029.969          50.000    24425748.600    95851748.605          50.000  
G27  22324553.680   117316268.320          50.000    22324555.060    87606296.219          50.000  
G29  24258603.780   127479775.770          50.000                                                  
G32  24033395.040   126296259.328          50.000    24033397.760    94312121.754          50.000  
E 3  25539542.020   134211170.195          50.000    25539546.900   100222619.578          50.000  
E 7  26086376.640   137084782.805          50.000    26086383.460   102368493.258          50.000  
E 8  21695824.360   114012326.961          50.000    21695827.260    85139072.684          50.000  
E13  23493624.100   123459809.340          50.000    23493627.780    92194007.395          50.000  
E15  24352994.680   127975806.078          50.000    24353000.360    95566337.898          50.000  
E26  26078571.420   137043758.277          50.000    26078578.260   102337857.094          50.000  
> 2020  8 13 21 41 30.0000000  0 15       0.000000000000
G10  21136115.280   111070983.258          50.000    21136115.300    82942609.051          50.000  
G15  22641456.620   118981466.133          50.000                                                  
G16  23683327.000   124456707.766          50.000                                                  
G20  20236594.300   106344019.023          50.000                                                  
G21  22646837.060   119009943.910          50.000                                                  
G26  24426234.340   128360603.949          50.000    24426238.400    95853670.734          50.000  
G27  22324099.240   117313880.258          50.000    22324100.640    87604512.930          50.000  
G29  24259316.820   127483522.816          50.000                                                  
G32  24032701.760   126292616.180          50.000    24032704.500    94309401.223          50.000  
E 3  25539902.220   134213063.086          50.000    25539907.100   100224033.098          50.000  
E 7  26085836.680   137081945.211          50.000    26085843.480   102366374.277          50.000  
E 8  21695676.820   114011551.664          50.000    21695679.740    85138493.727          50.000  
E13  23493449.160   123458890.047          50.000    23493452.840    92193320.910          50.000  
E15  24353241.280   127977101.926          50.000    24353246.960    95567305.578          50.000  
E26  26078126.880   137041422.117          50.000    26078133.720   102336112.563          50.000  
> 2020  8 13 21 41 31.0000000  0 15       0.000000000000
G10  21135889.440   111069796.438          50.000    21135889.440    82941722.789          50.000  
G15  22641937.520   118983993.328          50.000                                                  
G16  23683628.540   124458292.410          50.000                                                  
G20  20236695.080   106344548.668          50.000                                                  
G21  22646471.360   119008022.121          50.000                                                  
G26  24426724.180   128363178.023          50.000    24426728.240    95855592.926          50.000  
G27  22323644.900   117311492.660          50.000    22323646.280    87602729.980          50.000  
G29  24260029.900   127487269.996          50.000                                                  
G32  24032008.500   126288973.070          50.000    24032011.240    94306680.719          50.000  
E 3  25540262.500   134214956.277          50.000    25540267.360   100225446.844          50.000  
E 7  26085296.740   137079107.809          50.000    26085303.540   102364255.438          50.000  
E 8  21695529.380   114010776.801          50.000    21695532.280    85137915.094          50.000  
E13  23493274.260   123457970.926          50.000    23493277.940    92192634.555          50.000  
E15  24353487.920   127978397.988          50.000    24353493.580    95568273.418          50.000  
E26  26077682.320   137039085.938          50.000    26077689.140   102334368.012          50.000  
> 2020  8 13 21 41 32.0000000  0 15       0.000000000000
G10  21135663.660   111068609.977          50.000    21135663.680    82940836.793          50.000  
G15  22642418.540   118986521.027          50.000                                                  
G16  23683930.180   124459877.520          50.000                                                  
G20  20236795.940   106345078.648          50.000                                                  
G21  22646105.660   119006100.391          50.000                                                  
G26  24427214.020   128365752.141          50.000    24427218.080    95857515.156          50.000  
G27  22323190.640   117309105.512          50.000    22323192.020    87600947.375          50.000  
G29  24260742.980   127491017.324          50.000                                                  
G32  24031315.260   126285330.023          50.000    24031317.980    94303960.266          50.000  
E 3  25540622.820   134216849.801          50.000    25540627.700   100226860.840          50.000  
E 7  26084756.820   137076270.574          50.000    26084763.640   102362136.727          50.000  
E 8  21695382.020   114010002.391          50.000    21695384.920    85137336.801          50.000  
E13  23493099.400   123457052.008          50.000    23493103.080    92191948.348          50.000  
E15  24353734.600   127979694.301          50.000    24353740.260    95569241.441          50.000  
E26  26077237.740   137036749.727          50.000    26077244.580   102332623.445          50.000  
> 2020  8 13 21 41 33.0000000  0 15       0.000000000000
G10  21135437.960   111067423.887          50.000    21135437.960    82939951.082          50.000  
G15  22642899.640   118989049.230          50.000                                                  
G16  23684231.900   124461463.098          50.000                                                  
G20  20236896.840   106345608.980          50.000                                                  
G21  22645739.980   119004178.711          50.000                                                  
G26  24427703.880   128368326.336          50.000    24427707.920    95859437.445          50.000  
G27  22322736.460   117306718.816          50.000    22322737.860    87599165.102          50.000  
G29  24261456.100   127494764.777          50.000                                                  
G32  24030622.020   126281687.047          50.000    24030624.740    94301239.863          50.000  
E 3  25540983.200   134218743.625          50.000    25540988.080   100228275.059          50.000  
E 7  26084216.940   137073433.523          50.000    26084223.760   102360018.152          50.000  
E 8  21695234.720   114009228.410          50.000    21695237.640    85136758.828          50.000  
E13  23492924.560   123456133.262          50.000    23492928.240    92191262.270          50.000  
E15  24353981.320   127980990.844          50.000    24353987.000    95570209.641          50.000  
E26  26076793.180   137034413.488          50.000    26076800.000   102330878.848          50.000  
> 2020  8 13 21 41 34.0000000  0 15       0.000000000000
G10  21135212.320   111066238.172          50.000    21135212.340    82939065.645          50.000  
G15  22643380.840   118991577.957          50.000                                                  
G16  23684533.720   124463049.133          50.000                                                  
G20  20236997.840   106346139.656          50.000                                                  
G21  22645374.320   119002257.105          50.000                                                  
G26  24428193.740   128370900.605          50.000    24428197.800    95861359.789          50.000  
G27  22322282.380   117304332.598          50.000    22322283.780    87597383.184          50.000  
G29  24262169.260   127498512.379          50.000                                                  
G32  24029928.800   126278044.129          50.000    24029931.520    94298519.504          50.000  
E 3  25541343.640   134220637.766          50.000    25541348.520   100229689.512          50.000  
E 7  26083677.100   137070596.656          50.000    26083683.920   102357899.711          50.000  
E 8  21695087.540   114008454.887          50.000    21695090.440    85136181.199          50.000  
E13  23492749.780   123455214.719          50.000    23492753.460    92190576.348          50.000  
E15  24354228.080   127982287.602          50.000    24354233.760    95571178.000          50.000  
E26  26076348.600   137032077.234          50.000    26076355.440   102329134.246          50.000  
> 2020  8 13 21 41 35.0000000  0 15       0.000000000000
G10  21134986.760   111065052.824          50.000    21134986.760    82938180.484          50.000  
G15  22643862.140   118994107.172          50.000                                                  
G16  23684835.620   124464635.621          50.000                                                  
G20  20237098.880   106346670.668          50.000                                                  
G21  22645008.660   119000335.535          50.000                                                  
G26  24428683.620   128373474.930          50.000    24428687.680    95863282.172          50.000  
G27  22321828.380   117301946.820          50.000    22321829.780    87595601.598          50.000  
G29  24262882.420   127502260.113          50.000                                                  
G32  24029235.580   126274401.262          50.000    24029238.300    94295799.180          50.000  
E 3  25541704.140   134222532.227          50.000    25541709.020   100231104.207          50.000  
E 7  26083137.300   137067759.953          50.000    26083144.120   102355781.398          50.000  
E 8  21694940.420   114007681.797          50.000    21694943.320    85135603.891          50.000  
E13  23492575.020   123454296.348          50.000    23492578.700    92189890.551          50.000  
E15  24354474.900   127983584.613          50.000    24354480.580    95572146.543          50.000  
E26  26075904.020   137029740.945          50.000    26075910.860   102327389.617          50.000  
> 2020  8 13 21 41 36.0000000  0 15       0.000000000000
G10  21134761.260   111063867.852          50.000    21134761.280    82937295.602          50.000  
G15  22644343.520   118996636.898          50.000                                                  
G16  23685137.600   124466222.582          50.000                                                  
G20  20237200.000   106347202.023          50.000                                                  
G21  22644643.000   118998414.035          50.000                                                  
G26  24429173.520   128376049.332          50.000    24429177.580    95865204.617          50.000  
G27  22321374.480   117299561.504          50.000    22321375.860    87593820.359          50.000  
G29  24263595.620   127506007.988          50.000                                                  
G32  24028542.380   126270758.457          50.000    24028545.100    94293078.906          50.000  
E 3  25542064.720   134224426.992          50.000    25542069.580   100232519.129          50.000  
E 7  26082597.520   137064923.434          50.000    26082604.340   102353663.219          50.000  
E 8  21694793.380   114006909.156          50.000    21694796.300    85135026.918          50.000  
E13  23492400.300   123453378.168          50.000    23492403.980    92189204.895          50.000  
E15  24354721.760   127984881.848          50.000    24354727.420    95573115.258          50.000  
E26  26075459.420   137027404.637          50.000    26075466.260   102325644.973          50.000  
> 2020  8 13 21 41 37.0000000  0 15       0.000000000000
G10  21134535.840   111062683.254          50.000    21134535.860    82936411.000          50.000  
G15  22644825.000   118999167.129          50.000                                                  
G16  23685439.680   124467810.012          50.000                                                  
G20  20237301.180   106347733.723          50.000                                                  
G21  22644277.360   118996492.594          50.000                                                  
G26  24429663.420   128378623.805          50.000    24429667.480    95867127.109          50.000  
G27  22320920.640   117297176.648          50.000    22320922.040    87592039.461          50.000  
G29  24264308.840   127509756.004          50.000                                                  
G32  24027849.180   126267115.699          50.000    24027851.900    94290358.668          50.000  
E 3  25542425.340   134226322.086          50.000    25542430.220   100233934.293          50.000  
E 7  26082057.800   137062087.094          50.000    26082064.600   102351545.176          50.000  
E 8  21694646.440   114006136.957          50.000    21694649.340    85134450.277          50.000  
E13  23492225.600   123452460.172          50.000    23492229.280    92188519.379          50.000  
E15  24354968.660   127986179.313          50.000    24354974.320    95574084.145          50.000  
E26  26075014.840   137025068.305          50.000    26075021.680   102323900.309          50.000  
> 2020  8 13 21 41 38.0000000  0 15       0.000000000000
G10  21134310.500   111061499.023          50.000    21134310.500    82935526.672          50.000  
G15  22645306.600   119001697.867          50.000                                                  
G16  23685741.860   124469397.902          50.000                                                  
G20  20237402.420   106348265.766          50.000                                                  
G21  22643911.740   118994571.215          50.000                                                  
G26  24430153.340   128381198.340          50.000    24430157.400    95869049.648          50.000  
G27  22320466.920   117294792.258          50.000    22320468.300    87590258.910          50.000  
G29  24265022.100   127513504.152          50.000                                                  
G32  24027156.000   126263473.031          50.000    24027158.720    94287638.496          50.000  
E 3  25542786.020   134228217.488          50.000    25542790.900   100235349.691          50.000  
E 7  26081518.080   137059250.938          50.000    26081524.900   102349427.266          50.000  
E 8  21694499.580   114005365.207          50.000    21694502.480    85133873.969          50.000  
E13  23492050.960   123451542.367          50.000    23492054.620    92187834.008          50.000  
E15  24355215.600   127987477.020          50.000    24355221.280    95575053.211          50.000  
E26  26074570.240   137022731.945          50.000    26074577.080   102322155.629          50.000  
> 2020  8 13 21 41 39.0000000  0 15       0.000000000000
G10  21134085.220   111060315.172          50.000    21134085.220    82934642.625          50.000  
G15  22645788.280   119004229.109          50.000                                                  
G16  23686044.100   124470986.246          50.000                                                  
G20  20237503.720   106348798.145          50.000                                                  
G21  22643546.120   118992649.887          50.000                                                  
G26  24430643.260   128383772.945          50.000    24430647.320    95870972.242          50.000  
G27  22320013.260   117292408.320          50.000    22320014.660    87588478.699          50.000  
G29  24265735.380   127517252.445          50.000                                                  
G32  24026462.840   126259830.410          50.000    24026465.560    94284918.355          50.000  
E 3  25543146.760   134230113.199          50.000    25543151.640   100236765.324          50.000  
E 7  26080978.420   137056414.957          50.000    26080985.220   102347309.492          50.000  
E 8  21694352.800   114004593.891          50.000    21694355.700    85133297.988          50.000  
E13  23491876.340   123450624.742          50.000    23491880.020    92187148.770          50.000  
E15  24355462.580   127988774.945          50.000    24355468.260    95576022.441          50.000  
E26  26074125.640   137020395.555          50.000    26074132.480   102320410.922          50.000  
> 2020  8 13 21 41 40.0000000  0 15       0.000000000000
G10  21133860.000   111059131.680          50.000    21133860.000    82933758.852          50.000  
G15  22646270.040   119006760.855          50.000                                                  
G16  23686346.440   124472575.055          50.000                                                  
G20  20237605.100   106349330.863          50.000                                                  
G21  22643180.520   118990728.621          50.000                                                  
G26  24431133.220   128386347.617          50.000    24431137.280    95872894.887          50.000  
G27  22319559.700   117290024.848          50.000    22319561.100    87586698.832          50.000  
G29  24266448.680   127521000.871          50.000                                                  
G32  24025769.680   126256187.840          50.000    24025772.400    94282198.258          50.000  
E 3  25543507.560   134232009.234          50.000    25543512.440   100238181.191          50.000  
E 7  26080438.780   137053579.152          50.000    26080445.600   102345191.848          50.000  
E 8  21694206.120   114003823.027          50.000    21694209.020    85132722.344          50.000  
E13  23491701.760   123449707.313          50.000    23491705.420    92186463.676          50.000  
E15  24355709.620   127990073.117          50.000    24355715.300    95576991.855          50.000  
E26  26073681.040   137018059.133          50.000    26073687.880   102318666.191          50.000  
> 2020  8 13 21 41 41.0000000  0 15       0.000000000000
G10  21133634.860   111057948.578          50.000    21133634.880    82932875.367          50.000  
G15  22646751.920   119009293.113          50.000                                                  
G16  23686648.880   124474164.340          50.000                                                  
G20  20237706.540   106349863.938          50.000                                                  
G21  22642814.920   118988807.422          50.000                                                  
G26  24431623.180   128388922.355          50.000    24431627.240    95874817.578          50.000  
G27  22319106.240   117287641.832          50.000    22319107.620    87584919.309          50.000  
G29  24267162.000   127524749.438          50.000                                                  
G32  24025076.520   126252545.332          50.000    24025079.260    94279478.203          50.000  
E 3  25543868.420   134233905.586          50.000    25543873.300   100239597.297          50.000  
E 7  26079899.180   137050743.543          50.000    26079906.000   102343074.348          50.000  
E 8  21694059.500   114003052.609          50.000    21694062.420    85132147.031          50.000  
E13  23491527.200   123448790.070          50.000    23491530.880    92185778.723          50.000  
E15  24355956.700   127991371.520          50.000    24355962.380    95577961.438          50.000  
E26  26073236.420   137015722.703          50.000    26073243.260   102316921.457          50.000  
> 2020  8 13 21 41 42.0000000  0 15       0.000000000000
G10  21133409.800   111056765.824          50.000    21133409.800    82931992.145          50.000  
G15  22647233.880   119011825.852          50.000                                                  
G16  23686951.400   124475754.078          50.000                                                  
G20  20237808.040   106350397.348          50.000                                                  
G21  22642449.340   118986886.273          50.000                                                  
G26  24432113.140   128391497.176          50.000    24432117.200    95876740.332          50.000  
G27  22318652.840   117285259.273          50.000    22318654.240    87583140.129          50.000  
G29  24267875.360   127528498.125          50.000                                                  
G32  24024383.400   126248902.895          50.000    24024386.120    94276758.203          50.000  
E 3  25544229.360   134235802.246          50.000    25544234.220   100241013.633          50.000  
E 7  26079359.620   137047908.094          50.000    26079366.420   102340956.969          50.000  
E 8  21693912.980   114002282.629          50.000    21693915.900    85131572.047          50.000  
E13  23491352.700   123447873.012          50.000    23491356.380    92185093.906          50.000  
E15  24356203.820   127992670.152          50.000    24356209.500    95578931.199          50.000  
E26  26072791.820   137013386.238          50.000    26072798.640   102315176.695          50.000  
> 2020  8 13 21 41 43.0000000  0 15       0.000000000000
G10  21133184.800   111055583.461          50.000    21133184.800    82931109.211          50.000  
G15  22647715.960   119014359.113          50.000                                                  
G16  23687254.000   124477344.285          50.000                                                  
G20  20237909.620   106350931.098          50.000                                                  
G21  22642083.760   118984965.188          50.000                                                  
G26  24432603.120   128394072.051          50.000    24432607.180    95878663.129          50.000  
G27  22318199.540   117282877.164          50.000    22318200.940    87581361.281          50.000  
G29  24268588.740   127532246.969          50.000                                                  
G32  24023690.280   126245260.512          50.000    24023693.000    94274038.246          50.000  
E 3  25544590.340   134237699.219          50.000    25544595.220   100242430.203          50.000  
E 7  26078820.080   137045072.840          50.000    26078826.900   102338839.738          50.000  
E 8  21693766.540   114001513.094          50.000    21693769.460    85130997.395          50.000  
E13  23491178.220   123446956.129          50.000    23491181.900    92184409.219          50.000  
E15  24356450.980   127993969.016          50.000    24356456.660    95579901.129          50.000  
E26  26072347.180   137011049.742          50.000    26072354.020   102313431.910          50.000  
> 2020  8 13 21 41 44.0000000  0 15       0.000000000000
G10  21132959.880   111054401.473          50.000    21132959.880    82930226.555          50.000  
G15  22648198.120   119016892.887          50.000                                                  
G16  23687556.700   124478934.941          50.000                                                  
G20  20238011.260   106351465.195          50.000                                                  
G21  22641718.200   118983044.148          50.000                                                  
G26  24433093.120   128396647.004          50.000    24433097.180    95880585.980          50.000  
G27  22317746.340   117280495.527          50.000    22317747.720    87579582.785          50.000  
G29  24269302.140   127535995.949          50.000                                                  
G32  24022997.160   126241618.191          50.000    24022999.880    94271318.332          50.000  
E 3  25544951.380   134239596.508          50.000    25544956.260   100243847.012          50.000  
E 7  26078280.580   137042237.742          50.000    26078287.380   102336722.621          50.000  
E 8  21693620.200   114000743.996          50.000    21693623.100    85130423.070          50.000  
E13  23491003.780   123446039.445          50.000    23491007.460    92183724.684          50.000  
E15  24356698.200   127995268.113          50.000    24356703.880    95580871.234          50.000  
E26  26071902.560   137008713.230          50.000    26071909.400   102311687.113          50.000  
> 2020  8 13 21 41 45.0000000  0 15       0.000000000000
G10  21132735.020   111053219.848          50.000    21132735.020    82929344.176          50.000  
G15  22648680.360   119019427.152          50.000                                                  
G16  23687859.480   124480526.074          50.000                                                  
G20  20238112.960   106351999.645          50.000                                                  
G21  22641352.660   118981123.184          50.000                                                  
G26  24433583.140   128399222.008          50.000    24433587.200    95882508.875          50.000  
G27  22317293.200   117278114.352          50.000    22317294.600    87577804.637          50.000  
G29  24270015.580   127539745.055          50.000                                                  
G32  24022304.060   126237975.926          50.000    24022306.780    94268598.461          50.000  
E 3  25545312.480   134241494.109          50.000    25545317.360   100245264.051          50.000  
E 7  26077741.120   137039402.844          50.000    26077747.920   102334605.652          50.000  
E 8  21693473.920   113999975.348          50.000    21693476.820    85129849.082          50.000  
E13  23490829.380   123445122.941          50.000    23490833.060    92183040.281          50.000  
E15  24356945.460   127996567.449          50.000    24356951.120    95581841.516          50.000  
E26  26071457.940   137006376.695          50.000    26071464.780   102309942.301          50.000  
> 2020  8 13 21 41 46.0000000  0 15       0.000000000000
G10  21132510.240   111052038.590          50.000    21132510.240    82928462.066          50.000  
G15  22649162.720   119021961.934          50.000                                                  
G16  23688162.340   124482117.664          50.000                                                  
G20  20238214.720   106352534.434          50.000                                                  
G21  22640987.120   118979202.270          50.000                                                  
G26  24434073.160   128401797.094          50.000    24434077.220    95884431.828          50.000  
G27  22316840.180   117275733.629          50.000    22316841.560    87576026.824          50.000  
G29  24270729.040   127543494.309          50.000                                                  
G32  24021610.960   126234333.723          50.000    24021613.700    94265878.637          50.000  
E 3  25545673.640   134243392.031          50.000    25545678.520   100246681.328          50.000  
E 7  26077201.680   137036568.125          50.000    26077208.500   102332488.816          50.000  
E 8  21693327.740   113999207.141          50.000    21693330.640    85129275.418          50.000  
E13  23490655.000   123444206.633          50.000    23490658.680    92182356.023          50.000  
E15  24357192.760   127997867.016          50.000    24357198.420    95582811.969          50.000  
E26  26071013.300   137004040.125          50.000    26071020.140   102308197.461          50.000  
> 2020  8 13 21 41 47.0000000  0 15       0.000000000000
G10  21132285.520   111050857.707          50.000    21132285.520    82927580.238          50.000  
G15  22649645.180   119024497.223          50.000                                                  
G16  23688465.300   124483709.719          50.000                                                  
G20  20238316.560   106353069.570          50.000                                                  
G21  22640621.600   118977281.406          50.000                                                  
G26  24434563.200   128404372.238          50.000    24434567.260    95886354.824          50.000  
G27  22316387.220   117273353.363          50.000    22316388.620    87574249.355          50.000  
G29  24271442.520   127547243.691          50.000                                                  
G32  24020917.900   126230691.582          50.000    24020920.620    94263158.855          50.000  
E 3  25546034.860   134245290.262          50.000    25546039.740   100248098.836          50.000  
E 7  26076662.280   137033733.578          50.000    26076669.100   102330372.113          50.000  
E 8  21693181.640   113998439.383          50.000    21693184.540    85128702.094          50.000  
E13  23490480.680   123443290.508          50.000    23490484.360    92181671.906          50.000  
E15  24357440.100   127999166.801          50.000    24357445.760    95583782.590          50.000  
E26  26070568.660   137001703.527          50.000    26070575.500   102306452.598          50.000  
> 2020  8 13 21 41 48.0000000  0 15       0.000000000000
G10  21132060.880   111049677.191          50.000    21132060.880    82926698.688          50.000  
G15  22650127.720   119027033.012          50.000                                                  
G16  23688768.360   124485302.238          50.000                                                  
G20  20238418.440   106353605.039          50.000                                                  
G21  22640256.080   118975360.613          50.000                                                  
G26  24435053.240   128406947.457          50.000    24435057.300    95888277.875          50.000  
G27  22315934.360   117270973.570          50.000    22315935.740    87572472.234          50.000  
G29  24272156.040   127550993.219          50.000                                                  
G32  24020224.820   126227049.508          50.000    24020227.540    94260439.129          50.000  
E 3  25546396.140   134247188.805          50.000    25546401.020   100249516.578          50.000  
E 7  26076122.920   137030899.215          50.000    26076129.740   102328255.543          50.000  
E 8  21693035.620   113997672.070          50.000    21693038.520    85128129.098          50.000  
E13  23490306.380   123442374.570          50.000    23490310.060    92180987.930          50.000  
E15  24357687.480   128000466.844          50.000    24357693.160    95584753.398          50.000  
E26  26070124.020   136999366.906          50.000    26070130.840   102304707.723          50.000  
> 2020  8 13 21 41 49.0000000  0 15       0.000000000000
G10  21131836.300   111048497.059          50.000    21131836.300    82925817.418          50.000  
G15  22650610.360   119029569.305          50.000                                                  
G16  23689071.480   124486895.215          50.000                                                  
G20  20238520.420   106354140.855          50.000                                                  
G21  22639890.560   118973439.863          50.000                                                  
G26  24435543.300   128409522.734          50.000    24435547.360    95890200.969          50.000  
G27  22315481.580   117268594.223          50.000    22315482.980    87570695.453          50.000  
G29  24272869.580   127554742.875          50.000                                                  
G32  24019531.780   126223407.480          50.000    24019534.500    94257719.434          50.000  
E 3  25546757.480   134249087.668          50.000    25546762.360   100250934.563          50.000  
E 7  26075583.600   137028065.023          50.000    26075590.400   102326139.105          50.000  
E 8  21692889.700   113996905.188          50.000    21692892.600    85127556.430          50.000  
E13  23490132.120   123441458.820          50.000    23490135.800    92180304.086          50.000  
E15  24357934.920   128001767.102          50.000    24357940.600    95585724.371          50.000  
E26  26069679.360   136997030.262          50.000    26069686.200   102302962.828          50.000  
> 2020  8 13 21 41 50.0000000  0 15       0.000000000000
G10  21131611.800   111047317.285          50.000    21131611.800    82924936.418          50.000  
G15  22651093.100   119032106.098          50.000                                                  
G16  23689374.720   124488488.672          50.000                                                  
G20  20238622.440   106354677.016          50.000                                                  
G21  22639525.080   118971519.184          50.000                                                  
G26  24436033.380   128412098.094          50.000    24436037.440    95892124.125          50.000  
G27  22315028.900   117266215.336          50.000    22315030.280    87568919.012          50.000  
G29  24273583.140   127558492.672          50.000                                                  
G32  24018838.720   126219765.512          50.000    24018841.440    94254999.781          50.000  
E 3  25547118.880   134250986.836          50.000    25547123.760   100252352.773          50.000  
E 7  26075044.300   137025231.020          50.000    26075051.100   102324022.801          50.000  
E 8  21692743.840   113996138.762          50.000    21692746.740    85126984.098          50.000  
E13  23489957.880   123440543.246          50.000    23489961.560    92179620.379          50.000  
E15  24358182.380   128003067.594          50.000    24358188.060    95586695.516          50.000  
E26  26069234.700   136994693.582          50.000    26069241.540   102301217.906          50.000  
> 2020  8 13 21 41 51.0000000  0 15       0.000000000000
G10  21131387.360   111046137.891          50.000    21131387.360    82924055.703          50.000  
G15  22651575.920   119034643.398          50.000                                                  
G16  23689678.020   124490082.574          50.000                                                  
G20  20238724.540   106355213.520          50.000                                                  
G21  22639159.600   118969598.570          50.000                                                  
G26  24436523.460   128414673.508          50.000    24436527.520    95894047.324          50.000  
G27  22314576.300   117263836.914          50.000    22314577.680    87567142.918          50.000  
G29  24274296.740   127562242.602          50.000                                                  
G32  24018145.700   126216123.613          50.000    24018148.420    94252280.184          50.000  
E 3  25547480.340   134252886.324          50.000    25547485.220   100253771.223          50.000  
E 7  26074505.040   137022397.188          50.000    26074511.840   102321906.633          50.000  
E 8  21692598.080   113995372.781          50.000    21692600.980    85126412.098          50.000  
E13  23489783.700   123439627.867          50.000    23489787.380    92178936.820          50.000  
E15  24358429.900   128004368.320          50.000    24358435.580    95587666.840          50.000  
E26  26068790.040   136992356.883          50.000    26068796.880   102299472.969          50.000  
> 2020  8 13 21 41 52.0000000  0 15       0.000000000000
G10  21131163.000   111044958.875          50.000    21131163.000    82923175.270          50.000  
G15  22652058.860   119037181.211          50.000                                                  
G16  23689981.420   124491676.938          50.000                                                  
G20  20238826.700   106355750.367          50.000                                                  
G21  22638794.120   118967678.004          50.000                                                  
G26  24437013.560   128417248.992          50.000    24437017.620    95895970.574          50.000  
G27  22314123.780   117261458.930          50.000    22314125.180    87565367.152          50.000  
G29  24275010.340   127565992.676          50.000                                                  
G32  24017452.680   126212481.766          50.000    24017455.400    94249560.625          50.000  
E 3  25547841.860   134254786.125          50.000    25547846.740   100255189.902          50.000  
E 7  26073965.800   137019563.531          50.000    26073972.620   102319790.590          50.000  
E 8  21692452.400   113994607.238          50.000    21692455.300    85125840.430          50.000  
E13  23489609.540   123438712.676          50.000    23489613.220    92178253.395          50.000  
E15  24358677.480   128005669.285          50.000    24358683.160    95588638.336          50.000  
E26  26068345.380   136990020.160          50.000    26068352.220   102297728.016          50.000  
> 2020  8 13 21 41 53.0000000  0 15       0.000000000000
G10  21130938.720   111043780.223          50.000    21130938.720    82922295.105          50.000  
G15  22652541.880   119039719.520          50.000                                                  
G16  23690284.900   124493271.781          50.000                                                  
G20  20238928.920   106356287.559          50.000                                                  
G21  22638428.660   118965757.508          50.000                                                  
G26  24437503.680   128419824.535          50.000    24437507.740    95897893.867          50.000  
G27  22313671.360   117259081.445          50.000    22313672.740    87563591.758          50.000  
G29  24275723.980   127569742.863          50.000                                                  
G32  24016759.660   126208840.000          50.000    24016762.380    94246841.129          50.000  
E 3  25548203.440   134256686.238          50.000    25548208.320   100256608.820          50.000  
E 7  26073426.620   137016730.074          50.000    26073433.420   102317674.699          50.000  
E 8  21692306.820   113993842.145          50.000    21692309.720    85125269.090          50.000  
E13  23489435.420   123437797.680          50.000    23489439.100    92177570.121          50.000  
E15  24358925.080   128006970.477          50.000    24358930.760    95589610.004          50.000  
E26  26067900.720   136987683.406          50.000    26067907.540   102295983.039          50.000  
> 2020  8 13 21 41 54.0000000  0 15       0.000000000000
G10  21130714.500   111042601.945          50.000    21130714.500    82921415.227          50.000  
G15  22653025.000   119042258.332          50.000                                                  
G16  23690588.480   124494867.066          50.000                                                  
G20  20239031.200   106356825.094          50.000                                                  
G21  22638063.220   118963837.074          50.000                                                  
G26  24437993.800   128422400.152          50.000    24437997.860    95899817.215          50.000  
G27  22313219.020   117256704.410          50.000    22313220.420    87561816.703          50.000  
G29  24276437.660   127573493.211          50.000                                                  
G32  24016066.660   126205198.273          50.000    24016069.380    94244121.656          50.000  
E 3  25548565.080   134258586.672          50.000    25548569.960   100258027.969          50.000  
E 7  26072887.460   137013896.785          50.000    26072894.260   102315558.934          50.000  
E 8  21692161.300   113993077.492          50.000    21692164.200    85124698.086          50.000  
E13  23489261.340   123436882.871          50.000    23489265.020    92176886.984          50.000  
E15  24359172.740   128008271.914          50.000    24359178.420    95590581.859          50.000  
E26  26067456.040   136985346.633          50.000    26067462.880   102294238.047          50.000  
> 2020  8 13 21 41 55.0000000  0 15       0.000000000000
G10  21130490.340   111041424.035          50.000    21130490.340    82920535.617          50.000  
G15  22653508.220   119044797.652          50.000                                                  
G16  23690892.140   124496462.820          50.000                                                  
G20  20239133.560   106357362.969          50.000                                                  
G21  22637697.780   118961916.695          50.000                                                  
G26  24438483.940   128424975.844          50.000    24438488.000    95901740.621          50.000  
G27  22312766.780   117254327.820          50.000    22312768.160    87560041.977          50.000  
G29  24277151.340   127577243.691          50.000                                                  
G32  24015373.680   126201556.613          50.000    24015376.400    94241402.238          50.000  
E 3  25548926.780   134260487.414          50.000    25548931.660   100259447.355          50.000  
E 7  26072348.340   137011063.684          50.000    26072355.140   102313443.309          50.000  
E 8  21692015.880   113992313.281          50.000    21692018.780    85124127.410          50.000  
E13  23489087.300   123435968.238          50.000    23489090.960    92176203.980          50.000  
E15  24359420.440   128009573.566          50.000    24359426.120    95591553.871          50.000  
E26  26067011.360   136983009.832          50.000    26067018.200   102292493.031          50.000  
> 2020  8 13 21 41 56.0000000  0 15       0.000000000000
G10  21130266.260   111040246.500          50.000    21130266.280    82919656.289          50.000  
G15  22653991.540   119047337.480          50.000                                                  
G16  23691195.900   124498059.063          50.000                                                  
G20  20239235.980   106357901.188          50.000                                                  
G21  22637332.360   118959996.383          50.000                                                  
G26  24438974.080   128427551.590          50.000    24438978.140    95903664.070          50.000  
G27  22312314.620   117251951.703          50.000    22312316.000    87558267.605          50.000  
G29  24277865.060   127580994.301          50.000                                                  
G32  24014680.720   126197915.023          50.000    24014683.420    94238682.871          50.000  
E 3  25549288.540   134262388.465          50.000    25549293.420   100260866.973          50.000  
E 7  26071809.240   137008230.754          50.000    26071816.060   102311327.809          50.000  
E 8  21691870.540   113991549.520          50.000    21691873.440    85123557.070          50.000  
E13  23488913.280   123435053.801          50.000    23488916.960    92175521.121          50.000  
E15  24359668.180   128010875.480          50.000    24359673.860    95592526.078          50.000  
E26  26066566.680   136980673.016          50.000    26066573.500   102290748.008          50.000  
> 2020  8 13 21 41 57.0000000  0 15       0.000000000000
G10  21130042.260   111039069.461          50.000    21130042.260    82918777.375          50.000  
G15  22654474.940   119049877.797          50.000                                                  
G16  23691499.740   124499655.770          50.000                                                  
G20  20239338.460   106358439.773          50.000                                                  
G21  22636966.940   118958076.133          50.000                                                  
G26  24439464.240   128430127.402          50.000    24439468.300    95905587.570          50.000  
G27  22311862.540   117249576.039          50.000    22311863.920    87556493.574          50.000  
G29  24278578.820   127584745.063          50.000                                                  
G32  24013987.740   126194273.449          50.000    24013990.460    94235963.508          50.000  
E 3  25549650.360   134264289.832          50.000    25549655.240   100262286.824          50.000  
E 7  26071270.200   137005398.004          50.000    26071277.000   102309212.445          50.000  
E 8  21691725.280   113990786.203          50.000    21691728.180    85122987.059          50.000  
E13  23488739.300   123434139.543          50.000    23488742.980    92174838.398          50.000  
E15  24359915.960   128012177.594          50.000    24359921.640    95593498.434          50.000  
E26  26066121.980   136978336.164          50.000    26066128.820   102289002.961          50.000  
> 2020  8 13 21 41 58.0000000  0 15       0.000000000000
G10  21129818.320   111037892.676          50.000    21129818.320    82917898.605          50.000  
G15  22654958.440   119052418.633          50.000                                                  
G16  23691803.680   124501252.930          50.000                                                  
G20  20239441.020   106358978.684          50.000                                                  
G21  22636601.540   118956155.938          50.000                                                  
G26  24439954.420   128432703.297          50.000    24439958.480    95907511.125          50.000  
G27  22311410.560   117247200.840          50.000    22311411.940    87554719.887          50.000  
G29  24279292.580   127588495.961          50.000                                                  
G32  24013294.800   126190631.980          50.000    24013297.520    94233244.234          50.000  
E 3  25550012.240   134266191.512          50.000    25550017.120   100263706.910          50.000  
E 7  26070731.180   137002565.438          50.000    26070737.980   102307097.223          50.000  
E 8  21691580.120   113990023.313          50.000    21691583.020    85122417.367          50.000  
E13  23488565.360   123433225.480          50.000    23488569.040    92174155.816          50.000  
E15  24360163.800   128013479.945          50.000    24360169.480    95594470.973          50.000  
E26  26065677.300   136975999.281          50.000    26065684.120   102287257.887          50.000  
> 2020  8 13 21 41 59.0000000  0 15       0.000000000000
G10  21129594.460   111036716.266          50.000    21129594.460    82917020.117          50.000  
G15  22655442.040   119054959.973          50.000                                                  
G16  23692107.680   124502850.555          50.000                                                  
G20  20239543.640   106359517.941          50.000                                                  
G21  22636236.140   118954235.805          50.000                                                  
G26  24440444.600   128435279.242          50.000    24440448.680    95909434.723          50.000  
G27  22310958.660   117244826.105          50.000    22310960.040    87552946.547          50.000  
G29  24280006.380   127592247.008          50.000                                                  
G32  24012601.860   126186990.566          50.000    24012604.580    94230524.996          50.000  
E 3  25550374.180   134268093.512          50.000    25550379.060   100265127.234          50.000  
E 7  26070192.180   136999733.051          50.000    26070199.000   102304982.129          50.000  
E 8  21691435.020   113989260.883          50.000    21691437.920    85121848.020          50.000  
E13  23488391.460   123432311.602          50.000    23488395.140    92173473.375          50.000  
E15  24360411.680   128014782.551          50.000    24360417.360    95595443.695          50.000  
E26  26065232.600   136973662.387          50.000    26065239.420   102285512.801          50.000  
> 2020  8 13 21 42  0.0000000  0 15       0.000000000000
G10  21129370.660   111035540.207          50.000    21129370.660    82916141.895          50.000  
G15  22655925.740   119057501.816          50.000                                                  
G16  23692411.800   124504448.645          50.000                                                  
G20  20239646.320   106360057.539          50.000                                                  
G21  22635870.760   118952315.723          50.000                                                  
G26  24440934.800   128437855.270          50.000    24440938.880    95911358.375          50.000  
G27  22310506.840   117242451.824          50.000    22310508.240    87551173.547          50.000  
G29  24280720.200   127595998.172          50.000                                                  
G32  24011908.920   126183349.211          50.000    24011911.640    94227805.805          50.000  
E 3  25550736.180   134269995.816          50.000    25550741.060   100266547.785          50.000  
E 7  26069653.240   136996900.840          50.000    26069660.040   102302867.168          50.000  
E 8  21691290.020   113988498.887          50.000    21691292.920    85121279.000          50.000  
E13  23488217.580   123431397.910          50.000    23488221.260    92172791.074          50.000  
E15  24360659.600   128016085.359          50.000    24360665.260    95596416.570          50.000  
E26  26064787.900   136971325.441          50.000    26064794.720   102283767.684          50.000  
> 2020  8 13 21 42  1.0000000  0 15       0.000000000000
G10  21129146.940   111034364.527          50.000    21129146.940    82915263.949          50.000  
G15  22656409.540   119060044.172          50.000                                                  
G16  23692715.980   124506047.184          50.000                                                  
G20  20239749.060   106360597.477          50.000                                                  
G21  22635505.400   118950395.691          50.000                                                  
G26  24441425.020   128440431.348          50.000    24441429.080    95913282.070          50.000  
G27  22310055.120   117240078.016          50.000    22310056.500    87549400.898          50.000  
G29  24281434.060   127599749.480          50.000                                                  
G32  24011216.020   126179707.945          50.000    24011218.740    94225086.680          50.000  
E 3  25551098.240   134271898.441          50.000    25551103.120   100267968.574          50.000  
E 7  26069114.320   136994068.801          50.000    26069121.120   102300752.336          50.000  
E 8  21691145.100   113987737.352          50.000    21691148.020    85120710.320          50.000  
E13  23488043.760   123430484.418          50.000    23488047.440    92172108.918          50.000  
E15  24360907.560   128017388.426          50.000    24360913.240    95597389.641          50.000  
E26  26064343.180   136968988.477          50.000    26064350.000   102282022.551          50.000  
> 2020  8 13 21 42  2.0000000  0 15       0.000000000000
G10  21128923.280   111033189.223          50.000    21128923.280    82914386.289          50.000  
G15  22656893.420   119062587.023          50.000                                                  
G16  23693020.260   124507646.191          50.000                                                  
G20  20239851.860   106361137.758          50.000                                                  
G21  22635140.040   118948475.723          50.000                                                  
G26  24441915.240   128443007.504          50.000    24441919.320    95915205.820          50.000  
G27  22309603.500   117237704.676          50.000    22309604.880    87547628.598          50.000  
G29  24282147.940   127603500.922          50.000                                                  
G32  24010523.120   126176066.730          50.000    24010525.840    94222367.594          50.000  
E 3  25551460.360   134273801.371          50.000    25551465.240   100269389.594          50.000  
E 7  26068575.440   136991236.957          50.000    26068582.240   102298637.648          50.000  
E 8  21691000.280   113986976.234          50.000    21691003.180    85120141.953          50.000  
E13  23487869.960   123429571.094          50.000    23487873.640    92171426.891          50.000  
E15  24361155.560   128018691.699          50.000    24361161.240    95598362.863          50.000  
E26  26063898.480   136966651.516          50.000    26063905.300   102280277.418          50.000  
> 2020  8 13 21 42  3.0000000  0 15       0.000000000000
G10  21128699.700   111032014.301          50.000    21128699.700    82913508.914          50.000  
G15  22657377.400   119065130.387          50.000                                                  
G16  23693324.640   124509245.656          50.000                                                  
G20  20239954.740   106361678.383          50.000                                                  
G21  22634774.680   118946555.809          50.000                                                  
G26  24442405.480   128445583.707          50.000    24442409.540    95917129.609          50.000  
G27  22309151.940   117235331.785          50.000    22309153.320    87545856.637          50.000  
G29  24282861.840   127607252.496          50.000                                                  
G32  24009830.220   126172425.578          50.000    24009832.940    94219648.551          50.000  
E 3  25551822.520   134275704.621          50.000    25551827.400   100270810.852          50.000  
E 7  26068036.580   136988405.277          50.000    26068043.380   102296523.082          50.000  
E 8  21690855.520   113986215.582          50.000    21690858.420    85119573.934          50.000  
E13  23487696.180   123428657.953          50.000    23487699.860    92170745.004          50.000  
E15  24361403.620   128019995.234          50.000    24361409.300    95599336.281          50.000  
E26  26063453.760   136964314.500          50.000    26063460.580   102278532.242          50.000  
> 2020  8 13 21 42  4.0000000  0 15       0.000000000000
G10  21128476.180   111030839.730          50.000    21128476.180    82912631.801          50.000  
G15  22657861.480   119067674.242          50.000                                                  
G16  23693629.080   124510845.574          50.000                                                  
G20  20240057.680   106362219.336          50.000                                                  
G21  22634409.340   118944635.949          50.000                                                  
G26  24442895.740   128448159.984          50.000    24442899.800    95919053.449          50.000  
G27  22308700.480   117232959.352          50.000    22308701.860    87544085.016          50.000  
G29  24283575.760   127611004.195          50.000                                                  
G32  24009137.340   126168784.465          50.000    24009140.060    94216929.539          50.000  
E 3  25552184.760   134277608.176          50.000    25552189.640   100272232.336          50.000  
E 7  26067497.760   136985573.793          50.000    26067504.560   102294408.664          50.000  
E 8  21690710.860   113985455.367          50.000    21690713.760    85119006.242          50.000  
E13  23487522.460   123427745.016          50.000    23487526.140    92170063.262          50.000  
E15  24361651.720   128021298.980          50.000    24361657.380    95600309.859          50.000  
E26  26063009.020   136961977.477          50.000    26063015.860   102276787.066          50.000  
> 2020  8 13 21 42  5.0000000  0 15       0.000000000000
G10  21128252.740   111029665.535          50.000    21128252.740    82911754.965          50.000  
G15  22658345.660   119070218.609          50.000                                                  
G16  23693933.640   124512445.957          50.000                                                  
G20  20240160.700   106362760.641          50.000                                                  
G21  22634044.020   118942716.152          50.000                                                  
G26  24443386.000   128450736.336          50.000    24443390.060    95920977.348          50.000  
G27  22308249.120   117230587.383          50.000    22308250.500    87542313.742          50.000  
G29  24284289.720   127614756.039          50.000                                                  
G32  24008444.480   126165143.441          50.000    24008447.200    94214210.594          50.000  
E 3  25552547.060   134279512.059          50.000    25552551.940   100273654.066          50.000  
E 7  26066958.980   136982742.488          50.000    26066965.780   102292294.383          50.000  
E 8  21690566.280   113984695.594          50.000    21690569.180    85118438.879          50.000  
E13  23487348.780   123426832.270          50.000    23487352.440    92169381.668          50.000  
E15  24361899.860   128022602.977          50.000    24361905.540    95601283.621          50.000  
E26  26062564.300   136959640.414          50.000    26062571.120   102275041.859          50.000  
> 2020  8 13 21 42  6.0000000  0 15       0.000000000000
G10  21128029.380   111028491.711          50.000    21128029.380    82910878.410          50.000  
G15  22658829.940   119072763.465          50.000                                                  
G16  23694238.260   124514046.793          50.000                                                  
G20  20240263.760   106363302.281          50.000                                                  
G21  22633678.720   118940796.426          50.000                                                  
G26  24443876.260   128453312.742          50.000    24443880.340    95922901.285          50.000  
G27  22307797.820   117228215.855          50.000    22307799.200    87540542.797          50.000  
G29  24285003.700   127618508.016          50.000                                                  
G32  24007751.620   126161502.461          50.000    24007754.340    94211491.684          50.000  
E 3  25552909.420   134281416.242          50.000    25552914.300   100275076.023          50.000  
E 7  26066420.240   136979911.355          50.000    26066427.040   102290180.223          50.000  
E 8  21690421.780   113983936.266          50.000    21690424.680    85117871.848          50.000  
E13  23487175.120   123425919.695          50.000    23487178.800    92168700.199          50.000  
E15  24362148.040   128023907.188          50.000    24362153.720    95602257.543          50.000  
E26  26062119.560   136957303.340          50.000    26062126.400   102273296.645          50.000  
> 2020  8 13 21 42  7.0000000  0 15       0.000000000000
G10  21127806.080   111027318.266          50.000    21127806.080    82910002.137          50.000  
G15  22659314.300   119075308.836          50.000                                                  
G16  23694542.980   124515648.082          50.000                                                  
G20  20240366.900   106363844.273          50.000                                                  
G21  22633313.420   118938876.758          50.000                                                  
G26  24444366.560   128455889.207          50.000    24444370.620    95924825.270          50.000  
G27  22307346.620   117225844.809          50.000    22307348.020    87538772.211          50.000  
G29  24285717.700   127622260.125          50.000                                                  
G32  24007058.780   126157861.535          50.000    24007061.480    94208772.813          50.000  
E 3  25553271.820   134283320.738          50.000    25553276.700   100276498.211          50.000  
E 7  26065881.520   136977080.422          50.000    26065888.320   102288066.215          50.000  
E 8  21690277.380   113983177.387          50.000    21690280.280    85117305.152          50.000  
E13  23487001.500   123425007.313          50.000    23487005.180    92168018.875          50.000  
E15  24362396.260   128025211.652          50.000    24362401.940    95603231.656          50.000  
E26  26061674.840   136954966.234          50.000    26061681.660   102271551.402          50.000  
> 2020  8 13 21 42  8.0000000  0 15       0.000000000000
G10  21127582.840   111026145.184          50.000    21127582.840    82909126.137          50.000  
G15  22659798.760   119077854.707          50.000                                                  
G16  23694847.780   124517249.836          50.000                                                  
G20  20240470.100   106364386.605          50.000                                                  
G21  22632948.120   118936957.145          50.000                                                  
G26  24444856.860   128458465.742          50.000    24444860.920    95926749.301          50.000  
G27  22306895.520   117223474.215          50.000    22306896.900    87537001.965          50.000  
G29  24286431.720   127626012.375          50.000                                                  
G32  24006365.940   126154220.684          50.000    24006368.660    94206053.996          50.000  
E 3  25553634.300   134285225.555          50.000    25553639.180   100277920.637          50.000  
E 7  26065342.840   136974249.648          50.000    26065349.640   102285952.328          50.000  
E 8  21690133.040   113982418.941          50.000    21690135.940    85116738.781          50.000  
E13  23486827.900   123424095.117          50.000    23486831.580    92167337.691          50.000  
E15  24362644.540   128026516.336          50.000    24362650.220    95604205.934          50.000  
E26  26061230.080   136952629.102          50.000    26061236.920   102269806.141          50.000  
> 2020  8 13 21 42  9.0000000  0 15       0.000000000000
G10  21127359.680   111024972.477          50.000    21127359.680    82908250.410          50.000  
G15  22660283.320   119080401.078          50.000                                                  
G16  23695152.680   124518852.043          50.000                                                  
G20  20240573.380   106364929.281          50.000                                                  
G21  22632582.840   118935037.594          50.000                                                  
G26  24445347.160   128461042.344          50.000    24445351.240    95928673.387          50.000  
G27  22306444.500   117221104.090          50.000    22306445.880    87535232.063          50.000  
G29  24287145.780   127629764.754          50.000                                                  
G32  24005673.120   126150579.895          50.000    24005675.840    94203335.227          50.000  
E 3  25553996.840   134287130.680          50.000    25554001.720   100279343.293          50.000  
E 7  26064804.200   136971419.063          50.000    26064811.000   102283838.582          50.000  
E 8  21689988.800   113981660.945          50.000    21689991.700    85116172.746          50.000  
E13  23486654.360   123423183.117          50.000    23486658.040    92166656.652          50.000  
E15  24362892.860   128027821.258          50.000    24362898.540    95605180.387          50.000  
E26  26060785.340   136950291.945          50.000    26060792.160   102268060.863          50.000  
> 2020  8 13 21 42 10.0000000  0 15       0.000000000000
G10  21127136.600   111023800.141          50.000    21127136.600    82907374.969          50.000  
G15  22660767.980   119082947.953          50.000                                                  
G16  23695457.660   124520454.719          50.000                                                  
G20  20240676.700   106365472.293          50.000                                                  
G21  22632217.580   118933118.098          50.000                                                  
G26  24445837.500   128463619.023          50.000    24445841.560    95930597.531          50.000  
G27  22305993.560   117218734.426          50.000    22305994.940    87533462.512          50.000  
G29  24287859.860   127633517.262          50.000                                                  
G32  24004980.320   126146939.180          50.000    24004983.020    94200616.512          50.000  
E 3  25554359.420   134289036.109          50.000    25554364.300   100280766.180          50.000  
E 7  26064265.600   136968588.652          50.000    26064272.400   102281724.965          50.000  
E 8  21689844.640   113980903.402          50.000    21689847.560    85115607.051          50.000  
E13  23486480.840   123422271.301          50.000    23486484.520    92165975.750          50.000  
E15  24363141.220   128029126.402          50.000    24363146.900    95606155.008          50.000  
E26  26060340.580   136947954.754          50.000    26060347.420   102266315.563          50.000  
> 2020  8 13 21 42 11.0000000  0 15       0.000000000000
G10  21126913.580   111022628.172          50.000    21126913.580    82906499.793          50.000  
G15  22661252.740   119085495.328          50.000                                                  
G16  23695762.720   124522057.859          50.000                                                  
G20  20240780.100   106366015.648          50.000                                                  
G21  22631852.320   118931198.668          50.000                                                  
G26  24446327.820   128466195.750          50.000    24446331.900    95932521.711          50.000  
G27  22305542.720   117216365.227          50.000    22305544.100    87531693.305          50.000  
G29  24288573.980   127637269.918          50.000                                                  
G32  24004287.520   126143298.516          50.000    24004290.240    94197897.836          50.000  
E 3  25554722.080   134290941.863          50.000    25554726.960   100282189.309          50.000  
E 7  26063727.020   136965758.441          50.000    26063733.820   102279611.496          50.000  
E 8  21689700.580   113980146.297          50.000    21689703.480    85115041.680          50.000  
E13  23486307.380   123421359.676          50.000    23486311.040    92165294.992          50.000  
E15  24363389.620   128030431.785          50.000    24363395.300    95607129.809          50.000  
E26  26059895.840   136945617.547          50.000    26059902.660   102264570.246          50.000  
> 2020  8 13 21 42 12.0000000  0 15       0.000000000000
G10  21126690.620   111021456.586          50.000    21126690.640    82905624.910          50.000  
G15  22661737.580   119088043.191          50.000                                                  
G16  23696067.880   124523661.445          50.000                                                  
G20  20240883.560   106366559.344          50.000                                                  
G21  22631487.080   118929279.301          50.000                                                  
G26  24446818.180   128468772.555          50.000    24446822.240    95934445.945          50.000  
G27  22305091.960   117213996.480          50.000    22305093.340    87529924.438          50.000  
G29  24289288.100   127641022.695          50.000                                                  
G32  24003594.740   126139657.910          50.000    24003597.440    94195179.203          50.000  
E 3  25555084.800   134292847.922          50.000    25555089.680   100283612.664          50.000  
E 7  26063188.480   136962928.387          50.000    26063195.280   102277498.145          50.000  
E 8  21689556.580   113979389.625          50.000    21689559.480    85114476.633          50.000  
E13  23486133.940   123420448.238          50.000    23486137.600    92164614.371          50.000  
E15  24363638.080   128031737.410          50.000    24363643.760    95608104.785          50.000  
E26  26059451.080   136943280.320          50.000    26059457.900   102262824.918          50.000  
> 2020  8 13 21 42 13.0000000  0 15       0.000000000000
G10  21126467.760   111020285.359          50.000    21126467.760    82904750.293          50.000  
G15  22662222.520   119090591.570          50.000                                                  
G16  23696373.120   124525265.496          50.000                                                  
G20  20240987.080   106367103.387          50.000                                                  
G21  22631121.840   118927359.992          50.000                                                  
G26  24447308.540   128471349.422          50.000    24447312.600    95936370.227          50.000  
G27  22304641.300   117211628.203          50.000    22304642.680    87528155.918          50.000  
G29  24290002.260   127644775.609          50.000                                                  
G32  24002901.960   126136017.363          50.000    24002904.680    94192460.613          50.000  
E 3  25555447.560   134294754.293          50.000    25555452.440   100285036.254          50.000  
E 7  26062649.980   136960098.531          50.000    26062656.780   102275384.945          50.000  
E 8  21689412.680   113978633.410          50.000    21689415.580    85113911.930          50.000  
E13  23485960.520   123419536.984          50.000    23485964.200    92163933.891          50.000  
E15  24363886.580   128033043.262          50.000    24363892.260    95609079.934          50.000  
E26  26059006.300   136940943.063          50.000    26059013.120   102261079.563          50.000  
> 2020  8 13 21 42 14.0000000  0 15       0.000000000000
G10  21126244.940   111019114.500          50.000    21126244.940    82903875.953          50.000  
G15  22662707.560   119093140.445          50.000                                                  
G16  23696678.440   124526870.008          50.000                                                  
G20  20241090.680   106367647.770          50.000                                                  
G21  22630756.620   118925440.738          50.000                                                  
G26  24447798.920   128473926.344          50.000    24447802.980    95938294.551          50.000  
G27  22304190.720   117209260.391          50.000    22304192.100    87526387.750          50.000  
G29  24290716.440   127648528.660          50.000                                                  
G32  24002209.200   126132376.887          50.000    24002211.900    94189742.078          50.000  
E 3  25555810.400   134296660.988          50.000    25555815.280   100286460.082          50.000  
E 7  26062111.500   136957268.844          50.000    26062118.300   102273271.867          50.000  
E 8  21689268.860   113977877.629          50.000    21689271.760    85113347.547          50.000  
E13  23485787.160   123418625.926          50.000    23485790.840    92163253.555          50.000  
E15  24364135.120   128034349.352          50.000    24364140.800    95610055.258          50.000  
E26  26058561.540   136938605.777          50.000    26058568.360   102259334.188          50.000  
> 2020  8 13 21 42 15.0000000  0 15       0.000000000000
G10  21126022.220   111017944.035          50.000    21126022.220    82903001.902          50.000  
G15  22663192.680   119095689.832          50.000                                                  
G16  23696983.860   124528474.980          50.000                                                  
G20  20241194.340   106368192.504          50.000                                                  
G21  22630391.400   118923521.547          50.000                                                  
G26  24448289.300   128476503.332          50.000    24448293.360    95940218.926          50.000  
G27  22303740.220   117206893.031          50.000    22303741.600    87524619.918          50.000  
G29  24291430.660   127652281.859          50.000                                                  
G32  24001516.460   126128736.477          50.000    24001519.160    94187023.594          50.000  
E 3  25556173.280   134298567.988          50.000    25556178.160   100287884.141          50.000  
E 7  26061573.060   136954439.340          50.000    26061579.860   102271158.930          50.000  
E 8  21689125.120   113977122.305          50.000    21689128.040    85112783.504          50.000  
E13  23485613.820   123417715.051          50.000    23485617.500    92162573.355          50.000  
E15  24364383.700   128035655.680          50.000    24364389.380    95611030.766          50.000  
E26  26058116.760   136936268.473          50.000    26058123.580   102257588.801          50.000  
> 2020  8 13 21 42 16.0000000  0 15       0.000000000000
G10  21125799.540   111016773.914          50.000    21125799.540    82902128.109          50.000  
G15  22663677.920   119098239.719          50.000                                                  
G16  23697289.360   124530080.402          50.000                                                  
G20  20241298.060   106368737.574          50.000                                                  
G21  22630026.200   118921602.414          50.000                                                  
G26  24448779.700   128479080.387          50.000    24448783.760    95942143.348          50.000  
G27  22303289.820   117204526.125          50.000    22303291.200    87522852.422          50.000  
G29  24292144.900   127656035.184          50.000                                                  
G32  24000823.720   126125096.109          50.000    24000826.420    94184305.141          50.000  
E 3  25556536.240   134300475.305          50.000    25556541.120   100289308.434          50.000  
E 7  26061034.660   136951610.031          50.000    26061041.460   102269046.137          50.000  
E 8  21688981.480   113976367.422          50.000    21688984.380    85112219.797          50.000  
E13  23485440.520   123416804.371          50.000    23485444.200    92161893.305          50.000  
E15  24364632.340   128036962.230          50.000    24364638.020    95612006.434          50.000  
E26  26057671.980   136933931.148          50.000    26057678.800   102255843.398          50.000  
> 2020  8 13 21 42 17.0000000  0 15       0.000000000000
G10  21125576.960   111015604.180          50.000    21125576.960    82901254.609          50.000  
G15  22664163.240   119100790.117          50.000                                                  
G16  23697594.960   124531686.289          50.000                                                  
G20  20241401.860   106369283.004          50.000                                                  
G21  22629661.020   118919683.332          50.000                                                  
G26  24449270.100   128481657.504          50.000    24449274.180    95944067.816          50.000  
G27  22302839.500   117202159.691          50.000    22302840.880    87521085.281          50.000  
G29  24292859.160   127659788.633          50.000                                                  
G32  24000131.000   126121455.836          50.000    24000133.700    94181586.754          50.000  
E 3  25556899.240   134302382.934          50.000    25556904.120   100290732.961          50.000  
E 7  26060496.300   136948780.887          50.000    26060503.080   102266933.465          50.000  
E 8  21688837.920   113975612.977          50.000    21688840.820    85111656.410          50.000  
E13  23485267.260   123415893.867          50.000    23485270.940    92161213.379          50.000  
E15  24364881.000   128038269.020          50.000    24364886.680    95612982.281          50.000  
E26  26057227.200   136931593.781          50.000    26057234.020   102254097.961          50.000  
> 2020  8 13 21 42 18.0000000  0 15       0.000000000000
G10  21125354.420   111014434.816          50.000    21125354.440    82900381.383          50.000  
G15  22664648.660   119103341.004          50.000                                                  
G16  23697900.620   124533292.629          50.000                                                  
G20  20241505.700   106369828.750          50.000                                                  
G21  22629295.840   118917764.316          50.000                                                  
G26  24449760.520   128484234.688          50.000    24449764.600    95945992.336          50.000  
G27  22302389.260   117199793.715          50.000    22302390.640    87519318.484          50.000  
G29  24293573.440   127663542.207          50.000                                                  
G32  23999438.280   126117815.617          50.000    23999440.980    94178868.410          50.000  
E 3  25557262.320   134304290.867          50.000    25557267.200   100292157.715          50.000  
E 7  26059957.960   136945951.934          50.000    26059964.760   102264820.934          50.000  
E 8  21688694.440   113974858.980          50.000    21688697.340    85111093.359          50.000  
E13  23485094.040   123414983.555          50.000    23485097.720    92160533.605          50.000  
E15  24365129.720   128039576.035          50.000    24365135.400    95613958.301          50.000  
E26  26056782.400   136929256.402          50.000    26056789.220   102252352.516          50.000  
> 2020  8 13 21 42 19.0000000  0 15       0.000000000000
G10  21125131.980   111013265.824          50.000    21125131.980    82899508.434          50.000  
G15  22665134.160   119105892.398          50.000                                                  
G16  23698206.400   124534899.434          50.000                                                  
G20  20241609.620   106370374.852          50.000                                                  
G21  22628930.680   118915845.367          50.000                                                  
G26  24450250.960   128486811.938          50.000    24450255.040    95947916.902          50.000  
G27  22301939.120   117197428.203          50.000    22301940.500    87517552.027          50.000  
G29  24294287.740   127667295.945          50.000                                                  
G32  23998745.580   126114175.469          50.000    23998748.280    94176150.121          50.000  
E 3  25557625.440   134306199.117          50.000    25557630.320   100293582.707          50.000  
E 7  26059419.660   136943123.156          50.000    26059426.460   102262708.539          50.000  
E 8  21688551.040   113974105.426          50.000    21688553.940    85110530.641          50.000  
E13  23484920.840   123414073.438          50.000    23484924.520    92159853.969          50.000  
E15  24365378.480   128040883.289          50.000    24365384.160    95614934.496          50.000  
E26  26056337.600   136926918.992          50.000    26056344.420   102250607.051          50.000  
> 2020  8 13 21 42 20.0000000  0 15       0.000000000000
G10  21124909.600   111012097.195          50.000    21124909.600    82898635.758          50.000  
G15  22665619.780   119108444.293          50.000                                                  
G16  23698512.240   124536506.707          50.000                                                  
G20  20241713.620   106370921.293          50.000                                                  
G21  22628565.520   118913926.469          50.000                                                  
G26  24450741.420   128489389.254          50.000    24450745.480    95949841.523          50.000  
G27  22301489.080   117195063.180          50.000    22301490.460    87515785.941          50.000  
G29  24295002.080   127671049.805          50.000                                                  
G32  23998052.900   126110535.367          50.000    23998055.600    94173431.863          50.000  
E 3  25557988.640   134308107.680          50.000    25557993.520   100295007.934          50.000  
E 7  26058881.400   136940294.551          50.000    26058888.180   102260596.270          50.000  
E 8  21688407.720   113973352.313          50.000    21688410.620    85109968.250          50.000  
E13  23484747.700   123413163.500          50.000    23484751.360    92159174.473          50.000  
E15  24365627.300   128042190.770          50.000    24365632.980    95615910.863          50.000  
E26  26055892.800   136924581.563          50.000    26055899.640   102248861.566          50.000  
> 2020  8 13 21 42 21.0000000  0 15       0.000000000000
G10  21124687.280   111010928.945          50.000    21124687.280    82897763.367          50.000  
G15  22666105.480   119110996.684          50.000                                                  
G16  23698818.180   124538114.434          50.000                                                  
G20  20241817.660   106371468.070          50.000                                                  
G21  22628200.380   118912007.645          50.000                                                  
G26  24451231.860   128491966.621          50.000    24451235.940    95951766.180          50.000  
G27  22301039.100   117192698.598          50.000    22301040.480    87514020.184          50.000  
G29  24295716.440   127674803.793          50.000                                                  
G32  23997360.220   126106895.340          50.000    23997362.920    94170713.664          50.000  
E 3  25558351.880   134310016.551          50.000    25558356.760   100296433.387          50.000  
E 7  26058343.160   136937466.145          50.000    26058349.960   102258484.148          50.000  
E 8  21688264.500   113972599.645          50.000    21688267.400    85109406.195          50.000  
E13  23484574.580   123412253.762          50.000    23484578.240    92158495.121          50.000  
E15  24365876.140   128043498.492          50.000    24365881.820    95616887.406          50.000  
E26  26055448.000   136922244.105          50.000    26055454.820   102247116.066          50.000  
> 2020  8 13 21 42 22.0000000  0 15       0.000000000000
G10  21124465.000   111009761.281          50.000    21124465.040    82896891.309          50.000  
G15  22666591.260   119113549.758          50.000                                                  
G16  23699124.220   124539722.582          50.000                                                  
G20  20241921.780   106372015.203          50.000                                                  
G21  22627835.260   118910088.875          50.000                                                  
G26  24451722.360   128494544.012          50.000    24451726.500    95953690.594          50.000  
G27  22300589.200   117190334.656          50.000    22300590.600    87512254.777          50.000  
G29  24296430.900   127678557.645          50.000                                                  
G32  23996667.500   126103255.695          50.000    23996670.220    94167995.711          50.000  
E 3  25558715.180   134311925.766          50.000    25558720.060   100297859.105          50.000  
E 7  26057804.980   136934637.859          50.000    26057811.780   102256372.090          50.000  
E 8  21688121.340   113971847.457          50.000    21688124.240    85108844.516          50.000  
E13  23484401.480   123411344.207          50.000    23484405.160    92157815.906          50.000  
E15  24366125.040   128044806.449          50.000    24366130.720    95617864.129          50.000  
E26  26055003.160   136919906.750          50.000    26055009.980   102245370.715          50.000  
> 2020  8 13 21 42 23.0000000  0 15       0.000000000000
G10  21124242.840   111008593.777          50.000    21124242.860    82896019.473          50.000  
G15  22667077.140   119116103.164          50.000                                                  
G16  23699430.340   124541331.223          50.000                                                  
G20  20242025.960   106372562.680          50.000                                                  
G21  22627470.140   118908170.172          50.000                                                  
G26  24452212.840   128497121.516          50.000    24452216.980    95955615.352          50.000  
G27  22300139.400   117187970.992          50.000    22300140.820    87510489.707          50.000  
G29  24297145.300   127682311.922          50.000                                                  
G32  23995974.840   126099615.797          50.000    23995977.560    94165277.605          50.000  
E 3  25559078.540   134313835.270          50.000    25559083.420   100299285.035          50.000  
E 7  26057266.820   136931809.816          50.000    26057273.620   102254260.242          50.000  
E 8  21687978.280   113971095.691          50.000    21687981.180    85108283.133          50.000  
E13  23484228.440   123410434.848          50.000    23484232.120    92157136.840          50.000  
E15  24366373.980   128046114.652          50.000    24366379.660    95618841.035          50.000  
E26  26054558.360   136917569.258          50.000    26054565.160   102243625.184          50.000  
> 2020  8 13 21 42 24.0000000  0 15       0.000000000000
G10  21124020.740   111007426.641          50.000    21124020.760    82895147.910          50.000  
G15  22667563.140   119118657.074          50.000                                                  
G16  23699736.540   124542940.328          50.000                                                  
G20  20242130.200   106373110.484          50.000                                                  
G21  22627105.020   118906251.523          50.000                                                  
G26  24452703.340   128499699.090          50.000    24452707.460    95957540.164          50.000  
G27  22299689.700   117185607.801          50.000    22299691.120    87508724.988          50.000  
G29  24297859.740   127686066.324          50.000                                                  
G32  23995282.200   126095975.969          50.000    23995284.920    94162559.555          50.000  
E 3  25559441.980   134315745.090          50.000    25559446.860   100300711.195          50.000  
E 7  26056728.680   136928981.953          50.000    26056735.480   102252148.531          50.000  
E 8  21687835.300   113970344.355          50.000    21687838.200    85107722.070          50.000  
E13  23484055.440   123409525.684          50.000    23484059.100    92156457.918          50.000  
E15  24366622.960   128047423.074          50.000    24366628.640    95619818.102          50.000  
E26  26054113.540   136915231.734          50.000    26054120.340   102241879.637          50.000  
> 2020  8 13 21 42 25.0000000  0 15       0.000000000000
G10  21123798.700   111006259.875          50.000    21123798.720    82894276.625          50.000  
G15  22668049.220   119121211.484          50.000                                                  
G16  23700042.840   124544549.895          50.000                                                  
G20  20242234.500   106373658.633          50.000                                                  
G21  22626739.920   118904332.934          50.000                                                  
G26  24453193.840   128502276.719          50.000    24453197.980    95959465.016          50.000  
G27  22299240.100   117183245.094          50.000    22299241.500    87506960.629          50.000  
G29  24298574.200   127689820.863          50.000                                                  
G32  23994589.580   126092336.180          50.000    23994592.280    94159841.531          50.000  
E 3  25559805.460   134317655.215          50.000    25559810.340   100302137.590          50.000  
E 7  26056190.600   136926154.266          50.000    26056197.400   102250036.945          50.000  
E 8  21687692.420   113969593.469          50.000    21687695.320    85107161.340          50.000  
E13  23483882.460   123408616.688          50.000    23483886.120    92155779.125          50.000  
E15  24366871.980   128048731.730          50.000    24366877.660    95620795.344          50.000  
E26  26053668.720   136912894.176          50.000    26053675.520   102240134.055          50.000  
> 2020  8 13 21 42 26.0000000  0 15       0.000000000000
G10  21123576.740   111005093.488          50.000    21123576.760    82893405.621          50.000  
G15  22668535.400   119123766.391          50.000                                                  
G16  23700349.200   124546159.930          50.000                                                  
G20  20242338.880   106374207.129          50.000                                                  
G21  22626374.840   118902414.398          50.000                                                  
G26  24453684.360   128504854.410          50.000    24453688.500    95961389.914          50.000  
G27  22298790.560   117180882.816          50.000    22298791.980    87505196.594          50.000  
G29  24299288.700   127693575.543          50.000                                                  
G32  23993896.960   126088696.477          50.000    23993899.660    94157123.574          50.000  
E 3  25560169.000   134319565.652          50.000    25560173.880   100303564.215          50.000  
E 7  26055652.540   136923326.773          50.000    26055659.340   102247925.508          50.000  
E 8  21687549.620   113968843.027          50.000    21687552.500    85106600.949          50.000  
E13  23483709.520   123407707.887          50.000    23483713.180    92155100.477          50.000  
E15  24367121.060   128050040.621          50.000    24367126.740    95621772.762          50.000  
E26  26053223.880   136910556.602          50.000    26053230.680   102238388.469          50.000  
> 2020  8 13 21 42 27.0000000  0 15       0.000000000000
G10  21123354.860   111003927.453          50.000    21123354.880    82892534.883          50.000  
G15  22669021.680   119126321.789          50.000                                                  
G16  23700655.680   124547770.414          50.000                                                  
G20  20242443.320   106374755.965          50.000                                                  
G21  22626009.760   118900495.926          50.000                                                  
G26  24454174.880   128507432.176          50.000    24454179.020    95963314.867          50.000  
G27  22298341.120   117178521.023          50.000    22298342.540    87503432.914          50.000  
G29  24300003.220   127697330.352          50.000                                                  
G32  23993204.360   126085056.836          50.000    23993207.060    94154405.660          50.000  
E 3  25560532.600   134321476.398          50.000    25560537.480   100304991.070          50.000  
E 7  26055114.500   136920499.445          50.000    26055121.300   102245814.191          50.000  
E 8  21687406.880   113968093.027          50.000    21687409.780    85106040.883          50.000  
E13  23483536.600   123406799.285          50.000    23483540.280    92154421.973          50.000  
E15  24367370.180   128051349.746          50.000    24367375.860    95622750.355          50.000  
E26  26052779.040   136908219.000          50.000    26052785.860   102236642.855          50.000  
> 2020  8 13 21 42 28.0000000  0 15       0.000000000000
G10  21123133.040   111002761.801          50.000    21123133.060    82891664.426          50.000  
G15  22669508.060   119128877.703          50.000                                                  
G16  23700962.220   124549381.352          50.000                                                  
G20  20242547.820   106375305.145          50.000                                                  
G21  22625644.700   118898577.523          50.000                                                  
G26  24454665.420   128510010.000          50.000    24454669.560    95965239.863          50.000  
G27  22297891.780   117176159.680          50.000    22297893.180    87501669.574          50.000  
G29  24300717.760   127701085.293          50.000                                                  
G32  23992511.760   126081417.258          50.000    23992514.480    94151687.797          50.000  
E 3  25560896.260   134323387.465          50.000    25560901.140   100306418.164          50.000  
E 7  26054576.520   136917672.301          50.000    26054583.320   102243703.016          50.000  
E 8  21687264.260   113967343.473          50.000    21687267.140    85105481.152          50.000  
E13  23483363.740   123405890.855          50.000    23483367.420    92153743.602          50.000  
E15  24367619.340   128052659.105          50.000    24367625.020    95623728.125          50.000  
E26  26052334.220   136905881.371          50.000    26052341.020   102234897.227          50.000  
> 2020  8 13 21 42 29.0000000  0 15       0.000000000000
G10  21122911.280   111001596.520          50.000    21122911.320    82890794.250          50.000  
G15  22669994.520   119131434.113          50.000                                                  
G16  23701268.860   124550992.754          50.000                                                  
G20  20242652.380   106375854.668          50.000                                                  
G21  22625279.640   118896659.176          50.000                                                  
G26  24455155.980   128512587.883          50.000    24455160.120    95967164.906          50.000  
G27  22297442.520   117173798.813          50.000    22297443.920    87499906.590          50.000  
G29  24301432.320   127704840.371          50.000                                                  
G32  23991819.180   126077777.746          50.000    23991821.900    94148969.980          50.000  
E 3  25561259.980   134325298.832          50.000    25561264.860   100307845.484          50.000  
E 7  26054038.560   136914845.340          50.000    26054045.360   102241591.973          50.000  
E 8  21687121.700   113966594.367          50.000    21687124.600    85104921.758          50.000  
E13  23483190.900   123404982.625          50.000    23483194.580    92153065.379          50.000  
E15  24367868.540   128053968.695          50.000    24367874.220    95624706.063          50.000  
E26  26051889.360   136903543.715          50.000    26051896.160   102233151.574          50.000  
> 2020  8 13 21 42 30.0000000  0 15       0.000000000000
G10  21122689.620   111000431.625          50.000    21122689.640    82889924.363          50.000  
G15  22670481.080   119133991.031          50.000                                                  
G16  23701575.580   124552604.602          50.000                                                  
G20  20242757.020   106376404.535          50.000                                                  
G21  22624914.600   118894740.887          50.000                                                  
G26  24455646.540   128515165.824          50.000    24455650.680    95969089.992          50.000  
G27  22296993.340   117171438.414          50.000    22296994.760    87498143.957          50.000  
G29  24302146.920   127708595.574          50.000                                                  
G32  23991126.620   126074138.309          50.000    23991129.320    94146252.223          50.000  
E 3  25561623.760   134327210.527          50.000    25561628.640   100309273.047          50.000  
E 7  26053500.640   136912018.566          50.000    26053507.440   102239481.074          50.000  
E 8  21686979.240   113965845.707          50.000    21686982.120    85104362.691          50.000  
E13  23483018.100   123404074.582          50.000    23483021.780    92152387.293          50.000  
E15  24368117.800   128055278.520          50.000    24368123.480    95625684.180          50.000  
E26  26051444.520   136901206.043          50.000    26051451.320   102231405.914          50.000  
> 2020  8 13 21 42 31.0000000  0 15       0.000000000000
G10  21122468.000   110999267.078          50.000    21122468.020    82889054.734          50.000  
G15  22670967.740   119136548.445          50.000                                                  
G16  23701882.400   124554216.918          50.000                                                  
G20  20242861.720   106376954.734          50.000                                                  
G21  22624549.580   118892822.660          50.000                                                  
G26  24456137.120   128517743.836          50.000    24456141.260    95971015.129          50.000  
G27  22296544.260   117169078.465          50.000    22296545.660    87496381.660          50.000  
G29  24302861.540   127712350.918          50.000                                                  
G32  23990434.060   126070498.910          50.000    23990436.760    94143534.492          50.000  
E 3  25561987.600   134329122.527          50.000    25561992.480   100310700.840          50.000  
E 7  26052962.760   136909191.969          50.000    26052969.560   102237370.305          50.000  
E 8  21686836.840   113965097.484          50.000    21686839.740    85103803.953          50.000  
E13  23482845.340   123403166.727          50.000    23482849.020    92151709.348          50.000  
E15  24368367.080   128056588.578          50.000    24368372.760    95626662.469          50.000  
E26  26050999.660   136898868.340          50.000    26051006.460   102229660.227          50.000  
> 2020  8 13 21 42 32.0000000  0 15       0.000000000000
G10  21122246.460   110998102.914          50.000    21122246.500    82888185.391          50.000  
G15  22671454.500   119139106.367          50.000                                                  
G16  23702189.300   124555829.688          50.000                                                  
G20  20242966.480   106377505.273          50.000                                                  
G21  22624184.560   118890904.484          50.000                                                  
G26  24456627.720   128520321.902          50.000    24456631.860    95972940.305          50.000  
G27  22296095.260   117166718.984          50.000    22296096.660    87494619.711          50.000  
G29  24303576.180   127716106.410          50.000                                                  
G32  23989741.520   126066859.582          50.000    23989744.220    94140816.813          50.000  
E 3  25562351.500   134331034.832          50.000    25562356.380   100312128.859          50.000  
E 7  26052424.900   136906365.551          50.000    26052431.700   102235259.668          50.000  
E 8  21686694.540   113964349.711          50.000    21686697.440    85103245.551          50.000  
E13  23482672.620   123402259.063          50.000    23482676.300    92151031.551          50.000  
E15  24368616.420   128057898.867          50.000    24368622.100    95627640.930          50.000  
E26  26050554.820   136896530.625          50.000    26050561.600   102227914.531          50.000  
> 2020  8 13 21 42 33.0000000  0 15       0.000000000000
G10  21122025.000   110996939.121          50.000    21122025.020    82887316.324          50.000  
G15  22671941.340   119141664.781          50.000                                                  
G16  23702496.280   124557442.918          50.000                                                  
G20  20243071.300   106378056.152          50.000                                                  
G21  22623819.540   118888986.375          50.000                                                  
G26  24457118.320   128522900.047          50.000    24457122.460    95974865.543          50.000  
G27  22295646.360   117164359.965          50.000    22295647.760    87492858.105          50.000  
G29  24304290.840   127719862.027          50.000                                                  
G32  23989048.980   126063220.328          50.000    23989051.700    94138099.191          50.000  
E 3  25562715.460   134332947.453          50.000    25562720.340   100313557.117          50.000  
E 7  26051887.080   136903539.320          50.000    26051893.880   102233149.176          50.000  
E 8  21686552.340   113963602.371          50.000    21686555.220    85102687.473          50.000  
E13  23482499.940   123401351.590          50.000    23482503.600    92150353.891          50.000  
E15  24368865.800   128059209.383          50.000    24368871.480    95628619.563          50.000  
E26  26050109.940   136894192.867          50.000    26050116.740   102226168.805          50.000  
> 2020  8 13 21 42 34.0000000  0 15       0.000000000000
G10  21121803.600   110995775.699          50.000    21121803.640    82886447.535          50.000  
G15  22672428.300   119144223.699          50.000                                                  
G16  23702803.360   124559056.609          50.000                                                  
G20  20243176.200   106378607.383          50.000                                                  
G21  22623454.560   118887068.340          50.000                                                  
G26  24457608.920   128525478.242          50.000    24457613.060    95976790.820          50.000  
G27  22295197.520   117162001.402          50.000    22295198.940    87491096.844          50.000  
G29  24305005.540   127723617.762          50.000                                                  
G32  23988356.460   126059581.145          50.000    23988359.180    94135381.621          50.000  
E 3  25563079.480   134334860.379          50.000    25563084.360   100314985.602          50.000  
E 7  26051349.300   136900713.277          50.000    26051356.100   102231038.820          50.000  
E 8  21686410.200   113962855.488          50.000    21686413.100    85102129.738          50.000  
E13  23482327.280   123400444.305          50.000    23482330.960    92149676.375          50.000  
E15  24369115.240   128060520.152          50.000    24369120.920    95629598.383          50.000  
E26  26049665.080   136891855.094          50.000    26049671.880   102224423.066          50.000  
> 2020  8 13 21 42 35.0000000  0 15       0.000000000000
G10  21121582.280   110994612.645          50.000    21121582.300    82885579.023          50.000  
G15  22672915.340   119146783.129          50.000                                                  
G16  23703110.520   124560670.746          50.000                                                  
G20  20243281.160   106379158.949          50.000                                                  
G21  22623089.580   118885150.344          50.000                                                  
G26  24458099.560   128528056.508          50.000    24458103.700    95978716.145          50.000  
G27  22294748.800   117159643.313          50.000    22294750.200    87489335.934          50.000  
G29  24305720.260   127727373.656          50.000                                                  
G32  23987663.960   126055942.012          50.000    23987666.660    94132664.090          50.000  
E 3  25563443.560   134336773.625          50.000    25563448.440   100316414.320          50.000  
E 7  26050811.560   136897887.406          50.000    26050818.360   102228928.594          50.000  
E 8  21686268.160   113962109.043          50.000    21686271.060    85101572.328          50.000  
E13  23482154.660   123399537.207          50.000    23482158.340    92148998.996          50.000  
E15  24369364.700   128061831.152          50.000    24369370.380    95630577.375          50.000  
E26  26049220.220   136889517.297          50.000    26049227.000   102222677.313          50.000  
> 2020  8 13 21 42 36.0000000  0 15       0.000000000000
G10  21121361.040   110993449.969          50.000    21121361.060    82884710.789          50.000  
G15  22673402.460   119149343.039          50.000                                                  
G16  23703417.760   124562285.340          50.000                                                  
G20  20243386.180   106379710.855          50.000                                                  
G21  22622724.600   118883232.418          50.000                                                  
G26  24458590.180   128530634.828          50.000    24458594.340    95980641.516          50.000  
G27  22294300.160   117157285.688          50.000    22294301.560    87487575.371          50.000  
G29  24306435.000   127731129.656          50.000                                                  
G32  23986971.460   126052302.949          50.000    23986974.180    94129946.609          50.000  
E 3  25563807.680   134338687.188          50.000    25563812.560   100317843.277          50.000  
E 7  26050273.840   136895061.719          50.000    26050280.640   102226818.504          50.000  
E 8  21686126.200   113961363.047          50.000    21686129.100    85101015.254          50.000  
E13  23481982.080   123398630.297          50.000    23481985.760    92148321.758          50.000  
E15  24369614.220   128063142.375          50.000    24369619.900    95631556.535          50.000  
E26  26048775.340   136887179.477          50.000    26048782.140   102220931.539          50.000  
> 2020  8 13 21 42 37.0000000  0 15       0.000000000000
G10  21121139.840   110992287.652          50.000    21121139.880    82883842.828          50.000  
G15  22673889.700   119151903.461          50.000                                                  
G16  23703725.080   124563900.391          50.000                                                  
G20  20243491.260   106380263.105          50.000                                                  
G21  22622359.640   118881314.563          50.000                                                  
G26  24459080.840   128533213.207          50.000    24459084.980    95982566.926          50.000  
G27  22293851.600   117154928.535          50.000    22293853.000    87485815.156          50.000  
G29  24307149.780   127734885.797          50.000                                                  
G32  23986278.980   126048663.961          50.000    23986281.700    94127229.184          50.000  
E 3  25564171.880   134340601.047          50.000    25564176.760   100319272.461          50.000  
E 7  26049736.160   136892236.215          50.000    26049742.960   102224708.555          50.000  
E 8  21685984.320   113960617.488          50.000    21685987.220    85100458.504          50.000  
E13  23481809.540   123397723.574          50.000    23481813.220    92147644.660          50.000  
E15  24369863.780   128064453.836          50.000    24369869.460    95632535.871          50.000  
E26  26048330.460   136884841.629          50.000    26048337.260   102219185.746          50.000  
> 2020  8 13 21 42 38.0000000  0 15       0.000000000000
G10  21120918.740   110991125.719          50.000    21120918.760    82882975.152          50.000  
G15  22674377.020   119154464.383          50.000                                                  
G16  23704032.500   124565515.898          50.000                                                  
G20  20243596.420   106380815.695          50.000                                                  
G21  22621994.700   118879396.766          50.000                                                  
G26  24459571.500   128535791.660          50.000    24459575.640    95984492.395          50.000  
G27  22293403.140   117152571.836          50.000    22293404.540    87484055.285          50.000  
G29  24307864.560   127738642.070          50.000                                                  
G32  23985586.520   126045025.031          50.000    23985589.220    94124511.801          50.000  
E 3  25564536.140   134342515.223          50.000    25564541.020   100320701.879          50.000  
E 7  26049198.520   136889410.895          50.000    26049205.320   102222598.738          50.000  
E 8  21685842.520   113959872.375          50.000    21685845.420    85099902.090          50.000  
E13  23481637.020   123396817.047          50.000    23481640.700    92146967.707          50.000  
E15  24370113.380   128065765.527          50.000    24370119.080    95633515.383          50.000  
E26  26047885.560   136882503.754          50.000    26047892.360   102217439.930          50.000  
> 2020  8 13 21 42 39.0000000  0 15       0.000000000000
G10  21120697.700   110989964.156          50.000    21120697.720    82882107.750          50.000  
G15  22674864.440   119157025.809          50.000                                                  
G16  23704340.020   124567131.867          50.000                                                  
G20  20243701.640   106381368.629          50.000                                                  
G21  22621629.760   118877479.023          50.000                                                  
G26  24460062.180   128538370.172          50.000    24460066.320    95986417.902          50.000  
G27  22292954.760   117150215.609          50.000    22292956.160    87482295.770          50.000  
G29  24308579.380   127742398.473          50.000                                                  
G32  23984894.060   126041386.164          50.000    23984896.760    94121794.469          50.000  
E 3  25564900.440   134344429.711          50.000    25564905.340   100322131.527          50.000  
E 7  26048660.920   136886585.758          50.000    26048667.700   102220489.059          50.000  
E 8  21685700.820   113959127.719          50.000    21685703.720    85099346.016          50.000  
E13  23481464.560   123395910.707          50.000    23481468.240    92146290.895          50.000  
E15  24370363.040   128067077.449          50.000    24370368.720    95634495.066          50.000  
E26  26047440.680   136880165.855          50.000    26047447.480   102215694.098          50.000  
> 2020  8 13 21 42 40.0000000  0 15       0.000000000000
G10  21120476.720   110988802.957          50.000    21120476.740    82881240.621          50.000  
G15  22675351.960   119159587.730          50.000                                                  
G16  23704647.600   124568748.289          50.000                                                  
G20  20243806.920   106381921.895          50.000                                                  
G21  22621264.840   118875561.348          50.000                                                  
G26  24460552.860   128540948.738          50.000    24460557.000    95988343.457          50.000  
G27  22292506.460   117147859.848          50.000    22292507.880    87480536.598          50.000  
G29  24309294.220   127746155.008          50.000                                                  
G32  23984201.620   126037747.379          50.000    23984204.320    94119077.195          50.000  
E 3  25565264.820   134346344.504          50.000    25565269.700   100323561.402          50.000  
E 7  26048123.340   136883760.797          50.000    26048130.120   102218379.512          50.000  
E 8  21685559.200   113958383.496          50.000    21685562.100    85098790.266          50.000  
E13  23481292.120   123395004.551          50.000    23481295.800    92145614.223          50.000  
E15  24370612.740   128068389.605          50.000    24370618.420    95635474.922          50.000  
E26  26046995.780   136877827.938          50.000    26047002.580   102213948.254          50.000  
> 2020  8 13 21 42 41.0000000  0 15       0.000000000000
G10  21120255.820   110987642.137          50.000    21120255.840    82880373.773          50.000  
G15  22675839.580   119162150.156          50.000                                                  
G16  23704955.300   124570365.172          50.000                                                  
G20  20243912.260   106382475.512          50.000                                                  
G21  22620899.920   118873643.727          50.000                                                  
G26  24461043.560   128543527.371          50.000    24461047.700    95990269.055          50.000  
G27  22292058.260   117145504.543          50.000    22292059.660    87478777.766          50.000  
G29  24310009.100   127749911.680          50.000                                                  
G32  23983509.180   126034108.648          50.000    23983511.900    94116359.965          50.000  
E 3  25565629.260   134348259.617          50.000    25565634.140   100324991.523          50.000  
E 7  26047585.800   136880936.027          50.000    26047592.600   102216270.105          50.000  
E 8  21685417.660   113957639.715          50.000    21685420.560    85098234.844          50.000  
E13  23481119.720   123394098.594          50.000    23481123.400    92144937.695          50.000  
E15  24370862.460   128069702.004          50.000    24370868.160    95636454.957          50.000  
E26  26046550.880   136875489.992          50.000    26046557.680   102212202.387          50.000  
> 2020  8 13 21 42 42.0000000  0 15       0.000000000000
G10  21120035.000   110986481.688          50.000    21120035.020    82879507.207          50.000  
G15  22676327.280   119164713.063          50.000                                                  
G16  23705263.060   124571982.500          50.000                                                  
G20  20244017.680   106383029.461          50.000                                                  
G21  22620535.020   118871726.160          50.000                                                  
G26  24461534.260   128546106.063          50.000    24461538.400    95992194.703          50.000  
G27  22291610.140   117143149.699          50.000    22291611.560    87477019.277          50.000  
G29  24310724.000   127753668.473          50.000                                                  
G32  23982816.760   126030469.957          50.000    23982819.480    94113642.762          50.000  
E 3  25565993.740   134350175.043          50.000    25565998.620   100326421.871          50.000  
E 7  26047048.300   136878111.441          50.000    26047055.080   102214160.840          50.000  
E 8  21685276.200   113956896.387          50.000    21685279.100    85097679.762          50.000  
E13  23480947.360   123393192.816          50.000    23480951.020    92144261.305          50.000  
E15  24371112.260   128071014.625          50.000    24371117.940    95637435.160          50.000  
E26  26046105.980   136873152.016          50.000    26046112.780   102210456.496          50.000  
> 2020  8 13 21 42 43.0000000  0 15       0.000000000000
G10  21119814.240   110985321.602          50.000    21119814.260    82878640.910          50.000  
G15  22676815.080   119167276.480          50.000                                                  
G16  23705570.920   124573600.289          50.000                                                  
G20  20244123.160   106383583.754          50.000                                                  
G21  22620170.120   118869808.656          50.000                                                  
G26  24462024.980   128548684.820          50.000    24462029.120    95994120.398          50.000  
G27  22291162.120   117140795.328          50.000    22291163.520    87475261.145          50.000  
G29  24311438.920   127757425.422          50.000                                                  
G32  23982124.360   126026831.355          50.000    23982127.060    94110925.629          50.000  
E 3  25566358.300   134352090.770          50.000    25566363.180   100327852.445          50.000  
E 7  26046510.820   136875287.023          50.000    26046517.620   102212051.699          50.000  
E 8  21685134.840   113956153.484          50.000    21685137.720    85097124.996          50.000  
E13  23480775.020   123392287.227          50.000    23480778.700    92143585.051          50.000  
E15  24371362.080   128072327.480          50.000    24371367.760    95638415.539          50.000  
E26  26045661.080   136870814.016          50.000    26045667.860   102208710.586          50.000  
> 2020  8 13 21 42 44.0000000  0 15       0.000000000000
G10  21119593.540   110984161.883          50.000    21119593.580    82877774.887          50.000  
G15  22677302.980   119169840.398          50.000                                                  
G16  23705878.860   124575218.543          50.000                                                  
G20  20244228.700   106384138.398          50.000                                                  
G21  22619805.240   118867891.215          50.000                                                  
G26  24462515.720   128551263.641          50.000    24462519.860    95996046.137          50.000  
G27  22290714.180   117138441.414          50.000    22290715.600    87473503.355          50.000  
G29  24312153.860   127761182.500          50.000                                                  
G32  23981431.960   126023192.820          50.000    23981434.680    94108208.539          50.000  
E 3  25566722.900   134354006.813          50.000    25566727.780   100329283.258          50.000  
E 7  26045973.380   136872462.793          50.000    26045980.180   102209942.695          50.000  
E 8  21684993.540   113955411.043          50.000    21684996.440    85096570.578          50.000  
E13  23480602.720   123391381.832          50.000    23480606.400    92142908.945          50.000  
E15  24371611.940   128073640.578          50.000    24371617.640    95639396.098          50.000  
E26  26045216.160   136868476.000          50.000    26045222.960   102206964.668          50.000  
> 2020  8 13 21 42 45.0000000  0 15       0.000000000000
G10  21119372.940   110983002.543          50.000    21119372.960    82876909.145          50.000  
G15  22677790.960   119172404.820          50.000                                                  
G16  23706186.880   124576837.238          50.000                                                  
G20  20244334.300   106384693.387          50.000                                                  
G21  22619440.380   118865973.840          50.000                                                  
G26  24463006.460   128553842.512          50.000    24463010.600    95997971.918          50.000  
G27  22290266.340   117136087.977          50.000    22290267.740    87471745.918          50.000  
G29  24312868.840   127764939.695          50.000                                                  
G32  23980739.580   126019554.355          50.000    23980742.300    94105491.508          50.000  
E 3  25567087.580   134355923.172          50.000    25567092.460   100330714.305          50.000  
E 7  26045435.980   136869638.758          50.000    26045442.780   102207833.840          50.000  
E 8  21684852.340   113954669.043          50.000    21684855.240    85096016.488          50.000  
E13  23480430.480   123390476.629          50.000    23480434.140    92142232.980          50.000  
E15  24371861.860   128074953.902          50.000    24371867.540    95640376.828          50.000  
E26  26044771.240   136866137.953          50.000    26044778.040   102205218.727          50.000  
> 2020  8 13 21 42 46.0000000  0 15       0.000000000000
G10  21119152.380   110981843.578          50.000    21119152.400    82876043.688          50.000  
G15  22678279.040   119174969.734          50.000                                                  
G16  23706495.000   124578456.398          50.000                                                  
G20  20244439.980   106385248.707          50.000                                                  
G21  22619075.520   118864056.512          50.000                                                  
G26  24463497.200   128556421.445          50.000    24463501.340    95999897.746          50.000  
G27  22289818.580   117133734.992          50.000    22289819.980    87469988.820          50.000  
G29  24313583.820   127768697.020          50.000                                                  
G32  23980047.220   126015915.957          50.000    23980049.920    94102774.520          50.000  
E 3  25567452.300   134357839.828          50.000    25567457.180   100332145.574          50.000  
E 7  26044898.620   136866814.887          50.000    26044905.400   102205725.109          50.000  
E 8  21684711.240   113953927.477          50.000    21684714.120    85095462.719          50.000  
E13  23480258.240   123389571.609          50.000    23480261.920    92141557.156          50.000  
E15  24372111.820   128076267.473          50.000    24372117.520    95641357.742          50.000  
E26  26044326.320   136863799.891          50.000    26044333.120   102203472.770          50.000  
> 2020  8 13 21 42 47.0000000  0 15       0.000000000000
G10  21118931.900   110980684.973          50.000    21118931.940    82875178.492          50.000  
G15  22678767.240   119177535.152          50.000                                                  
G16  23706803.200   124580076.016          50.000                                                  
G20  20244545.720   106385804.371          50.000                                                  
G21  22618710.680   118862139.250          50.000                                                  
G26  24463987.980   128559000.441          50.000    24463992.120    96001823.617          50.000  
G27  22289370.900   117131382.480          50.000    22289372.320    87468232.074          50.000  
G29  24314298.840   127772454.484          50.000                                                  
G32  23979354.860   126012277.605          50.000    23979357.560    94100057.574          50.000  
E 3  25567817.080   134359756.805          50.000    25567821.960   100333577.082          50.000  
E 7  26044361.280   136863991.207          50.000    26044368.080   102203616.520          50.000  
E 8  21684570.200   113953186.363          50.000    21684573.100    85094909.293          50.000  
E13  23480086.060   123388666.789          50.000    23480089.740    92140881.480          50.000  
E15  24372361.840   128077581.262          50.000    24372367.520    95642338.816          50.000  
E26  26043881.380   136861461.797          50.000    26043888.180   102201726.793          50.000  
> 2020  8 13 21 42 48.0000000  0 15       0.000000000000
G10  21118711.500   110979526.742          50.000    21118711.520    82874313.582          50.000  
G15  22679255.500   119180101.059          50.000                                                  
G16  23707111.480   124581696.094          50.000                                                  
G20  20244651.520   106386360.375          50.000                                                  
G21  22618345.840   118860222.051          50.000                                                  
G26  24464478.740   128561579.500          50.000    24464482.900    96003749.535          50.000  
G27  22288923.320   117129030.426          50.000    22288924.720    87466475.672          50.000  
G29  24315013.900   127776212.078          50.000                                                  
G32  23978662.520   126008639.352          50.000    23978665.220    94097340.695          50.000  
E 3  25568181.920   134361674.090          50.000    25568186.820   100335008.820          50.000  
E 7  26043823.980   136861167.703          50.000    26043830.780   102201508.059          50.000  
E 8  21684429.260   113952445.699          50.000    21684432.140    85094356.199          50.000  
E13  23479913.920   123387762.148          50.000    23479917.600    92140205.938          50.000  
E15  24372611.880   128078895.297          50.000    24372617.560    95643320.078          50.000  
E26  26043436.460   136859123.680          50.000    26043443.260   102199980.801          50.000  
> 2020  8 13 21 42 49.0000000  0 15       0.000000000000
G10  21118491.160   110978368.879          50.000    21118491.180    82873448.945          50.000  
G15  22679743.880   119182667.477          50.000                                                  
G16  23707419.860   124583316.625          50.000                                                  
G20  20244757.380   106386916.723          50.000                                                  
G21  22617981.020   118858304.914          50.000                                                  
G26  24464969.540   128564158.625          50.000    24464973.680    96005675.508          50.000  
G27  22288475.820   117126678.840          50.000    22288477.240    87464719.617          50.000  
G29  24315728.960   127779969.805          50.000                                                  
G32  23977970.180   126005001.125          50.000    23977972.880    94094623.840          50.000  
E 3  25568546.840   134363591.676          50.000    25568551.720   100336440.781          50.000  
E 7  26043286.720   136858344.398          50.000    26043293.520   102199399.750          50.000  
E 8  21684288.400   113951705.469          50.000    21684291.280    85093803.430          50.000  
E13  23479741.800   123386857.703          50.000    23479745.480    92139530.539          50.000  
E15  24372861.980   128080209.566          50.000    24372867.660    95644301.512          50.000  
E26  26042991.520   136856785.539          50.000    26042998.320   102198234.785          50.000  
> 2020  8 13 21 42 50.0000000  0 15       0.000000000000
G10  21118270.900   110977211.395          50.000    21118270.920    82872584.590          50.000  
G15  22680232.340   119185234.391          50.000                                                  
G16  23707728.320   124584937.613          50.000                                                  
G20  20244863.320   106387473.406          50.000                                                  
G21  22617616.200   118856387.828          50.000                                                  
G26  24465460.340   128566737.813          50.000    24465464.480    96007601.520          50.000  
G27  22288028.420   117124327.723          50.000    22288029.820    87462963.914          50.000  
G29  24316444.060   127783727.660          50.000                                                  
G32  23977277.860   126001362.984          50.000    23977280.560    94091907.051          50.000  
E 3  25568911.800   134365509.586          50.000    25568916.680   100337872.988          50.000  
E 7  26042749.500   136855521.266          50.000    26042756.280   102197291.566          50.000  
E 8  21684147.620   113950965.680          50.000    21684150.500    85093250.992          50.000  
E13  23479569.720   123385953.441          50.000    23479573.400    92138855.281          50.000  
E15  24373112.120   128081524.043          50.000    24373117.800    95645283.102          50.000  
E26  26042546.580   136854447.375          50.000    26042553.380   102196488.758          50.000  
> 2020  8 13 21 42 51.0000000  0 15       0.000000000000
G10  21118050.700   110976054.273          50.000    21118050.720    82871720.508          50.000  
G15  22680720.900   119187801.805          50.000                                                  
G16  23708036.860   124586559.051          50.000                                                  
G20  20244969.320   106388030.434          50.000                                                  
G21  22617251.400   118854470.809          50.000                                                  
G26  24465951.160   128569317.043          50.000    24465955.300    96009527.570          50.000  
G27  22287581.100   117121977.063          50.000    22287582.500    87461208.551          50.000  
G29  24317159.180   127787485.648          50.000                                                  
G32  23976585.560   125997724.930          50.000    23976588.260    94089190.320          50.000  
E 3  25569276.820   134367427.797          50.000    25569281.700   100339305.418          50.000  
E 7  26042212.300   136852698.313          50.000    26042219.100   102195183.520          50.000  
E 8  21684006.920   113950226.344          50.000    21684009.820    85092698.891          50.000  
E13  23479397.680   123385049.371          50.000    23479401.360    92138180.160          50.000  
E15  24373362.300   128082838.773          50.000    24373367.980    95646264.879          50.000  
E26  26042101.640   136852109.195          50.000    26042108.420   102194742.715          50.000  
> 2020  8 13 21 42 52.0000000  0 15       0.000000000000
G10  21117830.580   110974897.527          50.000    21117830.600    82870856.707          50.000  
G15  22681209.560   119190369.719          50.000                                                  
G16  23708345.500   124588180.945          50.000                                                  
G20  20245075.380   106388587.801          50.000                                                  
G21  22616886.620   118852553.852          50.000                                                  
G26  24466441.980   128571896.352          50.000    24466446.120    96011453.672          50.000  
G27  22287133.880   117119626.867          50.000    22287135.280    87459453.539          50.000  
G29  24317874.320   127791243.773          50.000                                                  
G32  23975893.280   125994086.926          50.000    23975895.980    94086473.633          50.000  
E 3  25569641.900   134369346.320          50.000    25569646.780   100340738.082          50.000  
E 7  26041675.160   136849875.547          50.000    26041681.940   102193075.613          50.000  
E 8  21683866.300   113949487.449          50.000    21683869.200    85092147.117          50.000  
E13  23479225.680   123384145.488          50.000    23479229.360    92137505.184          50.000  
E15  24373612.520   128084153.734          50.000    24373618.200    95647246.828          50.000  
E26  26041656.680   136849770.969          50.000    26041663.480   102192996.641          50.000  
> 2020  8 13 21 42 53.0000000  0 15       0.000000000000
G10  21117610.540   110973741.160          50.000    21117610.560    82869993.184          50.000  
G15  22681698.320   119192938.129          50.000                                                  
G16  23708654.220   124589803.301          50.000                                                  
G20  20245181.500   106389145.496          50.000                                                  
G21  22616521.840   118850636.953          50.000                                                  
G26  24466932.800   128574475.707          50.000    24466936.960    96013379.816          50.000  
G27  22286686.740   117117277.148          50.000    22286688.140    87457698.879          50.000  
G29  24318589.500   127795002.027          50.000                                                  
G32  23975200.980   125990448.965          50.000    23975203.680    94083756.977          50.000  
E 3  25570007.040   134371265.160          50.000    25570011.920   100342170.980          50.000  
E 7  26041138.020   136847052.965          50.000    26041144.820   102190967.844          50.000  
E 8  21683725.780   113948749.000          50.000    21683728.680    85091595.680          50.000  
E13  23479053.720   123383241.801          50.000    23479057.380    92136830.355          50.000  
E15  24373862.800   128085468.934          50.000    24373868.480    95648228.961          50.000  
E26  26041211.740   136847432.738          50.000    26041218.520   102191250.559          50.000  
> 2020  8 13 21 42 54.0000000  0 15       0.000000000000
G10  21117390.540   110972585.152          50.000    21117390.560    82869129.930          50.000  
G15  22682187.160   119195507.031          50.000                                                  
G16  23708963.040   124591426.117          50.000                                                  
G20  20245287.680   106389703.543          50.000                                                  
G21  22616157.080   118848720.125          50.000                                                  
G26  24467423.660   128577055.129          50.000    24467427.800    96015306.004          50.000  
G27  22286239.680   117114927.883          50.000    22286241.080    87455944.559          50.000  
G29  24319304.680   127798760.398          50.000                                                  
G32  23974508.720   125986811.090          50.000    23974511.420    94081040.383          50.000  
E 3  25570372.240   134373184.297          50.000    25570377.120   100343604.102          50.000  
E 7  26040600.940   136844230.551          50.000    26040607.720   102188860.199          50.000  
E 8  21683585.340   113948010.992          50.000    21683588.240    85091044.570          50.000  
E13  23478881.780   123382338.289          50.000    23478885.460    92136155.652          50.000  
E15  24374113.120   128086784.363          50.000    24374118.800    95649211.258          50.000  
E26  26040766.780   136845094.477          50.000    26040773.560   102189504.457          50.000  
> 2020  8 13 21 42 55.0000000  0 15       0.000000000000
G10  21117170.640   110971429.527          50.000    21117170.660    82868266.965          50.000  
G15  22682676.100   119198076.441          50.000                                                  
G16  23709271.940   124593049.391          50.000                                                  
G20  20245393.940   106390261.930          50.000                                                  
G21  22615792.340   118846803.363          50.000                                                  
G26  24467914.520   128579634.609          50.000    24467918.660    96017232.238          50.000  
G27  22285792.720   117112579.094          50.000    22285794.120    87454190.594          50.000  
G29  24320019.920   127802518.914          50.000                                                  
G32  23973816.460   125983173.285          50.000    23973819.160    94078323.840          50.000  
E 3  25570737.500   134375103.758          50.000    25570742.380   100345037.465          50.000  
E 7  26040063.880   136841408.340          50.000    26040070.680   102186752.703          50.000  
E 8  21683444.980   113947273.430          50.000    21683447.880    85090493.793          50.000  
E13  23478709.880   123381434.984          50.000    23478713.560    92135481.109          50.000  
E15  24374363.480   128088100.020          50.000    24374369.160    95650193.730          50.000  
E26  26040321.800   136842756.188          50.000    26040328.600   102187758.332          50.000  
> 2020  8 13 21 42 56.0000000  0 15       0.000000000000
G10  21116950.800   110970274.258          50.000    21116950.820    82867404.266          50.000  
G15  22683165.140   119200646.352          50.000                                                  
G16  23709580.920   124594673.109          50.000                                                  
G20  20245500.260   106390820.648          50.000                                                  
G21  22615427.600   118844886.660          50.000                                                  
G26  24468405.380   128582214.148          50.000    24468409.520    96019158.516          50.000  
G27  22285345.840   117110230.762          50.000    22285347.240    87452436.969          50.000  
G29  24320735.160   127806277.555          50.000                                                  
G32  23973124.220   125979535.543          50.000    23973126.920    94075607.352          50.000  
E 3  25571102.820   134377023.523          50.000    25571107.700   100346471.055          50.000  
E 7  26039526.860   136838586.309          50.000    26039533.660   102184645.344          50.000  
E 8  21683304.720   113946536.313          50.000    21683307.620    85089943.348          50.000  
E13  23478538.020   123380531.863          50.000    23478541.700    92134806.699          50.000  
E15  24374613.880   128089415.918          50.000    24374619.560    95651176.383          50.000  
E26  26039876.840   136840417.871          50.000    26039883.620   102186012.188          50.000  
> 2020  8 13 21 42 57.0000000  0 15       0.000000000000
G10  21116731.020   110969119.367          50.000    21116731.040    82866541.848          50.000  
G15  22683654.260   119203216.770          50.000                                                  
G16  23709889.980   124596297.293          50.000                                                  
G20  20245606.640   106391379.711          50.000                                                  
G21  22615062.860   118842970.023          50.000                                                  
G26  24468896.260   128584793.750          50.000    24468900.400    96021084.844          50.000  
G27  22284899.060   117107882.902          50.000    22284900.460    87450683.699          50.000  
G29  24321450.420   127810036.336          50.000                                                  
G32  23972432.000   125975897.867          50.000    23972434.700    94072890.906          50.000  
E 3  25571468.180   134378943.594          50.000    25571473.080   100347904.875          50.000  
E 7  26038989.880   136835764.473          50.000    26038996.680   102182538.129          50.000  
E 8  21683164.540   113945799.648          50.000    21683167.420    85089393.242          50.000  
E13  23478366.200   123379628.938          50.000    23478369.880    92134132.438          50.000  
E15  24374864.320   128090732.047          50.000    24374870.000    95652159.207          50.000  
E26  26039431.860   136838079.539          50.000    26039438.660   102184266.031          50.000  
> 2020  8 13 21 42 58.0000000  0 15       0.000000000000
G10  21116511.320   110967964.848          50.000    21116511.340    82865679.707          50.000  
G15  22684143.480   119205787.672          50.000                                                  
G16  23710199.140   124597921.922          50.000                                                  
G20  20245713.100   106391939.117          50.000                                                  
G21  22614698.160   118841053.441          50.000                                                  
G26  24469387.160   128587373.418          50.000    24469391.300    96023011.219          50.000  
G27  22284452.360   117105535.512          50.000    22284453.760    87448930.777          50.000  
G29  24322165.720   127813795.238          50.000                                                  
G32  23971739.780   125972260.270          50.000    23971742.480    94070174.516          50.000  
E 3  25571833.620   134380863.988          50.000    25571838.520   100349338.934          50.000  
E 7  26038452.940   136832942.805          50.000    26038459.720   102180431.043          50.000  
E 8  21683024.420   113945063.422          50.000    21683027.320    85088843.465          50.000  
E13  23478194.400   123378726.180          50.000    23478198.080    92133458.301          50.000  
E15  24375114.820   128092048.418          50.000    24375120.500    95653142.211          50.000  
E26  26038986.880   136835741.184          50.000    26038993.680   102182519.859          50.000  
> 2020  8 13 21 42 59.0000000  0 15       0.000000000000
G10  21116291.700   110966810.695          50.000    21116291.720    82864817.840          50.000  
G15  22684632.800   119208359.074          50.000                                                  
G16  23710508.380   124599547.020          50.000                                                  
G20  20245819.620   106392498.871          50.000                                                  
G21  22614333.440   118839136.918          50.000                                                  
G26  24469878.060   128589953.137          50.000    24469882.200    96024937.629          50.000  
G27  22284005.760   117103188.598          50.000    22284007.160    87447178.215          50.000  
G29  24322881.040   127817554.289          50.000                                                  
G32  23971047.580   125968622.723          50.000    23971050.280    94067458.168          50.000  
E 3  25572199.120   134382784.691          50.000    25572204.000   100350773.227          50.000  
E 7  26037916.020   136830121.328          50.000    26037922.800   102178324.102          50.000  
E 8  21682884.420   113944327.645          50.000    21682887.300    85088294.020          50.000  
E13  23478022.660   123377823.641          50.000    23478026.340    92132784.328          50.000  
E15  24375365.360   128093365.023          50.000    24375371.040    95654125.387          50.000  
E26  26038541.900   136833402.809          50.000    26038548.700   102180773.672          50.000  
> 2020  8 13 21 43  0.0000000  0 15       0.000000000000
G10  21116072.140   110965656.926          50.000    21116072.160    82863956.258          50.000  
G15  22685122.220   119210930.973          50.000                                                  
G16  23710817.720   124601172.559          50.000                                                  
G20  20245926.200   106393058.957          50.000                                                  
G21  22613968.760   118837220.453          50.000                                                  
G26  24470368.980   128592532.918          50.000    24470373.120    96026864.090          50.000  
G27  22283559.240   117100842.141          50.000    22283560.640    87445425.988          50.000  
G29  24323596.380   127821313.461          50.000                                                  
G32  23970355.380   125964985.270          50.000    23970358.080    94064741.895          50.000  
E 3  25572564.680   134384705.691          50.000    25572569.560   100352207.738          50.000  
E 7  26037379.140   136827300.016          50.000    26037385.920   102176217.277          50.000  
E 8  21682744.480   113943592.301          50.000    21682747.380    85087744.902          50.000  
E13  23477850.940   123376921.266          50.000    23477854.620    92132110.477          50.000  
E15  24375615.940   128094681.848          50.000    24375621.620    95655108.730          50.000  
E26  26038096.920   136831064.395          50.000    26038103.700   102179027.453          50.000  
> 2020  8 13 21 43  1.0000000  0 15       0.000000000000
G10  21115852.640   110964503.516          50.000    21115852.660    82863094.945          50.000  
G15  22685611.740   119213503.371          50.000                                                  
G16  23711127.120   124602798.559          50.000                                                  
G20  20246032.840   106393619.395          50.000                                                  
G21  22613604.080   118835304.055          50.000                                                  
G26  24470859.900   128595112.754          50.000    24470864.040    96028790.590          50.000  
G27  22283112.800   117098496.145          50.000    22283114.220    87443674.109          50.000  
G29  24324311.760   127825072.758          50.000                                                  
G32  23969663.200   125961347.863          50.000    23969665.900    94062025.648          50.000  
E 3  25572930.280   134386627.012          50.000    25572935.180   100353642.488          50.000  
E 7  26036842.300   136824478.906          50.000    26036849.080   102174110.605          50.000  
E 8  21682604.640   113942857.414          50.000    21682607.520    85087196.121          50.000  
E13  23477679.260   123376019.109          50.000    23477682.940    92131436.785          50.000  
E15  24375866.560   128095998.918          50.000    24375872.260    95656092.258          50.000  
E26  26037651.920   136828725.957          50.000    26037658.720   102177281.223          50.000  
> 2020  8 13 21 43  2.0000000  0 15       0.000000000000
G10  21115633.220   110963350.469          50.000    21115633.240    82862233.906          50.000  
G15  22686101.340   119216076.270          50.000                                                  
G16  23711436.640   124604425.016          50.000                                                  
G20  20246139.540   106394180.160          50.000                                                  
G21  22613239.400   118833387.711          50.000                                                  
G26  24471350.840   128597692.656          50.000    24471354.980    96030717.137          50.000  
G27  22282666.460   117096150.613          50.000    22282667.860    87441922.578          50.000  
G29  24325027.160   127828832.195          50.000                                                  
G32  23968971.040   125957710.520          50.000    23968973.740    94059309.453          50.000  
E 3  25573295.960   134388548.637          50.000    25573300.840   100355077.469          50.000  
E 7  26036305.480   136821657.965          50.000    26036312.280   102172004.059          50.000  
E 8  21682464.880   113942122.965          50.000    21682467.760    85086647.672          50.000  
E13  23477507.620   123375117.129          50.000    23477511.300    92130763.230          50.000  
E15  24376117.240   128097316.227          50.000    24376122.920    95657075.961          50.000  
E26  26037206.920   136826387.504          50.000    26037213.720   102175534.973          50.000  
> 2020  8 13 21 43  3.0000000  0 15       0.000000000000
G10  21115413.880   110962197.801          50.000    21115413.900    82861373.148          50.000  
G15  22686591.040   119218649.664          50.000                                                  
G16  23711746.220   124606051.926          50.000                                                  
G20  20246246.320   106394741.258          50.000                                                  
G21  22612874.740   118831471.434          50.000                                                  
G26  24471841.780   128600272.621          50.000    24471845.940    96032643.734          50.000  
G27  22282220.220   117093805.547          50.000    22282221.620    87440171.395          50.000  
G29  24325742.580   127832591.750          50.000                                                  
G32  23968278.880   125954073.234          50.000    23968281.580    94056593.301          50.000  
E 3  25573661.680   134390470.566          50.000    25573666.580   100356512.676          50.000  
E 7  26035768.720   136818837.215          50.000    26035775.500   102169897.660          50.000  
E 8  21682325.200   113941388.957          50.000    21682328.080    85086099.547          50.000  
E13  23477336.000   123374215.332          50.000    23477339.680    92130089.813          50.000  
E15  24376367.960   128098633.750          50.000    24376373.640    95658059.828          50.000  
E26  26036761.940   136824049.039          50.000    26036768.720   102173788.719          50.000  
> 2020  8 13 21 43  4.0000000  0 15       0.000000000000
G10  21115194.600   110961045.504          50.000    21115194.620    82860512.668          50.000  
G15  22687080.820   119221223.555          50.000                                                  
G16  23712055.900   124607679.293          50.000                                                  
G20  20246353.160   106395302.711          50.000                                                  
G21  22612510.100   118829555.219          50.000                                                  
G26  24472332.740   128602852.637          50.000    24472336.900    96034570.371          50.000  
G27  22281774.040   117091460.949          50.000    22281775.440    87438420.559          50.000  
G29  24326458.020   127836351.449          50.000                                                  
G32  23967586.740   125950436.031          50.000    23967589.440    94053877.211          50.000  
E 3  25574027.480   134392392.816          50.000    25574032.360   100357948.125          50.000  
E 7  26035231.980   136816016.648          50.000    26035238.760   102167791.395          50.000  
E 8  21682185.600   113940655.395          50.000    21682188.480    85085551.758          50.000  
E13  23477164.440   123373313.730          50.000    23477168.120    92129416.535          50.000  
E15  24376618.720   128099951.520          50.000    24376624.400    95659043.875          50.000  
E26  26036316.920   136821710.527          50.000    26036323.720   102172042.434          50.000  
> 2020  8 13 21 43  5.0000000  0 15       0.000000000000
G10  21114975.400   110959893.574          50.000    21114975.420    82859652.461          50.000  
G15  22687570.720   119223797.941          50.000                                                  
G16  23712365.660   124609307.113          50.000                                                  
G20  20246460.060   106395864.496          50.000                                                  
G21  22612145.460   118827639.063          50.000                                                  
G26  24472823.720   128605432.711          50.000    24472827.860    96036497.047          50.000  
G27  22281327.980   117089116.828          50.000    22281329.380    87436670.078          50.000  
G29  24327173.500   127840111.273          50.000                                                  
G32  23966894.620   125946798.902          50.000    23966897.320    94051161.172          50.000  
E 3  25574393.320   134394315.359          50.000    25574398.200   100359383.789          50.000  
E 7  26034695.280   136813196.266          50.000    26034702.060   102165685.266          50.000  
E 8  21682046.080   113939922.281          50.000    21682048.980    85085004.305          50.000  
E13  23476992.900   123372412.313          50.000    23476996.580    92128743.402          50.000  
E15  24376869.520   128101269.523          50.000    24376875.220    95660028.098          50.000  
E26  26035871.920   136819372.008          50.000    26035878.700   102170296.137          50.000  
> 2020  8 13 21 43  6.0000000  0 15       0.000000000000
G10  21114756.260   110958742.039          50.000    21114756.280    82858792.547          50.000  
G15  22688060.700   119226372.816          50.000                                                  
G16  23712675.500   124610935.391          50.000                                                  
G20  20246567.020   106396426.617          50.000                                                  
G21  22611780.840   118825722.977          50.000                                                  
G26  24473314.700   128608012.852          50.000    24473318.840    96038423.773          50.000  
G27  22280881.980   117086773.160          50.000    22280883.380    87434919.938          50.000  
G29  24327888.980   127843871.223          50.000                                                  
G32  23966202.500   125943161.848          50.000    23966205.200    94048445.195          50.000  
E 3  25574759.240   134396238.230          50.000    25574764.120   100360819.695          50.000  
E 7  26034158.600   136810376.070          50.000    26034165.380   102163579.277          50.000  
E 8  21681906.660   113939189.609          50.000    21681909.560    85084457.180          50.000  
E13  23476821.400   123371511.098          50.000    23476825.080    92128070.418          50.000  
E15  24377120.380   128102587.758          50.000    24377126.060    95661012.492          50.000  
E26  26035426.900   136817033.453          50.000    26035433.680   102168549.813          50.000  
> 2020  8 13 21 43  7.0000000  0 15       0.000000000000
G10  21114537.200   110957590.859          50.000    21114537.220    82857932.902          50.000  
G15  22688550.780   119228948.211          50.000                                                  
G16  23712985.440   124612564.109          50.000                                                  
G20  20246674.060   106396989.082          50.000                                                  
G21  22611416.220   118823806.953          50.000                                                  
G26  24473805.680   128610593.047          50.000    24473809.840    96040350.543          50.000  
G27  22280436.080   117084429.957          50.000    22280437.480    87433170.145          50.000  
G29  24328604.500   127847631.324          50.000                                                  
G32  23965510.400   125939524.852          50.000    23965513.100    94045729.254          50.000  
E 3  25575125.200   134398161.410          50.000    25575130.080   100362255.840          50.000  
E 7  26033621.960   136807556.055          50.000    26033628.760   102161473.422          50.000  
E 8  21681767.320   113938457.379          50.000    21681770.220    85083910.383          50.000  
E13  23476649.940   123370610.074          50.000    23476653.620    92127397.574          50.000  
E15  24377371.260   128103906.227          50.000    24377376.960    95661997.063          50.000  
E26  26034981.880   136814694.883          50.000    26034988.660   102166803.480          50.000  
> 2020  8 13 21 43  8.0000000  0 15       0.000000000000
G10  21114318.200   110956440.043          50.000    21114318.220    82857073.527          50.000  
G15  22689040.960   119231524.090          50.000                                                  
G16  23713295.460   124614193.293          50.000                                                  
G20  20246781.160   106397551.883          50.000                                                  
G21  22611051.620   118821890.977          50.000                                                  
G26  24474296.700   128613173.297          50.000    24474300.840    96042277.352          50.000  
G27  22279990.280   117082087.242          50.000    22279991.680    87431420.715          50.000  
G29  24329320.060   127851391.543          50.000                                                  
G32  23964818.320   125935887.910          50.000    23964821.020    94043013.363          50.000  
E 3  25575491.220   134400084.883          50.000    25575496.100   100363692.195          50.000  
E 7  26033085.380   136804736.223          50.000    26033092.160   102159367.707          50.000  
E 8  21681628.060   113937725.602          50.000    21681630.960    85083363.926          50.000  
E13  23476478.520   123369709.238          50.000    23476482.200    92126724.875          50.000  
E15  24377622.220   128105224.941          50.000    24377627.900    95662981.816          50.000  
E26  26034536.860   136812356.289          50.000    26034543.640   102165057.129          50.000  
> 2020  8 13 21 43  9.0000000  0 15       0.000000000000
G10  21114099.280   110955289.586          50.000    21114099.300    82856214.418          50.000  
G15  22689531.220   119234100.473          50.000                                                  
G16  23713605.580   124615822.930          50.000                                                  
G20  20246888.320   106398115.031          50.000                                                  
G21  22610687.040   118819975.066          50.000                                                  
G26  24474787.720   128615753.613          50.000    24474791.860    96044204.211          50.000  
G27  22279544.560   117079744.996          50.000    22279545.960    87429671.637          50.000  
G29  24330035.620   127855151.887          50.000                                                  
G32  23964126.240   125932251.066          50.000    23964128.940    94040297.539          50.000  
E 3  25575857.300   134402008.680          50.000    25575862.200   100365128.797          50.000  
E 7  26032548.800   136801916.578          50.000    26032555.580   102157262.129          50.000  
E 8  21681488.900   113936994.266          50.000    21681491.780    85082817.801          50.000  
E13  23476307.120   123368808.586          50.000    23476310.800    92126052.309          50.000  
E15  24377873.200   128106543.863          50.000    24377878.880    95663966.727          50.000  
E26  26034091.840   136810017.664          50.000    26034098.620   102163310.758          50.000  
> 2020  8 13 21 43 10.0000000  0 15       0.000000000000
G10  21113880.420   110954139.512          50.000    21113880.440    82855355.602          50.000  
G15  22690021.580   119236677.344          50.000                                                  
G16  23713915.760   124617453.016          50.000                                                  
G20  20246995.540   106398678.516          50.000                                                  
G21  22610322.460   118818059.215          50.000                                                  
G26  24475278.740   128618333.984          50.000    24475282.880    96046131.113          50.000  
G27  22279098.940   117077403.203          50.000    22279100.340    87427922.898          50.000  
G29  24330751.220   127858912.367          50.000                                                  
G32  23963434.180   125928614.273          50.000    23963436.880    94037581.754          50.000  
E 3  25576223.460   134403932.781          50.000    25576228.340   100366565.625          50.000  
E 7  26032012.280   136799097.113          50.000    26032019.060   102155156.688          50.000  
E 8  21681349.800   113936263.367          50.000    21681352.700    85082272.000          50.000  
E13  23476135.780   123367908.129          50.000    23476139.440    92125379.891          50.000  
E15  24378124.220   128107863.043          50.000    24378129.900    95664951.828          50.000  
E26  26033646.800   136807679.020          50.000    26033653.580   102161564.367          50.000  
> 2020  8 13 21 43 11.0000000  0 15       0.000000000000
G10  21113661.640   110952989.801          50.000    21113661.660    82854497.055          50.000  
G15  22690512.040   119239254.711          50.000                                                  
G16  23714226.040   124619083.559          50.000                                                  
G20  20247102.820   106399242.336          50.000                                                  
G21  22609957.900   118816143.422          50.000                                                  
G26  24475769.780   128620914.402          50.000    24475773.920    96048058.051          50.000  
G27  22278653.400   117075061.871          50.000    22278654.780    87426174.504          50.000  
G29  24331466.840   127862672.961          50.000                                                  
G32  23962742.140   125924977.547          50.000    23962744.820    94034866.023          50.000  
E 3  25576589.660   134405857.191          50.000    25576594.540   100368002.684          50.000  
E 7  26031475.780   136796277.832          50.000    26031482.560   102153051.383          50.000  
E 8  21681210.800   113935532.918          50.000    21681213.700    85081726.535          50.000  
E13  23475964.460   123367007.859          50.000    23475968.120    92124707.609          50.000  
E15  24378375.300   128109182.449          50.000    24378380.980    95665937.098          50.000  
E26  26033201.760   136805340.359          50.000    26033208.540   102159817.965          50.000  
> 2020  8 13 21 43 12.0000000  0 15       0.000000000000
G10  21113442.920   110951840.473          50.000    21113442.940    82853638.797          50.000  
G15  22691002.580   119241832.566          50.000                                                  
G16  23714536.420   124620714.559          50.000                                                  
G20  20247210.180   106399806.496          50.000                                                  
G21  22609593.340   118814227.691          50.000                                                  
G26  24476260.820   128623494.891          50.000    24476264.980    96049985.039          50.000  
G27  22278207.940   117072721.008          50.000    22278209.340    87424426.465          50.000  
G29  24332182.480   127866433.684          50.000                                                  
G32  23962050.100   125921340.887          50.000    23962052.800    94032150.340          50.000  
E 3  25576955.920   134407781.914          50.000    25576960.800   100369439.977          50.000  
E 7  26030939.320   136793458.738          50.000    26030946.100   102150946.215          50.000  
E 8  21681071.880   113934802.914          50.000    21681074.780    85081181.402          50.000  
E13  23475793.180   123366107.781          50.000    23475796.840    92124035.473          50.000  
E15  24378626.420   128110502.086          50.000    24378632.100    95666922.539          50.000  
E26  26032756.720   136803001.672          50.000    26032763.500   102158071.547          50.000  
> 2020  8 13 21 43 13.0000000  0 15       0.000000000000
G10  21113224.280   110950691.512          50.000    21113224.300    82852780.809          50.000  
G15  22691493.240   119244410.926          50.000                                                  
G16  23714846.880   124622346.012          50.000                                                  
G20  20247317.600   106400370.992          50.000                                                  
G21  22609228.800   118812312.016          50.000                                                  
G26  24476751.880   128626075.426          50.000    24476756.040    96051912.066          50.000  
G27  22277762.580   117070380.605          50.000    22277763.980    87422678.766          50.000  
G29  24332898.140   127870194.551          50.000                                                  
G32  23961358.080   125917704.309          50.000    23961360.780    94029434.719          50.000  
E 3  25577322.240   134409706.945          50.000    25577327.120   100370877.500          50.000  
E 7  26030402.900   136790639.828          50.000    26030409.680   102148841.188          50.000  
E 8  21680933.060   113934073.352          50.000    21680935.940    85080636.602          50.000  
E13  23475621.940   123365207.898          50.000    23475625.600    92123363.484          50.000  
E15  24378877.580   128111821.957          50.000    24378883.260    95667908.160          50.000  
E26  26032311.680   136800662.957          50.000    26032318.460   102156325.105          50.000  
> 2020  8 13 21 43 14.0000000  0 15       0.000000000000
G10  21113005.720   110949542.918          50.000    21113005.740    82851923.098          50.000  
G15  22691983.980   119246989.773          50.000                                                  
G16  23715157.420   124623977.922          50.000                                                  
G20  20247425.100   106400935.836          50.000                                                  
G21  22608864.280   118810396.410          50.000                                                  
G26  24477242.960   128628656.031          50.000    24477247.100    96053839.145          50.000  
G27  22277317.300   117068040.684          50.000    22277318.700    87420931.426          50.000  
G29  24333613.840   127873955.543          50.000                                                  
G32  23960666.080   125914067.777          50.000    23960668.760    94026719.133          50.000  
E 3  25577688.600   134411632.277          50.000    25577693.500   100372315.250          50.000  
E 7  26029866.520   136787821.098          50.000    26029873.280   102146736.293          50.000  
E 8  21680794.300   113933344.230          50.000    21680797.200    85080092.129          50.000  
E13  23475450.720   123364308.199          50.000    23475454.400    92122691.633          50.000  
E15  24379128.780   128113142.066          50.000    24379134.460    95668893.957          50.000  
E26  26031866.620   136798324.223          50.000    26031873.420   102154578.648          50.000  
> 2020  8 13 21 43 15.0000000  0 15       0.000000000000
G10  21112787.220   110948394.699          50.000    21112787.240    82851065.664          50.000  
G15  22692474.800   119249569.129          50.000                                                  
G16  23715468.040   124625610.281          50.000                                                  
G20  20247532.640   106401501.012          50.000                                                  
G21  22608499.760   118808480.863          50.000                                                  
G26  24477734.040   128631236.691          50.000    24477738.180    96055766.262          50.000  
G27  22276872.120   117065701.227          50.000    22276873.500    87419184.434          50.000  
G29  24334329.560   127877716.664          50.000                                                  
G32  23959974.080   125910431.320          50.000    23959976.760    94024003.605          50.000  
E 3  25578055.060   134413557.938          50.000    25578059.940   100373753.246          50.000  
E 7  26029330.160   136785002.563          50.000    26029336.940   102144631.551          50.000  
E 8  21680655.640   113932615.566          50.000    21680658.540    85079548.000          50.000  
E13  23475279.560   123363408.691          50.000    23475283.220    92122019.926          50.000  
E15  24379380.040   128114462.414          50.000    24379385.720    95669879.934          50.000  
E26  26031421.580   136795985.453          50.000    26031428.360   102152832.172          50.000  
> 2020  8 13 21 43 16.0000000  0 15       0.000000000000
G10  21112568.780   110947246.840          50.000    21112568.800    82850208.504          50.000  
G15  22692965.740   119252148.969          50.000                                                  
G16  23715778.760   124627243.090          50.000                                                  
G20  20247640.260   106402066.516          50.000                                                  
G21  22608135.260   118806565.383          50.000                                                  
G26  24478225.140   128633817.406          50.000    24478229.280    96057693.426          50.000  
G27  22276427.020   117063362.230          50.000    22276428.420    87417437.785          50.000  
G29  24335045.300   127881477.914          50.000                                                  
G32  23959282.100   125906794.945          50.000    23959284.780    94021288.133          50.000  
E 3  25578421.540   134415483.871          50.000    25578426.420   100375191.445          50.000  
E 7  26028793.840   136782184.191          50.000    26028800.620   102142526.926          50.000  
E 8  21680517.060   113931887.324          50.000    21680519.960    85079004.188          50.000  
E13  23475108.420   123362509.363          50.000    23475112.080    92121348.355          50.000  
E15  24379631.320   128115782.980          50.000    24379637.020    95670866.074          50.000  
E26  26030976.520   136793646.664          50.000    26030983.300   102151085.676          50.000  
> 2020  8 13 21 43 17.0000000  0 15       0.000000000000
G10  21112350.420   110946099.363          50.000    21112350.440    82849351.625          50.000  
G15  22693456.760   119254729.320          50.000                                                  
G16  23716089.560   124628876.359          50.000                                                  
G20  20247747.940   106402632.391          50.000                                                  
G21  22607770.760   118804649.973          50.000                                                  
G26  24478716.240   128636398.184          50.000    24478720.380    96059620.633          50.000  
G27  22275982.020   117061023.711          50.000    22275983.400    87415691.492          50.000  
G29  24335761.080   127885239.293          50.000                                                  
G32  23958590.120   125903158.629          50.000    23958592.800    94018572.707          50.000  
E 3  25578788.100   134417410.145          50.000    25578792.980   100376629.902          50.000  
E 7  26028257.560   136779366.020          50.000    26028264.340   102140422.453          50.000  
E 8  21680378.580   113931159.547          50.000    21680381.460    85078460.719          50.000  
E13  23474937.320   123361610.242          50.000    23474940.980    92120676.938          50.000  
E15  24379882.680   128117103.797          50.000    24379888.360    95671852.402          50.000  
E26  26030531.460   136791307.848          50.000    26030538.240   102149339.164          50.000  
> 2020  8 13 21 43 18.0000000  0 15       0.000000000000
G10  21112132.120   110944952.383          50.000    21112132.080    82848495.316          50.000  
G15  22693947.880   119257310.172          50.000                                                  
G16  23716400.460   124630510.082          50.000                                                  
G20  20247855.640   106403198.789          50.000                                                  
G21  22607406.240   118802734.852          50.000                                                  
G26  24479207.400   128638978.910          50.000    24479211.540    96061547.824          50.000  
G27  22275537.100   117058685.711          50.000    22275538.440    87413945.734          50.000  
G29  24336476.940   127889000.543          50.000                                                  
G32  23957898.200   125899522.340          50.000    23957900.860    94015857.367          50.000  
E 3  25579154.720   134419336.723          50.000    25579159.600   100378068.578          50.000  
E 7  26027721.320   136776548.004          50.000    26027728.100   102138318.078          50.000  
E 8  21680240.160   113930432.223          50.000    21680243.040    85077917.605          50.000  
E13  23474766.260   123360711.313          50.000    23474769.920    92120005.668          50.000  
E15  24380134.060   128118424.820          50.000    24380139.740    95672838.875          50.000  
E26  26030086.380   136788969.133          50.000    26030093.140   102147592.770          50.000  
> 2020  8 13 21 43 19.0000000  0 15       0.000000000000
G10  21111913.900   110943805.645          50.000    21111913.860    82847638.988          50.000  
G15  22694439.100   119259891.504          50.000                                                  
G16  23716711.440   124632144.254          50.000                                                  
G20  20247963.460   106403765.324          50.000                                                  
G21  22607041.780   118800819.547          50.000                                                  
G26  24479698.540   128641559.789          50.000    24479702.660    96063475.105          50.000  
G27  22275092.260   117056348.129          50.000    22275093.620    87412200.137          50.000  
G29  24337192.760   127892762.176          50.000                                                  
G32  23957206.260   125895886.148          50.000    23957208.920    94013142.031          50.000  
E 3  25579521.400   134421263.582          50.000    25579526.280   100379507.469          50.000  
E 7  26027185.100   136773730.191          50.000    26027191.880   102136213.867          50.000  
E 8  21680101.840   113929705.324          50.000    21680104.720    85077374.789          50.000  
E13  23474595.220   123359812.559          50.000    23474598.900    92119334.520          50.000  
E15  24380385.500   128119746.078          50.000    24380391.180    95673825.527          50.000  
E26  26029641.320   136786630.266          50.000    26029648.080   102145846.215          50.000  
> 2020  8 13 21 43 20.0000000  0 15       0.000000000000
G10  21111695.760   110942659.262          50.000    21111695.720    82846782.922          50.000  
G15  22694930.400   119262473.332          50.000                                                  
G16  23717022.500   124633778.875          50.000                                                  
G20  20248071.320   106404332.203          50.000                                                  
G21  22606677.320   118798904.313          50.000                                                  
G26  24480189.660   128644140.727          50.000    24480193.800    96065402.426          50.000  
G27  22274647.520   117054011.000          50.000    22274648.880    87410454.883          50.000  
G29  24337908.600   127896523.945          50.000                                                  
G32  23956514.320   125892250.027          50.000    23956517.000    94010426.746          50.000  
E 3  25579888.120   134423190.770          50.000    25579893.000   100380946.602          50.000  
E 7  26026648.940   136770912.566          50.000    26026655.720   102134109.801          50.000  
E 8  21679963.600   113928978.855          50.000    21679966.480    85076832.301          50.000  
E13  23474424.240   123358913.992          50.000    23474427.900    92118663.512          50.000  
E15  24380636.960   128121067.578          50.000    24380642.660    95674812.359          50.000  
E26  26029196.240   136784291.379          50.000    26029203.000   102144099.645          50.000  
> 2020  8 13 21 43 21.0000000  0 15       0.000000000000
G10  21111477.680   110941513.258          50.000    21111477.640    82845927.141          50.000  
G15  22695421.800   119265055.660          50.000                                                  
G16  23717333.640   124635413.941          50.000                                                  
G20  20248179.260   106404899.414          50.000                                                  
G21  22606312.880   118796989.137          50.000                                                  
G26  24480680.820   128646721.719          50.000    24480684.960    96067329.793          50.000  
G27  22274202.880   117051674.344          50.000    22274204.220    87408709.977          50.000  
G29  24338624.460   127900285.844          50.000                                                  
G32  23955822.420   125888613.984          50.000    23955825.080    94007711.523          50.000  
E 3  25580254.920   134425118.258          50.000    25580259.800   100382385.957          50.000  
E 7  26026112.800   136768095.117          50.000    26026119.560   102132005.863          50.000  
E 8  21679825.440   113928252.848          50.000    21679828.320    85076290.148          50.000  
E13  23474253.280   123358015.621          50.000    23474256.960    92117992.652          50.000  
E15  24380888.480   128122389.316          50.000    24380894.180    95675799.375          50.000  
E26  26028751.160   136781952.461          50.000    26028757.920   102142353.051          50.000  
> 2020  8 13 21 43 22.0000000  0 15       0.000000000000
G10  21111259.680   110940367.629          50.000    21111259.640    82845071.641          50.000  
G15  22695913.300   119267638.480          50.000                                                  
G16  23717644.880   124637049.473          50.000                                                  
G20  20248287.280   106405466.969          50.000                                                  
G21  22605948.440   118795074.016          50.000                                                  
G26  24481171.980   128649302.770          50.000    24481176.120    96069257.199          50.000  
G27  22273758.320   117049338.148          50.000    22273759.660    87406965.418          50.000  
G29  24339340.360   127904047.863          50.000                                                  
G32  23955130.520   125884978.016          50.000    23955133.180    94004996.352          50.000  
E 3  25580621.760   134427046.055          50.000    25580626.640   100383825.547          50.000  
E 7  26025576.680   136765277.844          50.000    26025583.460   102129902.055          50.000  
E 8  21679687.380   113927527.273          50.000    21679690.260    85075748.324          50.000  
E13  23474082.360   123357117.434          50.000    23474086.040    92117321.926          50.000  
E15  24381140.060   128123711.285          50.000    24381145.740    95676786.555          50.000  
E26  26028306.080   136779613.516          50.000    26028312.840   102140606.438          50.000  
> 2020  8 13 21 43 23.0000000  0 15       0.000000000000
G10  21111041.740   110939222.359          50.000    21111041.700    82844216.406          50.000  
G15  22696404.900   119270221.805          50.000                                                  
G16  23717956.200   124638685.461          50.000                                                  
G20  20248395.340   106406034.863          50.000                                                  
G21  22605584.020   118793158.961          50.000                                                  
G26  24481663.160   128651883.883          50.000    24481667.280    96071184.652          50.000  
G27  22273313.840   117047002.441          50.000    22273315.200    87405221.219          50.000  
G29  24340056.280   127907810.020          50.000                                                  
G32  23954438.620   125881342.105          50.000    23954441.280    94002281.227          50.000  
E 3  25580988.680   134428974.156          50.000    25580993.560   100385265.363          50.000  
E 7  26025040.620   136762460.766          50.000    26025047.380   102127798.395          50.000  
E 8  21679549.400   113926802.152          50.000    21679552.280    85075206.840          50.000  
E13  23473911.480   123356219.445          50.000    23473915.160    92116651.352          50.000  
E15  24381391.660   128125033.500          50.000    24381397.340    95677773.926          50.000  
E26  26027860.980   136777274.563          50.000    26027867.740   102138859.816          50.000  
> 2020  8 13 21 43 24.0000000  0 15       0.000000000000
G10  21110823.880   110938077.457          50.000    21110823.820    82843361.449          50.000  
G15  22696896.580   119272805.605          50.000                                                  
G16  23718267.600   124640321.895          50.000                                                  
G20  20248503.480   106406603.094          50.000                                                  
G21  22605219.620   118791243.957          50.000                                                  
G26  24482154.340   128654465.059          50.000    24482158.480    96073112.148          50.000  
G27  22272869.460   117044667.191          50.000    22272870.820    87403477.363          50.000  
G29  24340772.220   127911572.281          50.000                                                  
G32  23953746.740   125877706.266          50.000    23953749.400    93999566.156          50.000  
E 3  25581355.640   134430902.570          50.000    25581360.520   100386705.410          50.000  
E 7  26024504.580   136759643.883          50.000    26024511.360   102125694.879          50.000  
E 8  21679411.500   113926077.477          50.000    21679414.380    85074665.688          50.000  
E13  23473740.640   123355321.637          50.000    23473744.300    92115980.914          50.000  
E15  24381643.320   128126355.922          50.000    24381649.000    95678761.445          50.000  
E26  26027415.900   136774935.578          50.000    26027422.660   102137113.176          50.000  
> 2020  8 13 21 43 25.0000000  0 15       0.000000000000
G10  21110606.080   110936932.953          50.000    21110606.040    82842506.785          50.000  
G15  22697388.360   119275389.918          50.000                                                  
G16  23718579.100   124641958.781          50.000                                                  
G20  20248611.680   106407171.668          50.000                                                  
G21  22604855.220   118789329.027          50.000                                                  
G26  24482645.520   128657046.270          50.000    24482649.660    96075039.680          50.000  
G27  22272425.180   117042332.398          50.000    22272426.520    87401733.852          50.000  
G29  24341488.180   127915334.688          50.000                                                  
G32  23953054.880   125874070.500          50.000    23953057.540    93996851.137          50.000  
E 3  25581722.660   134432831.285          50.000    25581727.540   100388145.684          50.000  
E 7  26023968.580   136756827.172          50.000    26023975.360   102123591.492          50.000  
E 8  21679273.680   113925353.234          50.000    21679276.560    85074124.855          50.000  
E13  23473569.840   123354424.031          50.000    23473573.500    92115310.621          50.000  
E15  24381895.020   128127678.594          50.000    24381900.700    95679749.152          50.000  
E26  26026970.800   136772596.570          50.000    26026977.560   102135366.516          50.000  
> 2020  8 13 21 43 26.0000000  0 15       0.000000000000
G10  21110388.360   110935788.785          50.000    21110388.320    82841652.375          50.000  
G15  22697880.240   119277974.723          50.000                                                  
G16  23718890.680   124643596.125          50.000                                                  
G20  20248719.940   106407740.574          50.000                                                  
G21  22604490.820   118787414.145          50.000                                                  
G26  24483136.740   128659627.555          50.000    24483140.880    96076967.262          50.000  
G27  22271980.960   117039998.082          50.000    22271982.320    87399990.695          50.000  
G29  24342204.160   127919097.207          50.000                                                  
G32  23952363.040   125870434.805          50.000    23952365.700    93994136.168          50.000  
E 3  25582089.760   134434760.320          50.000    25582094.640   100389586.195          50.000  
E 7  26023432.620   136754010.645          50.000    26023439.380   102121488.242          50.000  
E 8  21679135.940   113924629.449          50.000    21679138.820    85073584.367          50.000  
E13  23473399.060   123353526.613          50.000    23473402.740    92114640.473          50.000  
E15  24382146.760   128129001.500          50.000    24382152.440    95680737.039          50.000  
E26  26026525.700   136770257.539          50.000    26026532.460   102133619.840          50.000  
> 2020  8 13 21 43 27.0000000  0 15       0.000000000000
G10  21110170.700   110934645.000          50.000    21110170.660    82840798.250          50.000  
G15  22698372.200   119280560.020          50.000                                                  
G16  23719202.340   124645233.918          50.000                                                  
G20  20248828.260   106408309.832          50.000                                                  
G21  22604126.460   118785499.336          50.000                                                  
G26  24483627.940   128662208.895          50.000    24483632.080    96078894.883          50.000  
G27  22271536.860   117037664.234          50.000    22271538.200    87398247.887          50.000  
G29  24342920.180   127922859.875          50.000                                                  
G32  23951671.200   125866799.184          50.000    23951673.860    93991421.262          50.000  
E 3  25582456.900   134436689.660          50.000    25582461.780   100391026.938          50.000  
E 7  26022896.680   136751194.305          50.000    26022903.460   102119385.137          50.000  
E 8  21678998.300   113923906.094          50.000    21679001.180    85073044.199          50.000  
E13  23473228.340   123352629.387          50.000    23473232.000    92113970.465          50.000  
E15  24382398.540   128130324.645          50.000    24382404.220    95681725.102          50.000  
E26  26026080.580   136767918.488          50.000    26026087.360   102131873.145          50.000  
> 2020  8 13 21 43 28.0000000  0 15       0.000000000000
G10  21109953.120   110933501.586          50.000    21109953.080    82839944.402          50.000  
G15  22698864.260   119283145.820          50.000                                                  
G16  23719514.080   124646872.164          50.000                                                  
G20  20248936.660   106408879.422          50.000                                                  
G21  22603762.080   118783584.586          50.000                                                  
G26  24484119.180   128664790.285          50.000    24484123.320    96080822.543          50.000  
G27  22271092.820   117035330.855          50.000    22271094.180    87396505.430          50.000  
G29  24343636.220   127926622.664          50.000                                                  
G32  23950979.380   125863163.621          50.000    23950982.040    93988706.395          50.000  
E 3  25582824.100   134438619.301          50.000    25582828.980   100392467.902          50.000  
E 7  26022360.780   136748378.141          50.000    26022367.560   102117282.156          50.000  
E 8  21678860.740   113923183.188          50.000    21678863.620    85072504.367          50.000  
E13  23473057.640   123351732.355          50.000    23473061.300    92113300.602          50.000  
E15  24382650.380   128131648.012          50.000    24382656.060    95682713.332          50.000  
E26  26025635.480   136765579.414          50.000    26025642.240   102130126.434          50.000  
> 2020  8 13 21 43 29.0000000  0 15       0.000000000000
G10  21109735.600   110932358.543          50.000    21109735.560    82839090.832          50.000  
G15  22699356.420   119285732.113          50.000                                                  
G16  23719825.920   124648510.867          50.000                                                  
G20  20249045.100   106409449.352          50.000                                                  
G21  22603397.740   118781669.891          50.000                                                  
G26  24484610.400   128667371.734          50.000    24484614.540    96082750.246          50.000  
G27  22270648.880   117032997.945          50.000    22270650.240    87394763.320          50.000  
G29  24344352.280   127930385.574          50.000                                                  
G32  23950287.560   125859528.137          50.000    23950290.220    93985991.586          50.000  
E 3  25583191.360   134440549.266          50.000    25583196.240   100393909.109          50.000  
E 7  26021824.920   136745562.180          50.000    26021831.700   102115179.332          50.000  
E 8  21678723.260   113922460.730          50.000    21678726.140    85071964.871          50.000  
E13  23472886.960   123350835.508          50.000    23472890.640    92112630.879          50.000  
E15  24382902.260   128132971.621          50.000    24382907.940    95683701.738          50.000  
E26  26025190.360   136763240.305          50.000    26025197.120   102128379.699          50.000  
> 2020  8 13 21 43 30.0000000  0 15       0.000000000000
G10  21109518.160   110931215.879          50.000    21109518.120    82838237.547          50.000  
G15  22699848.680   119288318.895          50.000                                                  
G16  23720137.860   124650150.023          50.000                                                  
G20  20249153.620   106410019.621          50.000                                                  
G21  22603033.400   118779755.262          50.000                                                  
G26  24485101.660   128669953.246          50.000    24485105.800    96084677.996          50.000  
G27  22270205.040   117030665.508          50.000    22270206.400    87393021.566          50.000  
G29  24345068.360   127934148.617          50.000                                                  
G32  23949595.780   125855892.723          50.000    23949598.420    93983276.832          50.000  
E 3  25583558.680   134442479.523          50.000    25583563.560   100395350.535          50.000  
E 7  26021289.100   136742746.391          50.000    26021295.880   102113076.633          50.000  
E 8  21678585.860   113921738.723          50.000    21678588.740    85071425.711          50.000  
E13  23472716.340   123349938.859          50.000    23472720.020    92111961.305          50.000  
E15  24383154.180   128134295.469          50.000    24383159.860    95684690.324          50.000  
E26  26024745.240   136760901.180          50.000    26024752.000   102126632.953          50.000  
> 2020  8 13 21 43 31.0000000  0 15       0.000000000000
G10  21109300.800   110930073.578          50.000    21109300.760    82837384.527          50.000  
G15  22700341.020   119290906.180          50.000                                                  
G16  23720449.860   124651789.629          50.000                                                  
G20  20249262.220   106410590.223          50.000                                                  
G21  22602669.060   118777840.684          50.000                                                  
G26  24485592.920   128672534.809          50.000    24485597.060    96086605.789          50.000  
G27  22269761.280   117028333.539          50.000    22269762.640    87391280.164          50.000  
G29  24345784.480   127937911.785          50.000                                                  
G32  23948903.980   125852257.367          50.000    23948906.640    93980562.121          50.000  
E 3  25583926.060   134444410.094          50.000    25583930.940   100396792.195          50.000  
E 7  26020753.300   136739930.789          50.000    26020760.080   102110974.074          50.000  
E 8  21678448.560   113921017.152          50.000    21678451.440    85070886.875          50.000  
E13  23472545.760   123349042.391          50.000    23472549.420    92111291.863          50.000  
E15  24383406.140   128135619.539          50.000    24383411.820    95685679.078          50.000  
E26  26024300.120   136758562.035          50.000    26024306.880   102124886.188          50.000  
> 2020  8 13 21 43 32.0000000  0 15       0.000000000000
G10  21109083.500   110928931.656          50.000    21109083.460    82836531.797          50.000  
G15  22700833.460   119293493.953          50.000                                                  
G16  23720761.960   124653429.688          50.000                                                  
G20  20249370.860   106411161.176          50.000                                                  
G21  22602304.740   118775926.184          50.000                                                  
G26  24486084.180   128675116.422          50.000    24486088.320    96088533.617          50.000  
G27  22269317.620   117026002.027          50.000    22269318.960    87389539.102          50.000  
G29  24346500.620   127941675.086          50.000                                                  
G32  23948212.220   125848622.102          50.000    23948214.880    93977847.477          50.000  
E 3  25584293.500   134446340.980          50.000    25584298.380   100398234.090          50.000  
E 7  26020217.560   136737115.379          50.000    26020224.320   102108871.660          50.000  
E 8  21678311.340   113920296.035          50.000    21678314.220    85070348.379          50.000  
E13  23472375.200   123348146.121          50.000    23472378.860    92110622.574          50.000  
E15  24383658.140   128136943.844          50.000    24383663.840    95686668.008          50.000  
E26  26023855.000   136756222.871          50.000    26023861.760   102123139.414          50.000  
> 2020  8 13 21 43 33.0000000  0 15       0.000000000000
G10  21108866.260   110927790.090          50.000    21108866.220    82835679.328          50.000  
G15  22701326.000   119296082.227          50.000                                                  
G16  23721074.140   124655070.188          50.000                                                  
G20  20249479.580   106411732.465          50.000                                                  
G21  22601940.440   118774011.742          50.000                                                  
G26  24486575.460   128677698.094          50.000    24486579.600    96090461.484          50.000  
G27  22268874.040   117023670.996          50.000    22268875.380    87387798.395          50.000  
G29  24347216.780   127945438.504          50.000                                                  
G32  23947520.460   125844986.887          50.000    23947523.120    93975132.867          50.000  
E 3  25584660.980   134448272.164          50.000    25584665.880   100399676.207          50.000  
E 7  26019681.840   136734300.141          50.000    26019688.600   102106769.375          50.000  
E 8  21678174.200   113919575.336          50.000    21678177.080    85069810.195          50.000  
E13  23472204.680   123347250.039          50.000    23472208.360    92109953.422          50.000  
E15  24383910.200   128138268.395          50.000    24383915.880    95687657.117          50.000  
E26  26023409.860   136753883.672          50.000    26023416.620   102121392.609          50.000  
> 2020  8 13 21 43 34.0000000  0 15       0.000000000000
G10  21108649.100   110926648.902          50.000    21108649.060    82834827.141          50.000  
G15  22701818.620   119298670.992          50.000                                                  
G16  23721386.400   124656711.148          50.000                                                  
G20  20249588.360   106412304.086          50.000                                                  
G21  22601576.140   118772097.355          50.000                                                  
G26  24487066.740   128680279.824          50.000    24487070.900    96092389.398          50.000  
G27  22268430.540   117021340.426          50.000    22268431.900    87386058.039          50.000  
G29  24347932.960   127949202.063          50.000                                                  
G32  23946828.720   125841351.754          50.000    23946831.380    93972418.324          50.000  
E 3  25585028.540   134450203.656          50.000    25585033.420   100401118.555          50.000  
E 7  26019146.140   136731485.094          50.000    26019152.920   102104667.227          50.000  
E 8  21678037.140   113918855.098          50.000    21678040.020    85069272.352          50.000  
E13  23472034.200   123346354.145          50.000    23472037.880    92109284.410          50.000  
E15  24384162.300   128139593.168          50.000    24384167.980    95688646.398          50.000  
E26  26022964.720   136751544.449          50.000    26022971.480   102119645.789          50.000  
> 2020  8 13 21 43 35.0000000  0 15       0.000000000000
G10  21108432.020   110925508.070          50.000    21108431.980    82833975.223          50.000  
G15  22702311.340   119301260.250          50.000                                                  
G16  23721698.760   124658352.563          50.000                                                  
G20  20249697.200   106412876.039          50.000                                                  
G21  22601211.860   118770183.031          50.000                                                  
G26  24487558.060   128682861.621          50.000    24487562.200    96094317.363          50.000  
G27  22267987.140   117019010.332          50.000    22267988.500    87384318.031          50.000  
G29  24348649.160   127952965.746          50.000                                                  
G32  23946137.000   125837716.684          50.000    23946139.640    93969703.824          50.000  
E 3  25585396.160   134452135.457          50.000    25585401.040   100402561.133          50.000  
E 7  26018610.500   136728670.223          50.000    26018617.260   102102565.215          50.000  
E 8  21677900.160   113918135.305          50.000    21677903.040    85068734.844          50.000  
E13  23471863.760   123345458.453          50.000    23471867.420    92108615.547          50.000  
E15  24384414.440   128140918.180          50.000    24384420.140    95689635.855          50.000  
E26  26022519.580   136749205.215          50.000    26022526.340   102117898.961          50.000  
> 2020  8 13 21 43 36.0000000  0 15       0.000000000000
G10  21108215.000   110924367.617          50.000    21108214.960    82833123.586          50.000  
G15  22702804.160   119303850.008          50.000                                                  
G16  23722011.200   124659994.430          50.000                                                  
G20  20249806.100   106413448.336          50.000                                                  
G21  22600847.600   118768268.781          50.000                                                  
G26  24488049.360   128685443.449          50.000    24488053.500    96096245.352          50.000  
G27  22267543.840   117016680.711          50.000    22267545.180    87382578.379          50.000  
G29  24349365.400   127956729.559          50.000                                                  
G32  23945445.280   125834081.691          50.000    23945447.940    93966989.383          50.000  
E 3  25585763.820   134454067.570          50.000    25585768.700   100404003.941          50.000  
E 7  26018074.880   136725855.559          50.000    26018081.660   102100463.359          50.000  
E 8  21677763.280   113917415.953          50.000    21677766.160    85068197.672          50.000  
E13  23471693.360   123344562.941          50.000    23471697.020    92107946.824          50.000  
E15  24384666.640   128142243.434          50.000    24384672.320    95690625.492          50.000  
E26  26022074.440   136746865.953          50.000    26022081.200   102116152.109          50.000  
> 2020  8 13 21 43 37.0000000  0 15       0.000000000000
G10  21107998.040   110923227.531          50.000    21107998.000    82832272.223          50.000  
G15  22703297.080   119306440.258          50.000                                                  
G16  23722323.720   124661636.738          50.000                                                  
G20  20249915.080   106414020.973          50.000                                                  
G21  22600483.340   118766354.586          50.000                                                  
G26  24488540.680   128688025.352          50.000    24488544.820    96098173.395          50.000  
G27  22267100.620   117014351.563          50.000    22267101.960    87380839.082          50.000  
G29  24350081.660   127960493.508          50.000                                                  
G32  23944753.580   125830446.762          50.000    23944756.220    93964274.988          50.000  
E 3  25586131.560   134455999.996          50.000    25586136.440   100405446.988          50.000  
E 7  26017539.300   136723041.074          50.000    26017546.080   102098361.637          50.000  
E 8  21677626.480   113916697.063          50.000    21677629.360    85067660.836          50.000  
E13  23471522.980   123343667.629          50.000    23471526.640    92107278.246          50.000  
E15  24384918.860   128143568.914          50.000    24384924.560    95691615.297          50.000  
E26  26021629.280   136744526.668          50.000    26021636.040   102114405.242          50.000  
> 2020  8 13 21 43 38.0000000  0 15       0.000000000000
G10  21107781.160   110922087.824          50.000    21107781.120    82831421.145          50.000  
G15  22703790.080   119309031.008          50.000                                                  
G16  23722636.320   124663279.512          50.000                                                  
G20  20250024.120   106414593.941          50.000                                                  
G21  22600119.100   118764440.445          50.000                                                  
G26  24489032.020   128690607.297          50.000    24489036.160    96100101.469          50.000  
G27  22266657.480   117012022.863          50.000    22266658.820    87379100.121          50.000  
G29  24350797.940   127964257.566          50.000                                                  
G32  23944061.880   125826811.910          50.000    23944064.540    93961560.652          50.000  
E 3  25586499.340   134457932.711          50.000    25586504.220   100406890.250          50.000  
E 7  26017003.760   136720226.770          50.000    26017010.540   102096260.047          50.000  
E 8  21677489.760   113915978.598          50.000    21677492.640    85067124.320          50.000  
E13  23471352.640   123342772.504          50.000    23471356.320    92106609.809          50.000  
E15  24385171.140   128144894.633          50.000    24385176.840    95692605.281          50.000  
E26  26021184.120   136742187.363          50.000    26021190.880   102112658.359          50.000  
> 2020  8 13 21 43 39.0000000  0 15       0.000000000000
G10  21107564.360   110920948.492          50.000    21107564.320    82830570.344          50.000  
G15  22704283.180   119311622.246          50.000                                                  
G16  23722949.020   124664922.727          50.000                                                  
G20  20250133.220   106415167.254          50.000                                                  
G21  22599754.860   118762526.379          50.000                                                  
G26  24489523.360   128693189.313          50.000    24489527.500    96102029.594          50.000  
G27  22266214.440   117009694.645          50.000    22266215.780    87377361.516          50.000  
G29  24351514.240   127968021.766          50.000                                                  
G32  23943370.220   125823177.141          50.000    23943372.860    93958846.379          50.000  
E 3  25586867.180   134459865.746          50.000    25586872.080   100408333.750          50.000  
E 7  26016468.260   136717412.652          50.000    26016475.020   102094158.598          50.000  
E 8  21677353.140   113915260.586          50.000    21677356.020    85066588.141          50.000  
E13  23471182.340   123341877.570          50.000    23471186.020    92105941.516          50.000  
E15  24385423.460   128146220.574          50.000    24385429.160    95693595.434          50.000  
E26  26020738.940   136739847.844          50.000    26020745.700   102110911.316          50.000  
> 2020  8 13 21 43 40.0000000  0 15       0.000000000000
G10  21107347.620   110919809.520          50.000    21107347.580    82829719.816          50.000  
G15  22704776.380   119314213.980          50.000                                                  
G16  23723261.800   124666566.395          50.000                                                  
G20  20250242.380   106415740.914          50.000                                                  
G21  22599390.640   118760612.363          50.000                                                  
G26  24490014.720   128695771.375          50.000    24490018.860    96103957.762          50.000  
G27  22265771.480   117007366.898          50.000    22265772.820    87375623.266          50.000  
G29  24352230.580   127971786.098          50.000                                                  
G32  23942678.540   125819542.426          50.000    23942681.200    93956132.145          50.000  
E 3  25587235.080   134461799.086          50.000    25587239.980   100409777.477          50.000  
E 7  26015932.780   136714598.715          50.000    26015939.560   102092057.281          50.000  
E 8  21677216.580   113914543.000          50.000    21677219.460    85066052.281          50.000  
E13  23471012.100   123340982.840          50.000    23471015.760    92105273.371          50.000  
E15  24385675.840   128147546.758          50.000    24385681.520    95694585.766          50.000  
E26  26020293.780   136737508.488          50.000    26020300.520   102109164.398          50.000  
