     3.03           OBSERVATION DATA    M: Mixed            RINEX VERSION / TYPE
sbp2rinex v2.2 (RTKL                    20210504 171529 UTC PGM / RUN BY / DATE 
log: 202101042230-202101042310.sbp                          COMMENT             
format: Swift Navigation SBP, option: CONVBASE,EPHALL,OBSALLCOMMENT             
                                                            MARKER NAME         
                                                            MARKER NUMBER       
                                                            MARKER TYPE         
                                                            OBSERVER / AGENCY   
                                                            REC # / TYPE / VERS 
                                                            ANT # / TYPE        
 -2711592.8247 -4352796.9593  3779529.5308                  APPROX POSITION XYZ 
        0.0000        0.0000        0.0000                  ANTENNA: DELTA H/E/N
G    4 C1C L1C C5I L5I                                      SYS / # / OBS TYPES 
E    4 C1B L1B C5I L5I                                      SYS / # / OBS TYPES 
  2021     1     4    22    30   18.0000000     GPS         TIME OF FIRST OBS   
  2021     1     4    23    20   16.0000000     GPS         TIME OF LAST OBS    
G                                                           SYS / PHASE SHIFT   
E                                                           SYS / PHASE SHIFT   
  0                                                         GLONASS SLOT / FRQ #
 C1C    0.000 C1P    0.000 C2C    0.000 C2P    0.000        GLONASS COD/PHS/BIS 
                                                            END OF HEADER       
> 2021  1  4 22 30 18.0000000  0 15       0.000000000000
G 4  23467233.240   123321106.949    23467237.580    92090440.910  
G 5  23811574.980   125130651.316                                  
G 7  20857108.340   109604846.043                                  
G 8  22024820.500   115741147.891    22024821.400    86430075.773  
G 9  20869119.900   109667920.602    20869120.880    81894878.613  
G14  22188754.100   116602662.047                                  
G27  23373830.840   122830255.215    23373831.700    91723892.074  
G28  22443303.400   117940335.668                                  
G30  21585920.360   113434724.828    21585921.580    84707750.117  
E 7  25320687.860   133061066.652    25320694.500    99363772.727  
E18  28641203.220   150510511.8012                                 
E19  25452790.100   133755291.750    25452794.640    99882189.344  
E21  25122722.440   132020764.656    25122728.540    98586926.063  
E27  23352749.740   122719505.371    23352755.040    91641183.086  
E30  25439165.840   133683686.008    25439171.720    99828717.297  
> 2021  1  4 22 30 19.0000000  0 15       0.000000000000
G 4  23467849.480   123324345.309    23467853.820    92092859.164  
G 5  23811383.120   125129643.078                                  
G 7  20857072.860   109604659.590                                  
G 8  22024687.240   115740447.570    22024688.140    86429552.816  
G 9  20869463.480   109669726.109    20869464.460    81896226.883  
G14  22188216.520   116599837.117                                  
G27  23374112.860   122831737.133    23374113.720    91724998.707  
G28  22442766.260   117937513.031                                  
G30  21585624.140   113433168.133    21585625.360    84706587.652  
E 7  25321152.700   133063509.434    25321159.340    99365596.883  
E18  28640308.080   150505807.7932                                 
E19  25452379.560   133753134.285    25452384.100    99880578.250  
E21  25122397.900   132019059.254    25122404.000    98585652.547  
E27  23352868.580   122720129.863    23352873.880    91641649.426  
E30  25439627.700   133686113.113    25439633.600    99830529.746  
> 2021  1  4 22 30 20.0000000  0 15       0.000000000000
G 4  23468465.760   123327583.910    23468470.120    92095277.605  
G 5  23811191.380   125128635.445                                  
G 7  20857037.420   109604473.324                                  
G 8  22024554.100   115739747.895    22024555.000    86429030.332  
G 9  20869807.160   109671532.133    20869808.140    81897575.539  
G14  22187679.020   116597012.547                                  
G27  23374394.980   122833219.688    23374395.840    91726105.813  
G28  22442229.200   117934690.738                                  
G30  21585327.940   113431611.605    21585329.160    84705425.316  
E 7  25321617.600   133065952.484    25321624.240    99367421.234  
E18  28639412.880   150501103.4652                                 
E19  25451969.040   133750977.055    25451973.580    99878967.332  
E21  25122073.420   132017354.098    25122079.520    98584379.219  
E27  23352987.480   122720754.617    23352992.760    91642115.965  
E30  25440089.560   133688540.242    25440095.460    99832342.211  
> 2021  1  4 22 30 21.0000000  0 15       0.000000000000
G 4  23469082.100   123330822.773    23469086.460    92097696.238  
G 5  23810999.740   125127628.414                                  
G 7  20857002.020   109604287.246                                  
G 8  22024421.080   115739048.875    22024421.980    86428508.344  
G 9  20870150.920   109673338.652    20870151.920    81898924.570  
G14  22187141.600   116594188.320                                  
G27  23374677.220   122834702.875    23374678.080    91727213.391  
G28  22441692.200   117931868.785                                  
G30  21585031.780   113430055.258    21585033.000    84704263.113  
E 7  25322082.540   133068395.781    25322089.180    99369245.773  
E18  28638517.620   150496398.7852                                 
E19  25451558.580   133748820.066    25451563.120    99877356.594  
E21  25121749.000   132015649.191    25121755.100    98583106.074  
E27  23353106.420   122721379.645    23353111.700    91642582.703  
E30  25440551.440   133690967.406    25440557.340    99834154.703  
> 2021  1  4 22 30 22.0000000  0 15       0.000000000000
G 4  23469698.480   123334061.875    23469702.840    92100115.051  
G 5  23810808.240   125126622.000                                  
G 7  20856966.660   109604101.379                                  
G 8  22024288.180   115738350.504    22024289.080    86427986.836  
G 9  20870494.800   109675145.680    20870495.780    81900273.977  
G14  22186604.240   116591364.449                                  
G27  23374959.580   122836186.688    23374960.440    91728321.434  
G28  22441155.280   117929047.203                                  
G30  21584735.660   113428499.082    21584736.880    84703101.039  
E 7  25322547.540   133070839.340    25322554.180    99371070.508  
E18  28637622.280   150491693.7732                                 
E19  25451148.160   133746663.316    25451152.720    99875746.035  
E21  25121424.600   132013944.559    25121430.720    98581833.137  
E27  23353225.400   122722004.938    23353230.680    91643049.641  
E30  25441013.320   133693394.586    25441019.220    99835967.207  
> 2021  1  4 22 30 23.0000000  0 15       0.000000000000
G 4  23470314.920   123337301.234    23470319.260    92102534.055  
G 5  23810616.840   125125616.180                                  
G 7  20856931.320   109603915.719                                  
G 8  22024155.420   115737652.785    22024156.320    86427465.816  
G 9  20870838.760   109676953.215    20870839.740    81901623.762  
G14  22186066.940   116588540.938                                  
G27  23375242.060   122837671.133    23375242.920    91729429.953  
G28  22440618.420   117926225.965                                  
G30  21584439.560   113426943.086    21584440.780    84701939.098  
E 7  25323012.580   133073283.148    25323019.220    99372895.430  
E18  28636726.880   150486988.4302                                 
E19  25450737.800   133744506.816    25450742.340    99874135.660  
E21  25121100.280   132012240.168    25121106.380    98580560.375  
E27  23353344.440   122722630.488    23353349.720    91643516.773  
E30  25441475.200   133695821.793    25441481.100    99837779.727  
> 2021  1  4 22 30 24.0000000  0 15       0.000000000000
G 4  23470931.400   123340540.832    23470935.740    92104953.234  
G 5  23810425.540   125124610.957                                  
G 7  20856896.040   109603730.254                                  
G 8  22024022.760   115736955.691    22024023.660    86426945.258  
G 9  20871182.820   109678761.270    20871183.800    81902973.938  
G14  22185529.720   116585717.777                                  
G27  23375524.660   122839156.203    23375525.520    91730538.934  
G28  22440081.620   117923405.113                                  
G30  21584143.500   113425387.262    21584144.720    84700777.285  
E 7  25323477.680   133075727.223    25323484.320    99374720.551  
E18  28635831.420   150482282.7462                                 
E19  25450327.480   133742350.535    25450332.020    99872525.453  
E21  25120775.980   132010536.043    25120782.100    98579287.816  
E27  23353463.520   122723256.309    23353468.820    91643984.109  
E30  25441937.080   133698249.023    25441942.980    99839592.273  
> 2021  1  4 22 30 25.0000000  0 15       0.000000000000
G 4  23471547.920   123343780.695    23471552.280    92107372.613  
G 5  23810234.380   125123606.336                                  
G 7  20856860.780   109603544.977                                  
G 8  22023890.220   115736259.242    22023891.120    86426425.188  
G 9  20871526.980   109680569.836    20871527.960    81904324.488  
G14  22184992.560   116582894.980                                  
G27  23375807.380   122840641.906    23375808.240    91731648.391  
G28  22439544.900   117920584.590                                  
G30  21583847.460   113423831.617    21583848.680    84699615.602  
E 7  25323942.820   133078171.543    25323949.460    99376545.852  
E18  28634935.880   150477576.7032                                 
E19  25449917.200   133740194.516    25449921.740    99870915.438  
E21  25120451.760   132008832.160    25120457.860    98578015.434  
E27  23353582.660   122723882.398    23353587.960    91644451.641  
E30  25442398.980   133700676.281    25442404.880    99841404.832  
> 2021  1  4 22 30 26.0000000  0 15       0.000000000000
G 4  23472164.500   123347020.797    23472168.840    92109792.168  
G 5  23810043.320   125122602.316                                  
G 7  20856825.560   109603359.895                                  
G 8  22023757.820   115735563.434    22023758.720    86425905.590  
G 9  20871871.240   109682378.906    20871872.220    81905675.418  
G14  22184455.460   116580072.539                                  
G27  23376090.220   122842128.238    23376091.080    91732758.313  
G28  22439008.240   117917764.418                                  
G30  21583551.480   113422276.145    21583552.680    84698454.047  
E 7  25324408.000   133080616.121    25324414.640    99378371.348  
E18  28634040.300   150472870.3362                                 
E19  25449506.960   133738038.727    25449511.500    99869305.594  
E21  25120127.560   132007128.543    25120133.660    98576743.254  
E27  23353701.860   122724508.750    23353707.140    91644919.371  
E30  25442860.880   133703103.559    25442866.780    99843217.410  
> 2021  1  4 22 30 27.0000000  0 15       0.000000000000
G 4  23472781.120   123350261.160    23472785.460    92112211.918  
G 5  23809852.380   125121598.898                                  
G 7  20856790.380   109603175.008                                  
G 8  22023625.540   115734868.270    22023626.440    86425386.469  
G 9  20872215.600   109684188.500    20872216.580    81907026.734  
G14  22183918.440   116577250.461                                  
G27  23376373.180   122843615.203    23376374.040    91733868.707  
G28  22438471.640   117914944.605                                  
G30  21583255.520   113420720.859    21583256.720    84697292.633  
E 7  25324873.240   133083060.961    25324879.880    99380197.039  
E18  28633144.640   150468163.6292                                 
E19  25449096.780   133735883.188    25449101.320    99867695.941  
E21  25119803.420   132005425.195    25119809.520    98575471.273  
E27  23353821.100   122725135.371    23353826.380    91645387.301  
E30  25443322.780   133705530.875    25443328.680    99845030.012  
> 2021  1  4 22 30 28.0000000  0 15       0.000000000000
G 4  23473397.780   123353501.773    23473402.140    92114631.855  
G 5  23809661.540   125120596.074                                  
G 7  20856755.220   109602990.301                                  
G 8  22023493.380   115734173.750    22023494.280    86424867.836  
G 9  20872560.040   109685998.586    20872561.020    81908378.422  
G14  22183381.480   116574428.730                                  
G27  23376656.260   122845102.801    23376657.120    91734979.574  
G28  22437935.120   117912125.137                                  
G30  21582959.580   113419165.734    21582960.800    84696131.336  
E 7  25325338.520   133085506.059    25325345.160    99382022.922  
E18  28632248.920   150463456.5782                                 
E19  25448686.640   133733727.875    25448691.180    99866086.453  
E21  25119479.340   132003722.074    25119485.440    98574199.461  
E27  23353940.400   122725762.254    23353945.680    91645855.430  
E30  25443784.680   133707958.195    25443790.580    99846842.621  
> 2021  1  4 22 30 29.0000000  0 15       0.000000000000
G 4  23474014.500   123356742.629    23474018.860    92117051.973  
G 5  23809470.820   125119593.855                                  
G 7  20856720.120   109602805.801                                  
G 8  22023361.320   115733479.855    22023362.220    86424349.668  
G 9  20872904.580   109687809.191    20872905.580    81909730.500  
G14  22182844.580   116571607.363                                  
G27  23376939.460   122846591.031    23376940.320    91736090.914  
G28  22437398.660   117909306.027                                  
G30  21582663.680   113417610.797    21582664.900    84694970.184  
E 7  25325803.860   133087951.406    25325810.500    99383848.996  
E18  28631353.120   150458749.1952                                 
E19  25448276.540   133731572.805    25448281.080    99864477.148  
E21  25119155.300   132002019.230    25119161.400    98572927.859  
E27  23354059.740   122726389.402    23354065.020    91646323.754  
E30  25444246.600   133710385.547    25444252.500    99848655.254  
> 2021  1  4 22 30 30.0000000  0 15       0.000000000000
G 4  23474631.260   123359983.730    23474635.620    92119472.273  
G 5  23809280.220   125118592.242                                  
G 7  20856685.040   109602621.480                                  
G 8  22023229.400   115732786.605    22023230.300    86423831.980  
G 9  20873249.240   109689620.313    20873250.220    81911082.957  
G14  22182307.760   116568786.348                                  
G27  23377222.780   122848079.887    23377223.640    91737202.723  
G28  22436862.260   117906487.270                                  
G30  21582367.820   113416056.023    21582369.040    84693809.152  
E 7  25326269.240   133090397.016    25326275.880    99385675.262  
E18  28630457.280   150454041.4772                                 
E19  25447866.500   133729417.984    25447871.040    99862868.031  
E21  25118831.300   132000316.613    25118837.400    98571656.426  
E27  23354179.140   122727016.816    23354184.420    91646792.277  
E30  25444708.500   133712812.922    25444714.400    99850467.902  
> 2021  1  4 22 30 31.0000000  0 15       0.000000000000
G 4  23475248.080   123363225.086    23475252.420    92121892.766  
G 5  23809089.740   125117591.230                                  
G 7  20856650.000   109602437.363                                  
G 8  22023097.600   115732093.992    22023098.500    86423314.770  
G 9  20873593.980   109691431.938    20873594.960    81912435.793  
G14  22181771.020   116565965.691                                  
G27  23377506.220   122849569.375    23377507.080    91738315.000  
G28  22436325.940   117903668.891                                  
G30  21582072.000   113414501.426    21582073.200    84692648.250  
E 7  25326734.680   133092842.879    25326741.320    99387501.715  
E18  28629561.360   150449333.4142                                 
E19  25447456.480   133727263.398    25447461.020    99861259.086  
E21  25118507.360   131998614.293    25118513.460    98570385.211  
E27  23354298.580   122727644.496    23354303.860    91647261.000  
E30  25445170.440   133715240.328    25445176.320    99852280.574  
> 2021  1  4 22 30 32.0000000  0 15       0.000000000000
G 4  23475864.940   123366466.691    23475869.280    92124313.441  
G 5  23808899.360   125116590.816                                  
G 7  20856615.000   109602253.438                                  
G 8  22022965.940   115731402.023    22022966.840    86422798.039  
G 9  20873938.820   109693244.070    20873939.800    81913789.012  
G14  22181234.320   116563145.402                                  
G27  23377789.780   122851059.492    23377790.640    91739427.750  
G28  22435789.680   117900850.824                                  
G30  21581776.200   113412947.008    21581777.400    84691487.484  
E 7  25327200.160   133095289.008    25327206.800    99389328.371  
E18  28628665.380   150444625.0082                                 
E19  25447046.520   133725109.063    25447051.080    99859650.328  
E21  25118183.460   131996912.219    25118189.560    98569114.184  
E27  23354418.060   122728272.441    23354423.360    91647729.918  
E30  25445632.360   133717667.754    25445638.260    99854093.262  
> 2021  1  4 22 30 33.0000000  0 15       0.000000000000
G 4  23476481.840   123369708.547    23476486.180    92126734.305  
G 5  23808709.100   125115591.012                                  
G 7  20856580.040   109602069.691                                  
G 8  22022834.380   115730710.684    22022835.280    86422281.781  
G 9  20874283.740   109695056.719    20874284.740    81915142.609  
G14  22180697.700   116560325.453                                  
G27  23378073.460   122852550.238    23378074.320    91740540.969  
G28  22435253.480   117898033.121                                  
G30  21581480.440   113411392.758    21581481.640    84690326.844  
E 7  25327665.700   133097735.395    25327672.340    99391155.215  
E18  28627769.340   150439916.2732                                 
E19  25446636.620   133722954.977    25446641.160    99858041.758  
E21  25117859.620   131995210.391    25117865.720    98567843.340  
E27  23354537.620   122728900.652    23354542.900    91648199.035  
E30  25446094.280   133720095.207    25446100.180    99855905.969  
> 2021  1  4 22 30 34.0000000  0 15       0.000000000000
G 4  23477098.780   123372950.641    23477103.140    92129155.352  
G 5  23808518.960   125114591.801                                  
G 7  20856545.120   109601886.145                                  
G 8  22022702.940   115730019.977    22022703.840    86421765.992  
G 9  20874628.780   109696869.863    20874629.760    81916496.578  
G14  22180161.160   116557505.867                                  
G27  23378357.260   122854041.621    23378358.120    91741654.664  
G28  22434717.360   117895215.770                                  
G30  21581184.700   113409838.695    21581185.920    84689166.344  
E 7  25328131.280   133100182.023    25328137.920    99392982.242  
E18  28626873.240   150435207.2112                                 
E19  25446226.760   133720801.105    25446231.300    99856433.352  
E21  25117535.820   131993508.816    25117541.920    98566572.684  
E27  23354657.200   122729529.125    23354662.500    91648668.352  
E30  25446556.220   133722522.688    25446562.120    99857718.695  
> 2021  1  4 22 30 35.0000000  0 15       0.000000000000
G 4  23477715.780   123376192.988    23477720.140    92131576.582  
G 5  23808328.940   125113593.199                                  
G 7  20856510.220   109601702.789                                  
G 8  22022571.620   115729329.914    22022572.520    86421250.688  
G 9  20874973.900   109698683.520    20874974.900    81917850.934  
G14  22179624.680   116554686.633                                  
G27  23378641.180   122855533.625    23378642.040    91742768.820  
G28  22434181.300   117892398.789                                  
G30  21580889.000   113408284.801    21580890.220    84688005.965  
E 7  25328596.900   133102628.914    25328603.540    99394809.465  
E18  28625977.060   150430497.7852                                 
E19  25445816.940   133718647.484    25445821.480    99854825.125  
E21  25117212.060   131991807.531    25117218.180    98565302.242  
E27  23354776.860   122730157.867    23354782.140    91649137.867  
E30  25447018.160   133724950.188    25447024.060    99859531.441  
> 2021  1  4 22 30 36.0000000  0 15       0.000000000000
G 4  23478332.840   123379435.598    23478337.180    92133998.008  
G 5  23808139.020   125112595.188                                  
G 7  20856475.360   109601519.633                                  
G 8  22022440.420   115728640.488    22022441.320    86420735.855  
G 9  20875319.140   109700497.703    20875320.120    81919205.680  
G14  22179088.260   116551867.766                                  
G27  23378925.240   122857026.270    23378926.080    91743883.457  
G28  22433645.320   117889582.164                                  
G30  21580593.340   113406731.098    21580594.560    84686845.734  
E 7  25329062.580   133105076.070    25329069.220    99396636.887  
E18  28625080.820   150425788.0352                                 
E19  25445407.160   133716494.109    25445411.700    99853217.086  
E21  25116888.360   131990106.469    25116894.460    98564031.969  
E27  23354896.560   122730786.879    23354901.840    91649607.582  
E30  25447480.100   133727377.711    25447486.000    99861344.199  
> 2021  1  4 22 30 38.0000000  0 15       0.000000000000
G 4  23479567.080   123385921.547    23479571.420    92138841.406  
G 5  23807759.540   125110600.977                                  
G 7  20856405.760   109601153.879                                  
G 8  22022178.400   115727263.574    22022179.300    86419707.641  
G 9  20876009.880   109704127.570    20876010.860    81921916.297  
G14  22178015.640   116546231.090                                  
G27  23379493.660   122860013.426    23379494.520    91746114.121  
G28  22432573.540   117883949.961                                  
G30  21580002.120   113403624.180    21580003.340    84684525.633  
E 7  25329994.080   133109971.137    25330000.720    99400292.289  
E18  28623288.160   150416367.5232                                 
E19  25444587.740   133712188.070    25444592.280    99850001.539  
E21  25116241.120   131986705.121    25116247.220    98561492.000  
E27  23355136.100   122732045.691    23355141.380    91650547.605  
E30  25448404.000   133732232.828    25448409.900    99864969.773  
> 2021  1  4 22 30 39.0000000  0 15       0.000000000000
G 4  23480184.260   123389164.891    23480188.620    92141263.387  
G 5  23807569.960   125109604.773                                  
G 7  20856371.020   109600971.289                                  
G 8  22022047.580   115726576.094    22022048.480    86419194.262  
G 9  20876355.400   109705943.270    20876356.380    81923272.172  
G14  22177479.420   116543413.285                                  
G27  23379778.060   122861507.953    23379778.920    91747230.168  
G28  22432037.760   117881134.387                                  
G30  21579706.560   113402070.980    21579707.760    84683365.777  
E 7  25330459.900   133112419.051    25330466.560    99402120.277  
E18  28622391.740   150411656.7582                                 
E19  25444178.100   133710035.414    25444182.640    99848394.035  
E21  25115917.560   131985004.840    25115923.660    98560222.313  
E27  23355255.940   122732675.488    23355261.220    91651017.906  
E30  25448865.960   133734660.422    25448871.860    99866782.586  
> 2021  1  4 22 30 40.0000000  0 15       0.000000000000
G 4  23480801.500   123392408.488    23480805.860    92143685.551  
G 5  23807380.500   125108609.164                                  
G 7  20856336.320   109600788.891                                  
G 8  22021916.880   115725889.273    22021917.780    86418681.379  
G 9  20876701.000   109707759.484    20876702.000    81924628.438  
G14  22176943.280   116540595.840                                  
G27  23380062.580   122863003.117    23380063.440    91748346.684  
G28  22431502.040   117878319.168                                  
G30  21579411.020   113400517.961    21579412.240    84682206.055  
E 7  25330925.780   133114867.227    25330932.420    99403948.461  
E18  28621495.240   150406945.6682                                 
E19  25443768.520   133707883.012    25443773.060    99846786.723  
E21  25115594.060   131983304.820    25115600.160    98558952.816  
E27  23355375.840   122733305.563    23355381.120    91651488.418  
E30  25449327.920   133737088.055    25449333.820    99868595.426  
> 2021  1  4 22 30 41.0000000  0 15       0.000000000000
G 4  23481418.780   123395652.332    23481423.140    92146107.902  
G 5  23807191.160   125107614.160                                  
G 7  20856301.640   109600606.695                                  
G 8  22021786.320   115725203.098    22021787.220    86418168.977  
G 9  20877046.720   109709576.188    20877047.700    81925985.066  
G14  22176407.200   116537778.746                                  
G27  23380347.220   122864498.902    23380348.080    91749463.664  
G28  22430966.400   117875504.320                                  
G30  21579115.520   113398965.113    21579116.740    84681046.461  
E 7  25331391.700   133117315.660    25331398.340    99405776.836  
E18  28620598.680   150402234.2462                                 
E19  25443358.980   133705730.832    25443363.520    99845179.574  
E21  25115270.600   131981605.043    25115276.700    98557683.504  
E27  23355495.780   122733935.883    23355501.080    91651959.113  
E30  25449789.880   133739515.695    25449795.780    99870408.273  
> 2021  1  4 22 30 42.0000000  0 15       0.000000000000
G 4  23482036.120   123398896.418    23482040.460    92148530.434  
G 5  23807001.940   125106619.758                                  
G 7  20856267.000   109600424.695                                  
G 8  22021655.860   115724517.547    22021656.760    86417657.039  
G 9  20877392.520   109711393.430    20877393.500    81927342.098  
G14  22175871.200   116534962.023                                  
G27  23380631.980   122865995.316    23380632.840    91750581.117  
G28  22430430.820   117872689.828                                  
G30  21578820.060   113397412.445    21578821.280    84679887.000  
E 7  25331857.680   133119764.348    25331864.320    99407605.398  
E18  28619702.060   150397522.4572                                 
E19  25442949.480   133703578.914    25442954.020    99843572.625  
E21  25114947.200   131979905.527    25114953.300    98556414.383  
E27  23355615.780   122734566.488    23355621.080    91652430.016  
E30  25450251.860   133741943.363    25450257.760    99872221.141  
> 2021  1  4 22 30 43.0000000  0 15       0.000000000000
G 4  23482653.500   123402140.766    23482657.840    92150953.156  
G 5  23806812.820   125105625.938                                  
G 7  20856232.400   109600242.879                                  
G 8  22021525.520   115723832.645    22021526.420    86417145.586  
G 9  20877738.420   109713211.168    20877739.420    81928699.496  
G14  22175335.260   116532145.648                                  
G27  23380916.860   122867492.363    23380917.720    91751699.043  
G28  22429895.300   117869875.664                                  
G30  21578524.640   113395859.957    21578525.860    84678727.676  
E 7  25332323.700   133122213.293    25332330.340    99409434.156  
E18  28618805.380   150392810.3592                                 
E19  25442540.020   133701427.219    25442544.560    99841965.840  
E21  25114623.840   131978206.270    25114629.940    98555145.457  
E27  23355735.840   122735197.352    23355741.120    91652901.113  
E30  25450713.840   133744371.055    25450719.740    99874034.027  
> 2021  1  4 22 30 44.0000000  0 15       0.000000000000
G 4  23483270.920   123405385.363    23483275.280    92153376.066  
G 5  23806623.820   125104632.727                                  
G 7  20856197.840   109600061.254                                  
G 8  22021395.320   115723148.402    22021396.220    86416634.625  
G 9  20878084.420   109715029.414    20878085.420    81930057.281  
G14  22174799.400   116529329.625                                  
G27  23381201.860   122868990.035    23381202.720    91752817.434  
G28  22429359.840   117867061.859                                  
G30  21578229.240   113394307.633    21578230.460    84677568.473  
E 7  25332789.760   133124662.488    25332796.400    99411263.098  
E18  28617908.620   150388097.9022                                 
E19  25442130.620   133699275.773    25442135.160    99840359.242  
E21  25114300.520   131976507.270    25114306.620    98553876.723  
E27  23355855.940   122735828.477    23355861.220    91653372.410  
E30  25451175.820   133746798.773    25451181.720    99875846.934  
> 2021  1  4 22 30 45.0000000  0 15       0.000000000000
G 4  23483888.400   123408630.191    23483892.740    92155799.152  
G 5  23806434.920   125103640.121                                  
G 7  20856163.320   109599879.820                                  
G 8  22021265.220   115722464.777    22021266.120    86416124.125  
G 9  20878430.520   109716848.176    20878431.520    81931415.445  
G14  22174263.600   116526513.973                                  
G27  23381486.980   122870488.344    23381487.840    91753936.297  
G28  22428824.460   117864248.406                                  
G30  21577933.880   113392755.496    21577935.100    84676409.410  
E 7  25333255.880   133127111.941    25333262.520    99413092.234  
E18  28617011.820   150383385.1212                                 
E19  25441721.260   133697124.570    25441725.800    99838752.824  
E21  25113977.260   131974808.520    25113983.360    98552608.180  
E27  23355976.080   122736459.867    23355981.380    91653843.902  
E30  25451637.800   133749226.520    25451643.700    99877659.859  
> 2021  1  4 22 30 46.0000000  0 15       0.000000000000
G 4  23484505.920   123411875.277    23484510.260    92158222.430  
G 5  23806246.160   125102648.109                                  
G 7  20856128.840   109599698.574                                  
G 8  22021135.260   115721781.820    22021136.160    86415614.125  
G 9  20878776.720   109718667.457    20878777.720    81932773.996  
G14  22173727.860   116523698.660                                  
G27  23381772.220   122871987.273    23381773.080    91755055.625  
G28  22428289.140   117861435.305                                  
G30  21577638.540   113391203.531    21577639.760    84675250.477  
E 7  25333722.040   133129561.660    25333728.680    99414921.570  
E18  28616114.940   150378671.9842                                 
E19  25441311.940   133694973.609    25441316.480    99837146.586  
E21  25113654.060   131973110.031    25113660.160    98551339.828  
E27  23356096.280   122737091.531    23356101.580    91654315.598  
E30  25452099.780   133751654.293    25452105.680    99879472.809  
> 2021  1  4 22 30 47.0000000  0 15       0.000000000000
G 4  23485123.480   123415120.613    23485127.840    92160645.895  
G 5  23806057.500   125101656.703                                  
G 7  20856094.380   109599517.535                                  
G 8  22021005.420   115721099.504    22021006.320    86415104.602  
G 9  20879123.020   109720487.242    20879124.000    81934132.930  
G14  22173192.180   116520883.723                                  
G27  23382057.580   122873486.840    23382058.440    91756175.434  
G28  22427753.900   117858622.578                                  
G30  21577343.260   113389651.738    21577344.460    84674091.668  
E 7  25334188.260   133132011.625    25334194.900    99416751.090  
E18  28615218.000   150373958.5312                                 
E19  25440902.680   133692822.887    25440907.220    99835540.527  
E21  25113330.880   131971411.793    25113336.980    98550071.664  
E27  23356216.540   122737723.453    23356221.820    91654787.492  
E30  25452561.780   133754082.082    25452567.680    99881285.766  
> 2021  1  4 22 30 48.0000000  0 15       0.000000000000
G 4  23485741.100   123418366.195    23485745.460    92163069.543  
G 5  23805868.960   125100665.898                                  
G 7  20856059.960   109599336.672                                  
G 8  22020875.700   115720417.813    22020876.600    86414595.551  
G 9  20879469.400   109722307.523    20879470.400    81935492.230  
G14  22172656.580   116518069.129                                  
G27  23382343.060   122874987.027    23382343.920    91757295.703  
G28  22427218.720   117855810.191                                  
G30  21577047.980   113388100.113    21577049.200    84672932.988  
E 7  25334654.520   133134461.855    25334661.160    99418580.805  
E18  28614320.980   150369244.7342                                 
E19  25440493.460   133690672.418    25440498.000    99833934.656  
E21  25113007.780   131969713.820    25113013.880    98548803.695  
E27  23356336.840   122738355.641    23356342.120    91655259.578  
E30  25453023.780   133756509.898    25453029.680    99883098.746  
> 2021  1  4 22 30 49.0000000  0 15       0.000000000000
G 4  23486358.760   123421612.031    23486363.120    92165493.379  
G 5  23805680.520   125099675.691                                  
G 7  20856025.580   109599156.012                                  
G 8  22020746.100   115719736.770    22020747.000    86414086.977  
G 9  20879815.900   109724128.305    20879816.880    81936851.902  
G14  22172121.060   116515254.902                                  
G27  23382628.660   122876487.855    23382629.520    91758416.449  
G28  22426683.600   117852998.160                                  
G30  21576752.760   113386548.672    21576753.980    84671774.445  
E 7  25335120.840   133136912.332    25335127.480    99420410.707  
E18  28613423.920   150364530.5942                                 
E19  25440084.280   133688522.172    25440088.820    99832328.953  
E21  25112684.720   131968016.113    25112690.800    98547535.930  
E27  23356457.200   122738988.094    23356462.480    91655731.863  
E30  25453485.780   133758937.738    25453491.680    99884911.742  
> 2021  1  4 22 30 50.0000000  0 15       0.000000000000
G 4  23486976.460   123424858.109    23486980.820    92167917.395  
G 5  23805492.200   125098686.086                                  
G 7  20855991.240   109598975.543                                  
G 8  22020616.620   115719056.371    22020617.520    86413578.887  
G 9  20880162.480   109725949.613    20880163.460    81938211.969  
G14  22171585.600   116512441.027                                  
G27  23382914.360   122877989.301    23382915.240    91759537.656  
G28  22426148.560   117850186.492                                  
G30  21576457.560   113384997.414    21576458.780    84670616.035  
E 7  25335587.200   133139363.066    25335593.840    99422240.801  
E18  28612526.780   150359816.1172                                 
E19  25439675.140   133686372.168    25439679.680    99830723.434  
E21  25112361.700   131966318.641    25112367.800    98546268.336  
E27  23356577.600   122739620.809    23356582.880    91656204.348  
E30  25453947.800   133761365.602    25453953.700    99886724.754  
> 2021  1  4 22 30 51.0000000  0 15       0.000000000000
G 4  23487594.220   123428104.438    23487598.580    92170341.602  
G 5  23805304.000   125097697.078                                  
G 7  20855956.940   109598795.258                                  
G 8  22020487.280   115718376.621    22020488.180    86413071.281  
G 9  20880509.160   109727771.422    20880510.140    81939572.410  
G14  22171050.200   116509627.504                                  
G27  23383200.200   122879491.383    23383201.060    91760659.340  
G28  22425613.580   117847375.180                                  
G30  21576162.400   113383446.324    21576163.620    84669457.754  
E 7  25336053.600   133141814.055    25336060.240    99424071.082  
E18  28611629.580   150355101.3092                                 
E19  25439266.060   133684222.422    25439270.600    99829118.105  
E21  25112038.720   131964621.434    25112044.820    98545000.941  
E27  23356698.040   122740253.793    23356703.340    91656677.027  
E30  25454409.800   133763793.488    25454415.700    99888537.785  
> 2021  1  4 22 30 52.0000000  0 15       0.000000000000
G 4  23488212.020   123431351.004    23488216.380    92172765.984  
G 5  23805115.920   125096708.676                                  
G 7  20855922.660   109598615.172                                  
G 8  22020358.040   115717697.500    22020358.940    86412564.148  
G 9  20880855.940   109729593.750    20880856.920    81940933.238  
G14  22170514.880   116506814.352                                  
G27  23383486.160   122880994.086    23383487.020    91761781.492  
G28  22425078.680   117844564.199                                  
G30  21575867.280   113381895.410    21575868.480    84668299.605  
E 7  25336520.060   133144265.309    25336526.700    99425901.563  
E18  28610732.320   150350386.1722                                 
E19  25438857.020   133682072.914    25438861.560    99827512.949  
E21  25111715.800   131962924.480    25111721.900    98543733.734  
E27  23356818.540   122740887.031    23356823.840    91657149.898  
E30  25454871.820   133766221.391    25454877.720    99890350.828  
> 2021  1  4 22 30 53.0000000  0 15       0.000000000000
G 4  23488829.880   123434597.828    23488834.240    92175190.559  
G 5  23804927.940   125095720.871                                  
G 7  20855888.440   109598435.277                                  
G 8  22020228.940   115717019.047    22020229.840    86412057.508  
G 9  20881202.800   109731416.570    20881203.800    81942294.434  
G14  22169979.620   116504001.551                                  
G27  23383772.240   122882497.426    23383773.100    91762904.113  
G28  22424543.840   117841753.598                                  
G30  21575572.180   113380344.668    21575573.380    84667141.582  
E 7  25336986.560   133146716.820    25336993.220    99427732.234  
E18  28609835.000   150345670.6842                                 
E19  25438448.020   133679923.641    25438452.560    99825907.973  
E21  25111392.940   131961227.781    25111399.040    98542466.719  
E27  23356939.100   122741520.543    23356944.380    91657622.977  
E30  25455333.840   133768649.320    25455339.740    99892163.891  
> 2021  1  4 22 30 54.0000000  0 15       0.000000000000
G 4  23489447.780   123437844.891    23489452.140    92177615.313  
G 5  23804740.080   125094733.680                                  
G 7  20855854.240   109598255.578                                  
G 8  22020099.960   115716341.234    22020100.860    86411551.352  
G 9  20881549.780   109733239.918    20881550.760    81943656.027  
G14  22169444.420   116501189.109                                  
G27  23384058.440   122884001.395    23384059.300    91764027.203  
G28  22424009.060   117838943.355                                  
G30  21575277.120   113378794.105    21575278.320    84665983.695  
E 7  25337453.120   133149168.574    25337459.760    99429563.090  
E18  28608937.600   150340954.8712                                 
E19  25438039.080   133677774.625    25438043.620    99824303.191  
E21  25111070.120   131959531.352    25111076.220    98541199.906  
E27  23357059.700   122742154.324    23357065.000    91658096.258  
E30  25455795.860   133771077.273    25455801.760    99893976.973  
> 2021  1  4 22 30 55.0000000  0 15       0.000000000000
G 4  23490065.720   123441092.211    23490070.080    92180040.258  
G 5  23804552.340   125093747.074                                  
G 7  20855820.080   109598076.066                                  
G 8  22019971.100   115715664.055    22019972.000    86411045.664  
G 9  20881896.840   109735063.766    20881897.840    81945017.988  
G14  22168909.300   116498377.023                                  
G27  23384344.740   122885505.984    23384345.620    91765150.762  
G28  22423474.360   117836133.441                                  
G30  21574982.080   113377243.703    21574983.300    84664825.930  
E 7  25337919.720   133151620.586    25337926.360    99431394.137  
E18  28608040.140   150336238.7152                                 
E19  25437630.180   133675625.820    25437634.720    99822698.566  
E21  25110747.340   131957835.168    25110753.440    98539933.277  
E27  23357180.360   122742788.359    23357185.640    91658569.723  
E30  25456257.900   133773505.250    25456263.800    99895790.070  
> 2021  1  4 22 30 56.0000000  0 15       0.000000000000
G 4  23490683.720   123444339.781    23490688.080    92182465.387  
G 5  23804364.720   125092761.074                                  
G 7  20855785.960   109597896.750                                  
G 8  22019842.360   115714987.516    22019843.260    86410540.457  
G 9  20882244.000   109736888.113    20882245.000    81946380.328  
G14  22168374.240   116495565.301                                  
G27  23384631.180   122887011.215    23384632.040    91766274.797  
G28  22422939.720   117833323.898                                  
G30  21574687.080   113375693.488    21574688.300    84663668.301  
E 7  25338386.380   133154072.855    25338393.020    99433225.375  
E18  28607142.620   150331522.2152                                 
E19  25437221.320   133673477.289    25437225.860    99821094.145  
E21  25110424.620   131956139.242    25110430.720    98538666.840  
E27  23357301.060   122743422.664    23357306.360    91659043.391  
E30  25456719.920   133775933.254    25456725.840    99897603.188  
> 2021  1  4 22 30 57.0000000  0 15       0.000000000000
G 4  23491301.760   123447587.602    23491306.120    92184890.707  
G 5  23804177.200   125091775.676                                  
G 7  20855751.860   109597717.617                                  
G 8  22019713.740   115714311.613    22019714.640    86410035.727  
G 9  20882591.260   109738712.977    20882592.260    81947743.051  
G14  22167839.260   116492753.930                                  
G27  23384917.740   122888517.066    23384918.600    91767399.297  
G28  22422405.140   117830514.711                                  
G30  21574392.120   113374143.457    21574393.340    84662510.809  
E 7  25338853.080   133156525.379    25338859.720    99435056.805  
E18  28606245.040   150326805.3872                                 
E19  25436812.520   133671328.996    25436817.060    99819489.898  
E21  25110101.940   131954443.566    25110108.040    98537400.586  
E27  23357421.820   122744057.234    23357427.100    91659517.258  
E30  25457181.960   133778361.285    25457187.880    99899416.328  
> 2021  1  4 22 30 58.0000000  0 15       0.000000000000
G 4  23491919.880   123450835.406    23491924.280    92187315.914  
G 5  23803989.660   125090791.656                                  
G 7  20855717.680   109597539.477                                  
G 8  22019585.240   115713636.324    22019586.140    86409531.480  
G 9  20882938.640   109740538.305    20882939.620    81949106.141  
G14  22167304.200   116489943.672                                  
G27  23385204.420   122890023.559    23385205.260    91768524.328  
G28  22421870.500   117827706.641                                  
G30  21574097.200   113372593.574    21574098.400    84661353.477  
E 7  25339319.840   133158978.055    25339326.520    99436888.277  
E18  28605347.380   150322088.3052                                 
E19  25436403.760   133669180.938    25436408.300    99817885.832  
E21  25109779.320   131952748.156    25109785.420    98536134.527  
E27  23357542.620   122744692.086    23357547.900    91659991.344  
E30  25457644.000   133780789.344    25457649.920    99901229.488  
> 2021  1  4 22 30 59.0000000  0 15       0.000000000000
G 4  23492538.020   123454083.723    23492542.400    92189741.602  
G 5  23803802.360   125089807.465                                  
G 7  20855683.660   109597360.742                                  
G 8  22019456.860   115712961.715    22019457.760    86409027.715  
G 9  20883286.080   109742364.195    20883287.080    81950469.629  
G14  22166769.340   116487133.023                                  
G27  23385491.200   122891530.672    23385492.060    91769649.770  
G28  22421336.060   117824898.168                                  
G30  21573802.300   113371043.887    21573803.500    84660196.242  
E 7  25339786.640   133161431.098    25339793.300    99438720.094  
E18  28604449.680   150317370.8132                                 
E19  25435995.040   133667033.125    25435999.580    99816281.945  
E21  25109456.740   131951053.004    25109462.840    98534868.668  
E27  23357663.480   122745327.188    23357668.760    91660465.605  
E30  25458106.060   133783217.414    25458111.960    99903042.660  
> 2021  1  4 22 31  0.0000000  0 15       0.000000000000
G 4  23493156.200   123457332.281    23493160.580    92192167.477  
G 5  23803615.200   125088823.887                                  
G 7  20855649.680   109597182.188                                  
G 8  22019328.620   115712287.742    22019329.500    86408524.422  
G 9  20883633.640   109744190.605    20883634.620    81951833.504  
G14  22166234.560   116484322.730                                  
G27  23385778.120   122893038.414    23385778.960    91770775.680  
G28  22420801.700   117822090.051                                  
G30  21573507.440   113369494.395    21573508.640    84659039.152  
E 7  25340253.500   133163884.406    25340260.160    99440552.109  
E18  28603551.900   150312652.9882                                 
E19  25435586.360   133664885.574    25435590.900    99814678.258  
E21  25109134.200   131949358.109    25109140.300    98533603.004  
E27  23357784.380   122745962.563    23357789.660    91660940.074  
E30  25458568.100   133785645.523    25458574.020    99904855.855  
> 2021  1  4 22 31  1.0000000  0 15       0.000000000000
G 4  23493774.420   123460581.086    23493778.820    92194593.531  
G 5  23803428.140   125087840.895                                  
G 7  20855615.740   109597003.813                                  
G 8  22019200.480   115711614.406    22019201.360    86408021.609  
G 9  20883981.280   109746017.508    20883982.260    81953197.750  
G14  22165699.840   116481512.793                                  
G27  23386065.140   122894546.785    23386066.000    91771902.063  
G28  22420267.400   117819282.293                                  
G30  21573212.600   113367945.047    21573213.800    84657882.172  
E 7  25340720.380   133166337.957    25340727.060    99442384.305  
E18  28602654.060   150307934.8132                                 
E19  25435177.740   133662738.238    25435182.280    99813074.727  
E21  25108811.720   131947663.457    25108817.820    98532337.516  
E27  23357905.340   122746598.188    23357910.620    91661414.730  
E30  25459030.160   133788073.641    25459036.060    99906669.059  
> 2021  1  4 22 31  3.0000000  0 15       0.000000000000
G 4  23495011.020   123467079.449    23495015.420    92199446.199  
G 5  23803054.360   125085876.734                                  
G 7  20855547.960   109596647.641                                  
G 8  22018944.580   115710269.695    22018945.480    86407017.441  
G 9  20884676.880   109749672.840    20884677.860    81955927.383  
G14  22164630.620   116475893.988                                  
G27  23386639.580   122897565.414    23386640.420    91774156.230  
G28  22419198.980   117813667.801                                  
G30  21572623.040   113364846.898    21572624.240    84655568.621  
E 7  25341654.320   133171245.828    25341660.980    99446049.273  
E18  28600858.180   150298497.4572                                 
E19  25434360.620   133658444.301    25434365.160    99809868.215  
E21  25108166.900   131944274.938    25108173.000    98529807.129  
E27  23358147.400   122747870.242    23358152.680    91662364.641  
E30  25459954.280   133792929.957    25459960.180    99910295.527  
> 2021  1  4 22 31  4.0000000  0 15       0.000000000000
G 4  23495629.380   123470328.992    23495633.780    92201872.809  
G 5  23802867.660   125084895.559                                  
G 7  20855514.120   109596469.844                                  
G 8  22018816.820   115709598.309    22018817.720    86406516.082  
G 9  20885024.800   109751501.273    20885025.800    81957292.770  
G14  22164096.120   116473085.141                                  
G27  23386926.960   122899075.672    23386927.820    91775284.023  
G28  22418664.900   117810861.109                                  
G30  21572328.320   113363298.094    21572329.520    84654412.047  
E 7  25342121.360   133173700.148    25342128.020    99447882.043  
E18  28599960.160   150293778.2732                                 
E19  25433952.140   133656297.703    25433956.680    99808265.238  
E21  25107844.580   131942581.070    25107850.660    98528542.227  
E27  23358268.500   122748506.668    23358273.780    91662839.895  
E30  25460416.360   133795358.152    25460422.260    99912108.789  
> 2021  1  4 22 31  5.0000000  0 15       0.000000000000
G 4  23496247.800   123473578.793    23496252.200    92204299.602  
G 5  23802681.060   125083914.984                                  
G 7  20855480.320   109596292.242                                  
G 8  22018689.180   115708927.566    22018690.080    86406015.199  
G 9  20885372.840   109753330.211    20885373.820    81958658.531  
G14  22163561.680   116470276.633                                  
G27  23387214.480   122900586.551    23387215.320    91776412.273  
G28  22418130.860   117808054.773                                  
G30  21572033.620   113361749.461    21572034.820    84653255.598  
E 7  25342588.440   133176154.715    25342595.120    99449715.000  
E18  28599062.060   150289058.7582                                 
E19  25433543.700   133654151.344    25433548.240    99806662.438  
E21  25107522.280   131940887.453    25107528.380    98527277.512  
E27  23358389.660   122749143.348    23358394.940    91663315.336  
E30  25460878.420   133797786.363    25460884.340    99913922.063  
> 2021  1  4 22 31  6.0000000  0 15       0.000000000000
G 4  23496866.260   123476828.836    23496870.660    92206726.582  
G 5  23802494.560   125082935.016                                  
G 7  20855446.560   109596114.840                                  
G 8  22018561.660   115708257.469    22018562.560    86405514.805  
G 9  20885720.980   109755159.656    20885721.960    81960024.676  
G14  22163027.300   116467468.488                                  
G27  23387502.100   122902098.074    23387502.960    91777541.008  
G28  22417596.900   117805248.793                                  
G30  21571738.940   113360200.992    21571740.160    84652099.277  
E 7  25343055.580   133178609.547    25343062.260    99451548.152  
E18  28598163.900   150284338.9062                                 
E19  25433135.300   133652005.234    25433139.840    99805059.824  
E21  25107200.040   131939194.090    25107206.140    98526012.992  
E27  23358510.860   122749780.297    23358516.140    91663790.980  
E30  25461340.500   133800214.602    25461346.400    99915735.355  
> 2021  1  4 22 31  7.0000000  0 15       0.000000000000
G 4  23497484.780   123480079.129    23497489.160    92209153.750  
G 5  23802308.200   125081955.641                                  
G 7  20855412.840   109595937.633                                  
G 8  22018434.260   115707588.000    22018435.160    86405014.875  
G 9  20886069.200   109756989.609    20886070.180    81961391.199  
G14  22162493.000   116464660.703                                  
G27  23387789.860   122903610.211    23387790.700    91778670.199  
G28  22417063.000   117802443.160                                  
G30  21571444.320   113358652.715    21571445.520    84650943.094  
E 7  25343522.780   133181064.629    25343529.440    99453381.492  
E18  28597265.680   150279618.7272                                 
E19  25432726.960   133649859.359    25432731.500    99803457.383  
E21  25106877.860   131937500.988    25106883.960    98524748.660  
E27  23358632.120   122750417.508    23358637.400    91664266.820  
E30  25461802.580   133802642.863    25461808.480    99917548.668  
> 2021  1  4 22 31  9.0000000  0 15       0.000000000000
G 4  23498721.940   123486580.441    23498726.320    92214008.621  
G 5  23801935.800   125079998.707                                  
G 7  20855345.500   109595583.789                                  
G 8  22018179.840   115706251.012    22018180.740    86404016.477  
G 9  20886765.940   109760651.051    20886766.940    81964125.391  
G14  22161424.580   116459046.195                                  
G27  23388365.720   122906636.367    23388366.560    91780929.992  
G28  22415995.420   117796832.969                                  
G30  21570855.160   113355556.664    21570856.360    84648631.109  
E 7  25344457.280   133185975.563    25344463.960    99457048.746  
E18  28595469.020   150270177.3162                                 
E19  25431910.400   133645568.344    25431914.940    99800253.055  
E21  25106233.620   131934115.551    25106239.720    98522220.574  
E27  23358874.780   122751692.727    23358880.060    91665219.094  
E30  25462726.760   133807499.449    25462732.660    99921175.336  
> 2021  1  4 22 31 10.0000000  0 15       0.000000000000
G 4  23499340.580   123489831.484    23499344.980    92216436.344  
G 5  23801749.780   125079021.152                                  
G 7  20855311.880   109595407.168                                  
G 8  22018052.820   115705583.504    22018053.720    86403518.012  
G 9  20887114.460   109762482.539    20887115.460    81965493.063  
G14  22160890.480   116456239.488                                  
G27  23388653.820   122908150.406    23388654.680    91782060.605  
G28  22415461.720   117794028.410                                  
G30  21570560.620   113354008.914    21570561.820    84647475.324  
E 7  25344924.620   133188431.418    25344931.280    99458882.660  
E18  28594570.620   150265456.1252                                 
E19  25431502.200   133643423.199    25431506.740    99798651.160  
E21  25105911.580   131932423.199    25105917.680    98520956.809  
E27  23358996.180   122752330.727    23359001.480    91665695.523  
E30  25463188.860   133809927.781    25463194.760    99922988.703  
> 2021  1  4 22 31 11.0000000  0 15       0.000000000000
G 4  23499959.280   123493082.766    23499963.680    92218864.250  
G 5  23801563.860   125078044.195                                  
G 7  20855278.300   109595230.746                                  
G 8  22017925.920   115704916.633    22017926.800    86403020.027  
G 9  20887463.080   109764314.535    20887464.060    81966861.109  
G14  22160356.440   116453433.145                                  
G27  23388942.040   122909665.070    23388942.900    91783191.684  
G28  22414928.100   117791224.215                                  
G30  21570266.140   113352461.336    21570267.340    84646319.664  
E 7  25345392.000   133190887.520    25345398.660    99460716.766  
E18  28593672.140   150260734.6132                                 
E19  25431094.040   133641278.313    25431098.580    99797049.461  
E21  25105589.580   131930731.133    25105595.680    98519693.250  
E27  23359117.640   122752969.000    23359122.920    91666172.152  
E30  25463650.960   133812356.137    25463656.860    99924802.082  
> 2021  1  4 22 31 12.0000000  0 15       0.000000000000
G 4  23500578.020   123496334.289    23500582.420    92221292.336  
G 5  23801378.060   125077067.828                                  
G 7  20855244.780   109595054.512                                  
G 8  22017799.140   115704250.402    22017800.020    86402522.520  
G 9  20887811.780   109766147.027    20887812.780    81968229.531  
G14  22159822.480   116450627.152                                  
G27  23389230.400   122911180.348    23389231.240    91784323.227  
G28  22414394.540   117788420.359                                  
G30  21569971.660   113350913.922    21569972.860    84645164.133  
E 7  25345859.420   133193343.875    25345866.100    99462551.055  
E18  28592773.600   150256012.7462                                 
E19  25430685.920   133639133.641    25430690.460    99795447.918  
E21  25105267.640   131929039.305    25105273.740    98518429.871  
E27  23359239.140   122753607.523    23359244.440    91666648.973  
E30  25464113.060   133814784.508    25464118.960    99926615.477  
> 2021  1  4 22 31 13.0000000  0 15       0.000000000000
G 4  23501196.820   123499586.063    23501201.200    92223720.609  
G 5  23801192.380   125076092.070                                  
G 7  20855211.280   109594878.477                                  
G 8  22017672.480   115703584.813    22017673.360    86402025.488  
G 9  20888160.600   109767980.039    20888161.580    81969598.336  
G14  22159288.580   116447821.516                                  
G27  23389518.860   122912696.258    23389519.720    91785455.234  
G28  22413861.040   117785616.867                                  
G30  21569677.240   113349366.699    21569678.440    84644008.738  
E 7  25346326.900   133195800.488    25346333.580    99464385.539  
E18  28591874.980   150251290.5472                                 
E19  25430277.840   133636989.227    25430282.380    99793846.570  
E21  25104945.740   131927347.730    25104951.840    98517166.688  
E27  23359360.700   122754246.320    23359366.000    91667125.996  
E30  25464575.160   133817212.906    25464581.080    99928428.891  
> 2021  1  4 22 31 14.0000000  0 15       0.000000000000
G 4  23501815.640   123502838.078    23501820.040    92226149.059  
G 5  23801006.820   125075116.914                                  
G 7  20855177.800   109594702.629                                  
G 8  22017545.940   115702919.883    22017546.840    86401528.949  
G 9  20888509.500   109769813.555    20888510.480    81970967.523  
G14  22158754.760   116445016.242                                  
G27  23389807.440   122914212.793    23389808.300    91786587.711  
G28  22413327.620   117782813.723                                  
G30  21569382.840   113347819.645    21569384.040    84642853.469  
E 7  25346794.440   133198257.359    25346801.100    99466220.215  
E18  28590976.320   150246568.0042                                 
E19  25429869.820   133634845.055    25429874.360    99792245.406  
E21  25104623.900   131925656.422    25104630.000    98515903.695  
E27  23359482.320   122754885.375    23359487.600    91667603.215  
E30  25465037.280   133819641.328    25465043.180    99930242.320  
> 2021  1  4 22 31 15.0000000  0 15       0.000000000000
G 4  23502434.540   123506090.336    23502438.920    92228577.695  
G 5  23800821.360   125074142.367                                  
G 7  20855144.380   109594526.973                                  
G 8  22017419.520   115702255.602    22017420.420    86401032.898  
G 9  20888858.500   109771647.586    20888859.500    81972337.090  
G14  22158221.000   116442211.324                                  
G27  23390096.160   122915729.949    23390097.000    91787720.652  
G28  22412794.280   117780010.941                                  
G30  21569088.480   113346272.762    21569089.680    84641698.328  
E 7  25347262.000   133200714.488    25347268.680    99468055.082  
E18  28590077.580   150241845.1292                                 
E19  25429461.840   133632701.137    25429466.380    99790644.430  
E21  25104302.100   131923965.371    25104308.200    98514640.898  
E27  23359603.980   122755524.703    23359609.260    91668080.633  
E30  25465499.400   133822069.777    25465505.300    99932055.773  
> 2021  1  4 22 31 16.0000000  0 15       0.000000000000
G 4  23503053.460   123509342.855    23503057.860    92231006.520  
G 5  23800636.020   125073168.406                                  
G 7  20855110.980   109594351.520                                  
G 8  22017293.240   115701591.965    22017294.140    86400537.324  
G 9  20889207.600   109773482.121    20889208.600    81973707.035  
G14  22157687.300   116439406.762                                  
G27  23390384.980   122917247.746    23390385.820    91788854.070  
G28  22412260.980   117777208.516                                  
G30  21568794.140   113344726.063    21568795.340    84640543.328  
E 7  25347729.620   133203171.871    25347736.300    99469890.141  
E18  28589178.780   150237121.9142                                 
E19  25429053.920   133630557.453    25429058.440    99789043.625  
E21  25103980.340   131922274.570    25103986.440    98513378.285  
E27  23359725.680   122756164.293    23359730.960    91668558.250  
E30  25465961.520   133824498.242    25465967.420    99933869.234  
> 2021  1  4 22 31 17.0000000  0 15       0.000000000000
G 4  23503672.440   123512595.621    23503676.840    92233435.531  
G 5  23800450.800   125072195.063                                  
G 7  20855077.640   109594176.254                                  
G 8  22017167.080   115700928.949    22017167.960    86400042.215  
G 9  20889556.800   109775317.156    20889557.780    81975077.355  
G14  22157153.680   116436602.563                                  
G27  23390673.920   122918766.164    23390674.780    91789987.957  
G28  22411727.760   117774406.445                                  
G30  21568499.840   113343179.531    21568501.040    84639388.449  
E 7  25348197.300   133205629.504    25348203.960    99471725.383  
E18  28588279.920   150232398.3872                                 
E19  25428646.020   133628414.016    25428650.560    99787443.008  
E21  25103658.640   131920584.035    25103664.740    98512115.875  
E27  23359847.440   122756804.148    23359852.720    91669036.063  
E30  25466423.640   133826926.734    25466429.540    99935682.719  
> 2021  1  4 22 31 18.0000000  0 15       0.000000000000
G 4  23504291.460   123515848.625    23504295.860    92235864.723  
G 5  23800265.680   125071222.305                                  
G 7  20855044.320   109594001.188                                  
G 8  22017041.020   115700266.586    22017041.920    86399547.594  
G 9  20889906.100   109777152.719    20889907.080    81976448.066  
G14  22156620.120   116433798.727                                  
G27  23390962.980   122920285.219    23390963.840    91791122.313  
G28  22411194.620   117771604.723                                  
G30  21568205.580   113341633.188    21568206.780    84638233.715  
E 7  25348665.020   133208087.395    25348671.680    99473560.820  
E18  28587380.980   150227674.5122                                 
E19  25428238.180   133626270.828    25428242.720    99785842.574  
E21  25103337.000   131918893.758    25103343.100    98510853.652  
E27  23359969.240   122757444.266    23359974.540    91669514.070  
E30  25466885.760   133829355.250    25466891.680    99937496.219  
> 2021  1  4 22 31 19.0000000  0 15       0.000000000000
G 4  23504910.540   123519101.871    23504914.940    92238294.090  
G 5  23800080.700   125070250.168                                  
G 7  20855011.040   109593826.309                                  
G 8  22016915.100   115699604.859    22016916.000    86399053.445  
G 9  20890255.480   109778988.770    20890256.460    81977819.141  
G14  22156086.640   116430995.242                                  
G27  23391252.160   122921804.902    23391253.020    91792257.141  
G28  22410661.520   117768803.363                                  
G30  21567911.360   113340087.012    21567912.560    84637079.102  
E 7  25349132.780   133210545.535    25349139.460    99475396.445  
E18  28586482.000   150222950.2852                                 
E19  25427830.400   133624127.887    25427834.940    99784242.328  
E21  25103015.400   131917203.727    25103021.480    98509591.621  
E27  23360091.100   122758084.641    23360096.380    91669992.273  
E30  25467347.900   133831783.785    25467353.820    99939309.734  
> 2021  1  4 22 31 20.0000000  0 15       0.000000000000
G 4  23505529.660   123522355.375    23505534.060    92240723.656  
G 5  23799895.820   125069278.629                                  
G 7  20854977.800   109593651.625                                  
G 8  22016789.300   115698943.781    22016790.200    86398559.785  
G 9  20890604.960   109780825.352    20890605.960    81979190.613  
G14  22155553.220   116428192.125                                  
G27  23391541.480   122923325.203    23391542.320    91793392.430  
G28  22410128.520   117766002.379                                  
G30  21567617.160   113338541.012    21567618.360    84635924.621  
E 7  25349600.600   133213003.949    25349607.280    99477232.273  
E18  28585582.940   150218225.7382                                 
E19  25427422.660   133621985.176    25427427.180    99782642.250  
E21  25102693.840   131915513.957    25102699.940    98508329.777  
E27  23360213.020   122758725.281    23360218.300    91670470.676  
E30  25467810.040   133834212.344    25467815.940    99941123.270  
> 2021  1  4 22 31 21.0000000  0 15       0.000000000000
G 4  23506148.820   123525609.113    23506153.220    92243153.395  
G 5  23799711.040   125068307.688                                  
G 7  20854944.600   109593477.145                                  
G 8  22016663.620   115698283.332    22016664.500    86398066.590  
G 9  20890954.540   109782662.414    20890955.540    81980562.445  
G14  22155019.860   116425389.352                                  
G27  23391830.900   122924846.137    23391831.740    91794528.191  
G28  22409595.560   117763201.727                                  
G30  21567323.000   113336995.188    21567324.200    84634770.273  
E 7  25350068.460   133215462.594    25350075.140    99479068.273  
E18  28584683.820   150213500.8552                                 
E19  25427014.960   133619842.711    25427019.480    99781042.359  
E21  25102372.320   131913824.441    25102378.420    98507068.125  
E27  23360334.960   122759366.184    23360340.260    91670949.270  
E30  25468272.180   133836640.930    25468278.100    99942936.820  
> 2021  1  4 22 31 22.0000000  0 15       0.000000000000
G 4  23506768.040   123528863.117    23506772.440    92245583.332  
G 5  23799526.400   125067337.352                                  
G 7  20854911.420   109593302.852                                  
G 8  22016538.060   115697623.535    22016538.960    86397573.887  
G 9  20891304.220   109784499.992    20891305.220    81981934.664  
G14  22154486.580   116422586.949                                  
G27  23392120.440   122926367.691    23392121.280    91795664.418  
G28  22409062.680   117760401.449                                  
G30  21567028.860   113335449.527    21567030.060    84633616.047  
E 7  25350536.380   133217921.504    25350543.060    99480904.473  
E18  28583784.640   150208775.6292                                 
E19  25426607.300   133617700.480    25426611.840    99779442.641  
E21  25102050.880   131912135.176    25102056.960    98505806.664  
E27  23360456.980   122760007.355    23360462.260    91671428.066  
E30  25468734.320   133839069.531    25468740.240    99944750.387  
> 2021  1  4 22 31 23.0000000  0 15       0.000000000000
G 4  23507387.300   123532117.355    23507391.700    92248013.441  
G 5  23799341.860   125066367.609                                  
G 7  20854878.280   109593128.746                                  
G 8  22016412.620   115696964.391    22016413.520    86397081.668  
G 9  20891654.000   109786338.082    20891654.980    81983307.262  
G14  22153953.360   116419784.902                                  
G27  23392410.100   122927889.875    23392410.940    91796801.113  
G28  22408529.880   117757601.520                                  
G30  21566734.780   113333904.055    21566735.980    84632461.961  
E 7  25351004.340   133220380.672    25351011.020    99482740.863  
E18  28582885.400   150204050.0862                                 
E19  25426199.700   133615558.512    25426204.220    99777843.121  
E21  25101729.460   131910446.164    25101735.560    98504545.391  
E27  23360579.040   122760648.789    23360584.320    91671907.059  
E30  25469196.480   133841498.156    25469202.380    99946563.969  
> 2021  1  4 22 31 24.0000000  0 15       0.000000000000
G 4  23508006.600   123535371.840    23508011.000    92250443.738  
G 5  23799157.440   125065398.477                                  
G 7  20854845.200   109592954.848                                  
G 8  22016287.320   115696305.898    22016288.200    86396589.938  
G 9  20892003.880   109788176.688    20892004.860    81984680.246  
G14  22153420.220   116416983.219                                  
G27  23392699.880   122929412.695    23392700.720    91797938.281  
G28  22407997.140   117754801.945                                  
G30  21566440.700   113332358.754    21566441.900    84631308.000  
E 7  25351472.360   133222840.094    25351479.020    99484577.441  
E18  28581986.080   150199324.1802                                 
E19  25425792.140   133613416.785    25425796.660    99776243.781  
E21  25101408.100   131908757.430    25101414.200    98503284.324  
E27  23360701.140   122761290.484    23360706.440    91672386.246  
E30  25469658.640   133843926.805    25469664.540    99948377.570  
> 2021  1  4 22 31 25.0000000  0 15       0.000000000000
G 4  23508625.960   123538626.559    23508630.360    92252874.207  
G 5  23798973.120   125064429.938                                  
G 7  20854812.140   109592781.137                                  
G 8  22016162.140   115695648.059    22016163.020    86396098.691  
G 9  20892353.840   109790015.797    20892354.840    81986053.605  
G14  22152887.140   116414181.895                                  
G27  23392989.780   122930936.129    23392990.620    91799075.910  
G28  22407464.460   117752002.719                                  
G30  21566146.680   113330813.625    21566147.880    84630154.172  
E 7  25351940.420   133225299.762    25351947.080    99486414.207  
E18  28581086.720   150194597.9572                                 
E19  25425384.620   133611275.293    25425389.160    99774644.613  
E21  25101086.800   131907068.934    25101092.880    98502023.434  
E27  23360823.300   122761932.441    23360828.600    91672865.633  
E30  25470120.800   133846355.469    25470126.700    99950191.180  
> 2021  1  4 22 31 27.0000000  0 15       0.000000000000
G 4  23509864.800   123545136.746    23509869.200    92257735.711  
G 5  23798604.860   125062494.656                                  
G 7  20854746.140   109592434.293                                  
G 8  22015912.120   115694334.273    22015913.020    86395117.621  
G 9  20893054.080   109793695.527    20893055.060    81988801.453  
G14  22151821.200   116408580.309                                  
G27  23393569.940   122933984.887    23393570.780    91801352.582  
G28  22406399.300   117746405.352                                  
G30  21565558.720   113327723.887    21565559.920    84627846.898  
E 7  25352876.680   133230219.855    25352883.340    99490088.301  
E18  28579287.780   150185144.4882                                 
E19  25424569.740   133606993.043    25424574.260    99771446.828  
E21  25100444.320   131903692.711    25100450.420    98499502.227  
E27  23361067.780   122763217.137    23361073.060    91673824.980  
E30  25471045.120   133851212.867    25471051.040    99953818.461  
> 2021  1  4 22 31 28.0000000  0 15       0.000000000000
G 4  23510484.300   123548392.215    23510488.700    92260166.738  
G 5  23798420.880   125061527.926                                  
G 7  20854713.180   109592261.164                                  
G 8  22015787.300   115693678.352    22015788.200    86394627.809  
G 9  20893404.340   109795536.160    20893405.320    81990175.953  
G14  22151288.320   116405780.059                                  
G27  23393860.200   122935510.215    23393861.040    91802491.625  
G28  22405866.840   117743607.195                                  
G30  21565264.780   113326179.285    21565265.980    84626693.465  
E 7  25353344.880   133232680.289    25353351.540    99491925.637  
E18  28578388.220   150180417.2622                                 
E19  25424162.360   133604852.270    25424166.880    99769848.203  
E21  25100123.140   131902004.992    25100129.240    98498241.918  
E27  23361190.080   122763859.879    23361195.360    91674304.949  
E30  25471507.300   133853641.602    25471513.200    99955632.121  
> 2021  1  4 22 31 29.0000000  0 15       0.000000000000
G 4  23511103.840   123551647.926    23511108.240    92262597.953  
G 5  23798237.040   125060561.789                                  
G 7  20854680.280   109592088.230                                  
G 8  22015662.600   115693023.074    22015663.500    86394138.480  
G 9  20893754.680   109797377.297    20893755.680    81991550.828  
G14  22150755.520   116402980.164                                  
G27  23394150.560   122937036.164    23394151.420    91803631.129  
G28  22405334.440   117740809.418                                  
G30  21564970.900   113324634.863    21564972.100    84625540.164  
E 7  25353813.120   133235140.977    25353819.800    99493763.160  
E18  28577488.580   150175689.6882                                 
E19  25423755.020   133602711.773    25423759.560    99768249.777  
E21  25099802.040   131900317.516    25099808.120    98496981.793  
E27  23361312.440   122764502.887    23361317.720    91674785.117  
E30  25471969.480   133856070.359    25471975.380    99957445.805  
> 2021  1  4 22 31 30.0000000  0 15       0.000000000000
G 4  23511723.420   123554903.883    23511727.820    92265029.348  
G 5  23798053.300   125059596.254                                  
G 7  20854647.400   109591915.492                                  
G 8  22015538.040   115692368.449    22015538.920    86393649.637  
G 9  20894105.140   109799218.949    20894106.120    81992926.086  
G14  22150222.780   116400180.637                                  
G27  23394441.060   122938562.742    23394441.920    91804771.105  
G28  22404802.100   117738011.984                                  
G30  21564677.020   113323090.617    21564678.240    84624386.992  
E 7  25354281.420   133237601.922    25354288.100    99495600.879  
E18  28576588.900   150170961.7932                                 
E19  25423347.740   133600571.504    25423352.280    99766651.527  
E21  25099480.960   131898630.320    25099487.060    98495721.871  
E27  23361434.840   122765146.156    23361440.140    91675265.480  
E30  25472431.660   133858499.141    25472437.560    99959259.504  
> 2021  1  4 22 31 31.0000000  0 15       0.000000000000
G 4  23512343.060   123558160.086    23512347.460    92267460.926  
G 5  23797869.680   125058631.316                                  
G 7  20854614.560   109591742.949                                  
G 8  22015413.580   115691714.453    22015414.480    86393161.262  
G 9  20894455.680   109801061.098    20894456.680    81994301.719  
G14  22149690.120   116397381.469                                  
G27  23394731.680   122940089.941    23394732.540    91805911.547  
G28  22404269.820   117735214.914                                  
G30  21564383.200   113321546.539    21564384.400    84623233.949  
E 7  25354749.780   133240063.113    25354756.440    99497438.781  
E18  28575689.140   150166233.5592                                 
E19  25422940.520   133598431.480    25422945.040    99765053.457  
E21  25099159.940   131896943.359    25099166.040    98494462.129  
E27  23361557.300   122765789.688    23361562.600    91675746.043  
E30  25472893.840   133860927.930    25472899.740    99961073.211  
> 2021  1  4 22 31 32.0000000  0 15       0.000000000000
G 4  23512962.740   123561416.539    23512967.140    92269892.691  
G 5  23797686.160   125057666.988                                  
G 7  20854581.760   109591570.602                                  
G 8  22015289.260   115691061.117    22015290.140    86392673.383  
G 9  20894806.340   109802903.750    20894807.320    81995677.727  
G14  22149157.520   116394582.648                                  
G27  23395022.420   122941617.770    23395023.260    91807052.457  
G28  22403737.620   117732418.191                                  
G30  21564089.400   113320002.652    21564090.600    84622081.043  
E 7  25355218.180   133242524.578    25355224.840    99499276.887  
E18  28574789.320   150161504.9842                                 
E19  25422533.320   133596291.699    25422537.860    99763455.570  
E21  25098838.980   131895256.668    25098845.080    98493202.590  
E27  23361679.820   122766433.492    23361685.100    91676226.805  
E30  25473356.020   133863356.762    25473361.940    99962886.945  
> 2021  1  4 22 31 33.0000000  0 15       0.000000000000
G 4  23513582.480   123564673.242    23513586.880    92272324.645  
G 5  23797502.780   125056703.262                                  
G 7  20854549.000   109591398.438                                  
G 8  22015165.060   115690408.426    22015165.940    86392185.984  
G 9  20895157.080   109804746.934    20895158.060    81997054.125  
G14  22148624.980   116391784.199                                  
G27  23395313.260   122943146.215    23395314.120    91808193.828  
G28  22403205.500   117729621.832                                  
G30  21563795.640   113318458.922    21563796.840    84620928.258  
E 7  25355686.620   133244986.289    25355693.300    99501115.176  
E18  28573889.440   150156776.0782                                 
E19  25422126.180   133594152.172    25422130.720    99761857.871  
E21  25098518.060   131893570.238    25098524.160    98491943.238  
E27  23361802.380   122767077.547    23361807.660    91676707.754  
E30  25473818.220   133865785.617    25473824.120    99964700.699  
> 2021  1  4 22 31 34.0000000  0 15       0.000000000000
G 4  23514202.240   123567930.184    23514206.640    92274756.773  
G 5  23797319.500   125055740.133                                  
G 7  20854516.280   109591226.469                                  
G 8  22015040.960   115689756.375    22015041.860    86391699.063  
G 9  20895507.900   109806590.594    20895508.900    81998430.887  
G14  22148092.520   116388986.109                                  
G27  23395604.240   122944675.293    23395605.100    91809335.672  
G28  22402673.440   117726825.828                                  
G30  21563501.920   113316915.383    21563503.120    84619775.617  
E 7  25356155.120   133247448.246    25356161.780    99502953.652  
E18  28572989.480   150152046.8362                                 
E19  25421719.080   133592012.879    25421723.620    99760260.348  
E21  25098197.180   131891884.047    25098203.280    98490684.070  
E27  23361924.980   122767721.871    23361930.260    91677188.906  
E30  25474280.420   133868214.484    25474286.320    99966514.465  
> 2021  1  4 22 31 35.0000000  0 15       0.000000000000
G 4  23514822.060   123571187.355    23514826.460    92277189.082  
G 5  23797136.340   125054777.602                                  
G 7  20854483.580   109591054.684                                  
G 8  22014917.000   115689104.941    22014917.900    86391212.605  
G 9  20895858.840   109808434.770    20895859.840    81999808.035  
G14  22147560.140   116386188.359                                  
G27  23395895.340   122946205.004    23395896.180    91810477.992  
G28  22402141.440   117724030.168                                  
G30  21563208.220   113315372.000    21563209.420    84618623.098  
E 7  25356623.660   133249910.461    25356630.340    99504792.316  
E18  28572089.480   150147317.2542                                 
E19  25421312.040   133589873.828    25421316.560    99758663.004  
E21  25097876.360   131890198.113    25097882.460    98489425.094  
E27  23362047.640   122768366.449    23362052.920    91677670.246  
E30  25474742.620   133870643.375    25474748.520    99968328.246  
> 2021  1  4 22 31 36.0000000  0 15       0.000000000000
G 4  23515441.940   123574444.785    23515446.340    92279621.578  
G 5  23796953.280   125053815.684                                  
G 7  20854450.940   109590883.109                                  
G 8  22014793.160   115688454.172    22014794.060    86390726.645  
G 9  20896209.880   109810279.469    20896210.860    82001185.574  
G14  22147027.820   116383390.992                                  
G27  23396186.540   122947735.336    23396187.400    91811620.773  
G28  22401609.520   117721234.887                                  
G30  21562914.560   113313828.813    21562915.760    84617470.719  
E 7  25357092.260   133252372.934    25357098.920    99506631.176  
E18  28571189.400   150142587.3592                                 
E19  25420905.040   133587735.027    25420909.560    99757065.848  
E21  25097555.580   131888512.453    25097561.680    98488166.324  
E27  23362170.340   122769011.309    23362175.640    91678151.797  
E30  25475204.820   133873072.297    25475210.740    99970142.051  
> 2021  1  4 22 31 37.0000000  0 15       0.000000000000
G 4  23516061.840   123577702.453    23516066.240    92282054.258  
G 5  23796770.360   125052854.352                                  
G 7  20854418.320   109590711.719                                  
G 8  22014669.460   115687804.051    22014670.340    86390241.168  
G 9  20896561.000   109812124.664    20896562.000    82002563.480  
G14  22146495.560   116380593.973                                  
G27  23396477.880   122949266.293    23396478.720    91812764.027  
G28  22401077.660   117718439.949                                  
G30  21562620.940   113312285.789    21562622.120    84616318.465  
E 7  25357560.880   133254835.656    25357567.560    99508470.219  
E18  28570289.260   150137857.1132                                 
E19  25420498.080   133585596.477    25420502.620    99755468.879  
E21  25097234.860   131886827.039    25097240.960    98486907.734  
E27  23362293.100   122769656.418    23362298.400    91678633.531  
E30  25475667.040   133875501.223    25475672.940    99971955.855  
> 2021  1  4 22 31 38.0000000  0 15       0.000000000000
G 4  23516681.820   123580960.371    23516686.200    92284487.117  
G 5  23796587.540   125051893.625                                  
G 7  20854385.740   109590540.516                                  
G 8  22014545.860   115687154.535    22014546.740    86389756.145  
G 9  20896912.240   109813970.355    20896913.220    82003941.762  
G14  22145963.360   116377797.305                                  
G27  23396769.320   122950797.871    23396770.180    91813907.738  
G28  22400545.860   117715645.359                                  
G30  21562327.340   113310742.930    21562328.540    84615166.332  
E 7  25358029.580   133257298.629    25358036.260    99510309.453  
E18  28569389.060   150133126.5312                                 
E19  25420091.160   133583458.172    25420095.700    99753872.094  
E21  25096914.180   131885141.863    25096920.280    98485649.324  
E27  23362415.920   122770301.785    23362421.200    91679115.461  
E30  25476129.240   133877930.180    25476135.160    99973769.688  
> 2021  1  4 22 31 40.0000000  0 15       0.000000000000
G 4  23517921.880   123587476.945    23517926.280    92289353.391  
G 5  23796222.240   125049973.988                                  
G 7  20854320.700   109590198.691                                  
G 8  22014299.040   115685857.512    22014299.920    86388787.594  
G 9  20897614.980   109817663.281    20897615.960    82006699.469  
G14  22144899.200   116372205.066                                  
G27  23397352.580   122953862.926    23397353.440    91816196.582  
G28  22399482.480   117710057.262                                  
G30  21561740.240   113307657.758    21561741.440    84612862.477  
E 7  25358967.100   133262225.344    25358973.780    99513988.488  
E18  28567588.460   150123664.3672                                 
E19  25419277.480   133579182.273    25419282.020    99750679.055  
E21  25096272.980   131881772.316    25096279.060    98483133.105  
E27  23362661.680   122771593.316    23362666.980    91680079.918  
E30  25477053.680   133882788.148    25477059.600    99977397.391  
> 2021  1  4 22 31 41.0000000  0 15       0.000000000000
G 4  23518541.980   123590735.598    23518546.380    92291786.805  
G 5  23796039.760   125049015.066                                  
G 7  20854288.240   109590028.074                                  
G 8  22014175.820   115685209.965    22014176.700    86388304.039  
G 9  20897966.500   109819510.516    20897967.480    82008078.898  
G14  22144367.220   116369409.492                                  
G27  23397644.400   122955396.383    23397645.240    91817341.699  
G28  22398950.880   117707263.762                                  
G30  21561446.760   113306115.445    21561447.940    84611710.754  
E 7  25359435.940   133264689.082    25359442.600    99515828.297  
E18  28566688.080   150118932.7892                                 
E19  25418870.720   133577044.711    25418875.260    99749082.824  
E21  25095952.440   131880087.930    25095958.540    98481875.285  
E27  23362784.640   122772239.484    23362789.940    91680562.445  
E30  25477515.920   133885217.168    25477521.820    99979211.266  
> 2021  1  4 22 31 42.0000000  0 15       0.000000000000
G 4  23519162.120   123593994.492    23519166.520    92294220.398  
G 5  23795857.400   125048056.750                                  
G 7  20854255.800   109589857.648                                  
G 8  22014052.720   115684563.066    22014053.600    86387820.969  
G 9  20898318.100   109821358.246    20898319.080    82009458.699  
G14  22143835.300   116366614.277                                  
G27  23397936.320   122956930.477    23397937.180    91818487.293  
G28  22398419.380   117704470.609                                  
G30  21561153.300   113304573.301    21561154.480    84610559.156  
E 7  25359904.820   133267153.074    25359911.480    99517668.289  
E18  28565787.620   150114200.8792                                 
E19  25418464.000   133574907.375    25418468.540    99747486.758  
E21  25095631.960   131878403.793    25095638.060    98480617.652  
E27  23362907.660   122772885.910    23362912.940    91681045.168  
E30  25477978.140   133887646.215    25477984.060    99981025.164  
> 2021  1  4 22 31 43.0000000  0 15       0.000000000000
G 4  23519782.320   123597253.633    23519786.720    92296654.172  
G 5  23795675.160   125047099.035                                  
G 7  20854223.400   109589687.414                                  
G 8  22013929.740   115683916.793    22013930.620    86387338.367  
G 9  20898669.820   109823206.496    20898670.800    82010838.891  
G14  22143303.460   116363819.418                                  
G27  23398228.380   122958465.191    23398229.220    91819633.348  
G28  22397887.920   117701677.809                                  
G30  21560859.860   113303031.324    21560861.060    84609407.684  
E 7  25360373.740   133269617.324    25360380.420    99519508.473  
E18  28564887.100   150109468.6452                                 
E19  25418057.320   133572770.285    25418061.860    99745890.879  
E21  25095311.520   131876719.914    25095317.620    98479360.211  
E27  23363030.700   122773532.594    23363036.000    91681528.078  
E30  25478440.380   133890075.281    25478446.280    99982839.074  
> 2021  1  4 22 31 44.0000000  0 15       0.000000000000
G 4  23520402.560   123600513.012    23520406.960    92299088.129  
G 5  23795493.020   125046141.922                                  
G 7  20854191.060   109589517.371                                  
G 8  22013806.880   115683271.172    22013807.760    86386856.250  
G 9  20899021.620   109825055.242    20899022.600    82012219.453  
G14  22142771.680   116361024.887                                  
G27  23398520.540   122960000.535    23398521.380    91820779.875  
G28  22397356.540   117698885.359                                  
G30  21560566.480   113301489.531    21560567.660    84608256.352  
E 7  25360842.720   133272081.809    25360849.400    99521348.836  
E18  28563986.520   150104736.0512                                 
E19  25417650.700   133570633.438    25417655.220    99744295.184  
E21  25094991.140   131875036.281    25094997.240    98478102.953  
E27  23363153.820   122774179.539    23363159.100    91682011.188  
E30  25478902.620   133892504.352    25478908.520    99984652.992  
> 2021  1  4 22 31 45.0000000  0 15       0.000000000000
G 4  23521022.860   123603772.648    23521027.240    92301522.273  
G 5  23795311.000   125045185.418                                  
G 7  20854158.720   109589347.527                                  
G 8  22013684.140   115682626.223    22013685.020    86386374.637  
G 9  20899373.520   109826904.500    20899374.500    82013600.395  
G14  22142239.980   116358230.781                                  
G27  23398812.820   122961536.504    23398813.680    91821926.867  
G28  22396825.220   117696093.289                                  
G30  21560273.120   113299947.918    21560274.300    84607105.148  
E 7  25361311.740   133274546.582    25361318.420    99523189.410  
E18  28563085.880   150100003.1372                                 
E19  25417244.100   133568496.836    25417248.640    99742699.672  
E21  25094670.800   131873352.926    25094676.900    98476845.902  
E27  23363276.980   122774826.750    23363282.260    91682494.492  
E30  25479364.860   133894933.465    25479370.760    99986466.938  
> 2021  1  4 22 31 46.0000000  0 15       0.000000000000
G 4  23521643.180   123607032.527    23521647.580    92303956.602  
G 5  23795129.100   125044229.516                                  
G 7  20854126.440   109589177.875                                  
G 8  22013561.540   115681981.914    22013562.420    86385893.500  
G 9  20899725.520   109828754.266    20899726.500    82014981.715  
G14  22141708.340   116355437.000                                  
G27  23399105.220   122963073.098    23399106.080    91823074.328  
G28  22396293.960   117693301.566                                  
G30  21559979.780   113298406.473    21559980.980    84605954.070  
E 7  25361780.820   133277011.582    25361787.500    99525030.160  
E18  28562185.160   150095269.8952                                 
E19  25416837.580   133566360.500    25416842.100    99741104.355  
E21  25094350.520   131871669.820    25094356.620    98475589.039  
E27  23363400.180   122775474.227    23363405.480    91682978.000  
E30  25479827.100   133897362.590    25479833.020    99988280.895  
> 2021  1  4 22 31 47.0000000  0 15       0.000000000000
G 4  23522263.560   123610292.652    23522267.960    92306391.113  
G 5  23794947.320   125043274.215                                  
G 7  20854094.200   109589008.422                                  
G 8  22013439.040   115681338.219    22013439.920    86385412.824  
G 9  20900077.620   109830604.527    20900078.600    82016363.406  
G14  22141176.780   116352643.594                                  
G27  23399397.760   122964610.324    23399398.600    91824222.262  
G28  22395762.780   117690510.191                                  
G30  21559686.500   113296865.207    21559687.680    84604803.129  
E 7  25362249.940   133279476.844    25362256.620    99526871.098  
E18  28561284.400   150090536.3162                                 
E19  25416431.080   133564224.391    25416435.620    99739509.211  
E21  25094030.280   131869986.977    25094036.380    98474332.367  
E27  23363523.440   122776121.965    23363528.720    91683461.699  
E30  25480289.360   133899791.746    25480295.260    99990094.875  
> 2021  1  4 22 31 48.0000000  0 15       0.000000000000
G 4  23522884.000   123613553.016    23522888.380    92308825.801  
G 5  23794765.640   125042319.512                                  
G 7  20854062.000   109588839.160                                  
G 8  22013316.680   115680695.184    22013317.560    86384932.637  
G 9  20900429.800   109832455.301    20900430.780    82017745.480  
G14  22140645.260   116349850.531                                  
G27  23399690.400   122966148.176    23399691.240    91825370.656  
G28  22395231.680   117687719.184                                  
G30  21559393.220   113295324.102    21559394.420    84603652.309  
E 7  25362719.120   133281942.359    25362725.780    99528712.230  
E18  28560383.560   150085802.3872                                 
E19  25416024.640   133562088.531    25416029.180    99737914.250  
E21  25093710.100   131868304.379    25093716.180    98473075.883  
E27  23363646.740   122776769.961    23363652.040    91683945.590  
E30  25480751.600   133902220.914    25480757.520    99991908.863  
> 2021  1  4 22 31 49.0000000  0 15       0.000000000000
G 4  23523504.460   123616813.617    23523508.860    92311260.668  
G 5  23794584.080   125041365.410                                  
G 7  20854029.820   109588670.086                                  
G 8  22013194.440   115680052.813    22013195.320    86384452.945  
G 9  20900782.100   109834306.590    20900783.080    82019127.938  
G14  22140113.840   116347057.836                                  
G27  23399983.160   122967686.645    23399984.000    91826519.516  
G28  22394700.640   117684928.539                                  
G30  21559100.000   113293783.184    21559101.180    84602501.625  
E 7  25363188.320   133284408.121    25363195.000    99530553.543  
E18  28559482.660   150081068.1412                                 
E19  25415618.240   133559952.930    25415622.780    99736319.484  
E21  25093389.960   131866622.035    25093396.040    98471819.590  
E27  23363770.100   122777418.215    23363775.400    91684429.680  
E30  25481213.860   133904650.109    25481219.780    99993722.871  
> 2021  1  4 22 31 50.0000000  0 15       0.000000000000
G 4  23524124.980   123620074.477    23524129.380    92313695.719  
G 5  23794402.640   125040411.918                                  
G 7  20853997.680   109588501.207                                  
G 8  22013072.320   115679411.086    22013073.200    86383973.734  
G 9  20901134.480   109836158.379    20901135.460    82020510.766  
G14  22139582.460   116344265.488                                  
G27  23400276.040   122969225.734    23400276.880    91827668.836  
G28  22394169.660   117682138.242                                  
G30  21558806.800   113292242.449    21558808.000    84601351.074  
E 7  25363657.600   133286874.145    25363664.280    99532395.055  
E18  28558581.680   150076333.5512                                 
E19  25415211.900   133557817.543    25415216.420    99734724.875  
E21  25093069.860   131864939.945    25093075.960    98470563.484  
E27  23363893.520   122778066.734    23363898.800    91684913.965  
E30  25481676.120   133907079.316    25481682.040    99995536.891  
> 2021  1  4 22 31 51.0000000  0 15       0.000000000000
G 4  23524745.560   123623335.586    23524749.960    92316130.965  
G 5  23794221.300   125039459.016                                  
G 7  20853965.580   109588332.527                                  
G 8  22012950.340   115678770.008    22012951.200    86383495.008  
G 9  20901486.960   109838010.680    20901487.940    82021893.977  
G14  22139051.180   116341473.520                                  
G27  23400569.040   122970765.461    23400569.880    91828818.629  
G28  22393638.740   117679348.301                                  
G30  21558513.640   113290701.883    21558514.840    84600200.652  
E 7  25364126.900   133289340.418    25364133.580    99534236.754  
E18  28557680.660   150071598.6412                                 
E19  25414805.600   133555682.426    25414810.120    99733130.473  
E21  25092749.820   131863258.121    25092755.900    98469307.574  
E27  23364016.980   122778715.523    23364022.260    91685398.449  
E30  25482138.400   133909508.559    25482144.300    99997350.934  
> 2021  1  4 22 31 52.0000000  0 15       0.000000000000
G 4  23525366.180   123626596.930    23525370.560    92318566.379  
G 5  23794040.080   125038506.719                                  
G 7  20853933.520   109588164.043                                  
G 8  22012828.460   115678129.563    22012829.340    86383016.754  
G 9  20901839.540   109839863.496    20901840.520    82023277.574  
G14  22138519.940   116338681.902                                  
G27  23400862.160   122972305.809    23400863.000    91829968.887  
G28  22393107.920   117676558.738                                  
G30  21558220.520   113289161.500    21558221.700    84599050.367  
E 7  25364596.280   133291806.953    25364602.960    99536078.645  
E18  28556779.580   150066863.3872                                 
E19  25414399.340   133553547.543    25414403.860    99731536.242  
E21  25092429.820   131861576.551    25092435.920    98468051.859  
E27  23364140.480   122779364.570    23364145.760    91685883.125  
E30  25482600.660   133911937.813    25482606.580    99999164.984  
> 2021  1  4 22 31 53.0000000  0 15       0.000000000000
G 4  23525986.840   123629858.516    23525991.220    92321001.980  
G 5  23793858.980   125037555.023                                  
G 7  20853901.500   109587995.746                                  
G 8  22012706.700   115677489.762    22012707.580    86382538.980  
G 9  20902192.220   109841716.813    20902193.200    82024661.543  
G14  22137988.780   116335890.645                                  
G27  23401155.400   122973846.785    23401156.240    91831119.617  
G28  22392577.140   117673769.516                                  
G30  21557927.420   113287621.281    21557928.620    84597900.203  
E 7  25365065.680   133294273.727    25365072.360    99537920.723  
E18  28555878.420   150062127.7932                                 
E19  25413993.120   133551412.918    25413997.660    99729942.207  
E21  25092109.880   131859895.227    25092115.960    98466796.332  
E27  23364264.040   122780013.871    23364269.320    91686368.000  
E30  25483062.940   133914367.086    25483068.860   100000979.059  
> 2021  1  4 22 31 54.0000000  0 15       0.000000000000
G 4  23526607.560   123633120.309    23526611.960    92323437.707  
G 5  23793678.000   125036603.930                                  
G 7  20853869.500   109587827.652                                  
G 8  22012585.080   115676850.609    22012585.960    86382061.688  
G 9  20902544.980   109843570.633    20902545.960    82026045.895  
G14  22137457.700   116333099.762                                  
G27  23401448.760   122975388.379    23401449.600    91832270.801  
G28  22392046.440   117670980.660                                  
G30  21557634.360   113286081.254    21557635.560    84596750.191  
E 7  25365535.140   133296740.754    25365541.820    99539762.980  
E18  28554977.200   150057391.8912                                 
E19  25413586.960   133549278.535    25413591.500    99728348.359  
E21  25091789.980   131858214.164    25091796.080    98465540.996  
E27  23364387.640   122780663.441    23364392.940    91686853.070  
E30  25483525.220   133916796.371    25483531.140   100002793.133  
> 2021  1  4 22 31 55.0000000  0 15       0.000000000000
G 4  23527228.300   123636382.387    23527232.700    92325873.668  
G 5  23793497.120   125035653.445                                  
G 7  20853837.560   109587659.750                                  
G 8  22012463.580   115676212.113    22012464.460    86381584.887  
G 9  20902897.840   109845424.961    20902898.820    82027430.617  
G14  22136926.680   116330309.230                                  
G27  23401742.240   122976930.609    23401743.080    91833422.465  
G28  22391515.800   117668192.160                                  
G30  21557341.340   113284541.387    21557342.520    84595600.289  
E 7  25366004.660   133299208.035    25366011.320    99541605.438  
E18  28554075.920   150052655.6132                                 
E19  25413180.840   133547144.383    25413185.380    99726754.680  
E21  25091470.140   131856533.367    25091476.220    98464285.859  
E27  23364511.300   122781313.273    23364516.600    91687338.336  
E30  25483987.500   133919225.695    25483993.420   100004607.242  
> 2021  1  4 22 31 56.0000000  0 15       0.000000000000
G 4  23527849.100   123639644.711    23527853.500    92328309.820  
G 5  23793316.360   125034703.555                                  
G 7  20853805.640   109587492.035                                  
G 8  22012342.200   115675574.250    22012343.080    86381108.563  
G 9  20903250.820   109847279.793    20903251.780    82028815.719  
G14  22136395.720   116327519.051                                  
G27  23402035.820   122978473.461    23402036.680    91834574.590  
G28  22390985.240   117665404.027                                  
G30  21557048.340   113283001.695    21557049.540    84594450.520  
E 7  25366474.220   133301675.574    25366480.880    99543448.082  
E18  28553174.580   150047919.0392                                 
E19  25412774.780   133545010.488    25412779.300    99725161.191  
E21  25091150.340   131854852.816    25091156.420    98463030.910  
E27  23364635.020   122781963.355    23364640.300    91687823.793  
E30  25484449.800   133921655.027    25484455.700   100006421.355  
> 2021  1  4 22 31 57.0000000  0 15       0.000000000000
G 4  23528469.940   123642907.270    23528474.360    92330746.145  
G 5  23793135.720   125033754.270                                  
G 7  20853773.760   109587324.508                                  
G 8  22012220.940   115674937.031    22012221.820    86380632.719  
G 9  20903603.880   109849135.133    20903604.840    82030201.199  
G14  22135864.840   116324729.238                                  
G27  23402329.540   122980016.945    23402330.400    91835727.191  
G28  22390454.740   117662616.223                                  
G30  21556755.380   113281462.191    21556756.580    84593300.891  
E 7  25366943.820   133304143.363    25366950.500    99545290.914  
E18  28552273.160   150043182.1332                                 
E19  25412368.760   133542876.840    25412373.280    99723567.887  
E21  25090830.580   131853172.512    25090836.680    98461776.141  
E27  23364758.780   122782613.707    23364764.060    91688309.449  
E30  25484912.080   133924084.387    25484918.000   100008235.492  
> 2021  1  4 22 31 58.0000000  0 15       0.000000000000
G 4  23529090.840   123646170.094    23529095.240    92333182.668  
G 5  23792955.200   125032805.582                                  
G 7  20853741.920   109587157.188                                  
G 8  22012099.800   115674300.461    22012100.680    86380157.355  
G 9  20903957.020   109850990.977    20903958.000    82031587.055  
G14  22135334.020   116321939.789                                  
G27  23402623.380   122981561.043    23402624.220    91836880.254  
G28  22389924.300   117659828.809                                  
G30  21556462.460   113279922.859    21556463.640    84592151.391  
E 7  25367413.480   133306611.406    25367420.140    99547133.938  
E18  28551371.700   150038444.8672                                 
E19  25411962.780   133540743.426    25411967.320    99721974.758  
E21  25090510.880   131851492.473    25090516.960    98460521.570  
E27  23364882.580   122783264.320    23364887.860    91688795.301  
E30  25485374.380   133926513.758    25485380.300   100010049.637  
> 2021  1  4 22 31 59.0000000  0 15       0.000000000000
G 4  23529711.780   123649433.145    23529716.180    92335619.359  
G 5  23792774.780   125031857.496                                  
G 7  20853710.120   109586990.051                                  
G 8  22011978.800   115673664.531    22011979.660    86379682.477  
G 9  20904310.280   109852847.332    20904311.260    82032973.297  
G14  22134803.280   116319150.699                                  
G27  23402917.340   122983105.777    23402918.180    91838033.789  
G28  22389393.940   117657041.742                                  
G30  21556169.560   113278383.691    21556170.760    84591002.012  
E 7  25367883.180   133309079.703    25367889.840    99548977.148  
E18  28550470.160   150033707.2732                                 
E19  25411556.860   133538610.266    25411561.380    99720381.820  
E21  25090191.240   131849812.688    25090197.320    98459267.191  
E27  23365006.440   122783915.195    23365011.720    91689281.348  
E30  25485836.680   133928943.168    25485842.600   100011863.809  
> 2021  1  4 22 32  0.0000000  0 15       0.000000000000
G 4  23530332.760   123652696.438    23530337.180    92338056.234  
G 5  23792594.480   125030910.020                                  
G 7  20853678.340   109586823.117                                  
G 8  22011857.900   115673029.250    22011858.780    86379208.078  
G 9  20904663.640   109854704.195    20904664.600    82034359.914  
G14  22134272.600   116316361.965                                  
G27  23403211.400   122984651.133    23403212.240    91839187.785  
G28  22388863.660   117654255.043                                  
G30  21555876.720   113276844.719    21555877.900    84589852.777  
E 7  25368352.920   133311548.246    25368359.600    99550820.543  
E18  28549568.560   150028969.3522                                 
E19  25411150.980   133536477.355    25411155.500    99718789.066  
E21  25089871.620   131848133.164    25089877.720    98458013.004  
E27  23365130.340   122784566.336    23365135.620    91689767.594  
E30  25486298.980   133931372.590    25486304.900   100013677.988  
> 2021  1  4 22 32  1.0000000  0 15       0.000000000000
G 4  23530953.800   123655959.980    23530958.200    92340493.293  
G 5  23792414.300   125029963.137                                  
G 7  20853646.620   109586656.371                                  
G 8  22011737.140   115672394.613    22011738.020    86378734.160  
G 9  20905017.080   109856561.563    20905018.060    82035746.906  
G14  22133741.980   116313573.598                                  
G27  23403505.600   122986197.113    23403506.440    91840342.254  
G28  22388333.420   117651468.695                                  
G30  21555583.880   113275305.906    21555585.080    84588703.668  
E 7  25368822.720   133314017.051    25368829.380    99552664.133  
E18  28548666.900   150024231.0982                                 
E19  25410745.140   133534344.684    25410749.660    99717196.488  
E21  25089552.080   131846453.902    25089558.160    98456759.012  
E27  23365254.300   122785217.730    23365259.580    91690254.027  
E30  25486761.300   133933802.027    25486767.200   100015492.184  
> 2021  1  4 22 32  2.0000000  0 15       0.000000000000
G 4  23531574.880   123659223.773    23531579.280    92342930.539  
G 5  23792234.220   125029016.863                                  
G 7  20853614.920   109586489.820                                  
G 8  22011616.500   115671760.641    22011617.360    86378260.738  
G 9  20905370.620   109858419.445    20905371.600    82037134.289  
G14  22133211.440   116310785.594                                  
G27  23403799.900   122987743.723    23403800.760    91841497.188  
G28  22387803.280   117648682.715                                  
G30  21555291.100   113273767.285    21555292.280    84587554.699  
E 7  25369292.560   133316486.109    25369299.240    99554507.914  
E18  28547765.180   150019492.5002                                 
E19  25410339.360   133532212.266    25410343.880    99715604.105  
E21  25089232.560   131844774.891    25089238.660    98455505.211  
E27  23365378.300   122785869.398    23365383.580    91690740.664  
E30  25487223.600   133936231.492    25487229.520   100017306.398  
> 2021  1  4 22 32  3.0000000  0 15       0.000000000000
G 4  23532196.000   123662487.801    23532200.420    92345367.961  
G 5  23792054.260   125028071.184                                  
G 7  20853583.260   109586323.457                                  
G 8  22011495.980   115671127.293    22011496.840    86377787.785  
G 9  20905724.260   109860277.824    20905725.240    82038522.039  
G14  22132680.980   116307997.949                                  
G27  23404094.340   122989290.957    23404095.180    91842652.590  
G28  22387273.180   117645897.082                                  
G30  21554998.340   113272228.824    21554999.520    84586405.844  
E 7  25369762.460   133318955.410    25369769.120    99556351.879  
E18  28546863.400   150014753.5982                                 
E19  25409933.620   133530080.094    25409938.140    99714011.902  
E21  25088913.100   131843096.117    25088919.200    98454251.586  
E27  23365502.360   122786521.313    23365507.640    91691227.492  
E30  25487685.920   133938660.980    25487691.840   100019120.625  
> 2021  1  4 22 32  4.0000000  0 15       0.000000000000
G 4  23532817.180   123665752.070    23532821.580    92347805.563  
G 5  23791874.420   125027126.117                                  
G 7  20853551.640   109586157.281                                  
G 8  22011375.560   115670494.586    22011376.440    86377315.309  
G 9  20906078.000   109862136.715    20906078.980    82039910.172  
G14  22132150.580   116305210.656                                  
G27  23404388.880   122990838.813    23404389.720    91843808.453  
G28  22386743.160   117643111.813                                  
G30  21554705.620   113270690.551    21554706.800    84585257.137  
E 7  25370232.400   133321424.977    25370239.080    99558196.039  
E18  28545961.540   150010014.3442                                 
E19  25409527.920   133527948.164    25409532.440    99712419.883  
E21  25088593.700   131841417.617    25088599.780    98452998.164  
E27  23365626.480   122787173.500    23365631.740    91691714.516  
E30  25488148.240   133941090.480    25488154.140   100020934.867  
> 2021  1  4 22 32  5.0000000  0 15       0.000000000000
G 4  23533438.400   123669016.586    23533442.800    92350243.352  
G 5  23791694.700   125026181.645                                  
G 7  20853520.060   109585991.309                                  
G 8  22011255.300   115669862.523    22011256.160    86376843.316  
G 9  20906431.820   109863996.109    20906432.800    82041298.676  
G14  22131620.240   116302423.730                                  
G27  23404683.540   122992387.293    23404684.400    91844964.785  
G28  22386213.220   117640326.910                                  
G30  21554412.920   113269152.441    21554414.100    84584108.547  
E 7  25370702.400   133323894.785    25370709.060    99560040.379  
E18  28545059.640   150005274.7582                                 
E19  25409122.280   133525816.473    25409126.800    99710828.039  
E21  25088274.340   131839739.363    25088280.420    98451744.930  
E27  23365750.620   122787825.938    23365755.900    91692201.730  
E30  25488610.560   133943520.008    25488616.480   100022749.129  
> 2021  1  4 22 32  6.0000000  0 15       0.000000000000
G 4  23534059.660   123672281.344    23534064.060    92352681.320  
G 5  23791515.080   125025237.777                                  
G 7  20853488.520   109585825.527                                  
G 8  22011135.140   115669231.105    22011136.020    86376371.801  
G 9  20906785.760   109865856.020    20906786.740    82042687.570  
G14  22131089.980   116299637.168                                  
G27  23404978.340   122993936.395    23404979.180    91846121.586  
G28  22385683.340   117637542.359                                  
G30  21554120.260   113267614.504    21554121.440    84582960.086  
E 7  25371172.440   133326364.855    25371179.100    99561884.914  
E18  28544157.660   150000534.8282                                 
E19  25408716.680   133523685.027    25408721.200    99709236.379  
E21  25087955.020   131838061.371    25087961.100    98450491.883  
E27  23365874.840   122788478.637    23365880.100    91692689.141  
E30  25489072.900   133945949.551    25489078.800   100024563.402  
> 2021  1  4 22 32  7.0000000  0 15       0.000000000000
G 4  23534680.960   123675546.348    23534685.380    92355119.469  
G 5  23791335.580   125024294.512                                  
G 7  20853457.000   109585659.945                                  
G 8  22011015.100   115668600.355    22011015.980    86375900.785  
G 9  20907139.780   109867716.426    20907140.760    82044076.836  
G14  22130559.780   116296850.965                                  
G27  23405273.240   122995486.133    23405274.080    91847278.855  
G28  22385153.520   117634758.164                                  
G30  21553827.640   113266076.754    21553828.820    84581811.770  
E 7  25371642.520   133328835.176    25371649.180    99563729.637  
E18  28543255.620   149995794.5822                                 
E19  25408311.120   133521553.848    25408315.640    99707644.918  
E21  25087635.760   131836383.645    25087641.840    98449239.043  
E27  23365999.080   122789131.605    23366004.360    91693176.750  
E30  25489535.220   133948379.113    25489541.120   100026377.688  
> 2021  1  4 22 32  8.0000000  0 15       0.000000000000
G 4  23535302.320   123678811.598    23535306.740    92357557.801  
G 5  23791156.200   125023351.855                                  
G 7  20853425.540   109585494.555                                  
G 8  22010895.200   115667970.238    22010896.080    86375430.246  
G 9  20907493.900   109869577.336    20907494.880    82045466.477  
G14  22130029.640   116294065.129                                  
G27  23405568.260   122997036.484    23405569.100    91848436.586  
G28  22384623.780   117631974.332                                  
G30  21553535.040   113264539.176    21553536.220    84580663.578  
E 7  25372112.660   133331305.746    25372119.320    99565574.547  
E18  28542353.520   149991054.0002                                 
E19  25407905.620   133519422.898    25407910.140    99706053.629  
E21  25087316.560   131834706.160    25087322.620    98447986.379  
E27  23366123.400   122789784.836    23366128.660    91693664.555  
E30  25489997.560   133950808.695    25490003.460   100028191.988  
> 2021  1  4 22 32  9.0000000  0 15       0.000000000000
G 4  23535923.720   123682077.090    23535928.140    92359996.320  
G 5  23790976.940   125022409.809                                  
G 7  20853394.100   109585329.359                                  
G 8  22010775.420   115667340.773    22010776.300    86374960.188  
G 9  20907848.120   109871438.762    20907849.100    82046856.500  
G14  22129499.580   116291279.648                                  
G27  23405863.400   122998587.465    23405864.260    91849594.781  
G28  22384094.100   117629190.855                                  
G30  21553242.480   113263001.777    21553243.680    84579515.523  
E 7  25372582.840   133333776.578    25372589.500    99567419.652  
E18  28541451.340   149986313.0702                                 
E19  25407500.160   133517292.219    25407504.680    99704462.543  
E21  25086997.380   131833028.941    25087003.460    98446733.918  
E27  23366247.740   122790438.328    23366253.020    91694152.555  
E30  25490459.900   133953238.305    25490465.800   100030006.309  
> 2021  1  4 22 32 11.0000000  0 15       0.000000000000
G 4  23537166.680   123688608.789    23537171.080    92364873.883  
G 5  23790618.740   125020527.504                                  
G 7  20853331.340   109584999.527                                  
G 8  22010536.220   115666083.754    22010537.100    86374021.504  
G 9  20908556.840   109875163.117    20908557.820    82049637.676  
G14  22128439.680   116285709.762                                  
G27  23406454.040   123001691.293    23406454.900    91851912.574  
G28  22383034.940   117623624.973                                  
G30  21552657.480   113259927.504    21552658.660    84577219.797  
E 7  25373523.340   133338718.969    25373530.000    99571110.398  
E18  28539646.820   149976830.2462                                 
E19  25406689.380   133513031.547    25406693.900    99701280.875  
E21  25086359.200   131829675.258    25086365.280    98444229.543  
E27  23366496.600   122791746.082    23366501.880    91695129.129  
E30  25491384.580   133958097.566    25491390.480   100033634.980  
> 2021  1  4 22 32 12.0000000  0 15       0.000000000000
G 4  23537788.220   123691875.016    23537792.620    92367312.945  
G 5  23790439.820   125019587.258                                  
G 7  20853300.000   109584834.910                                  
G 8  22010416.800   115665456.227    22010417.680    86373552.895  
G 9  20908911.340   109877026.063    20908912.320    82051028.836  
G14  22127909.820   116282925.363                                  
G27  23406749.540   123003244.148    23406750.400    91853072.176  
G28  22382505.460   117620842.574                                  
G30  21552365.020   113258390.625    21552366.200    84576072.129  
E 7  25373993.680   133341190.566    25374000.340    99572956.078  
E18  28538744.460   149972088.3402                                 
E19  25406284.080   133510901.586    25406288.580    99699690.324  
E21  25086040.180   131827998.809    25086046.260    98442977.656  
E27  23366621.120   122792400.355    23366626.380    91695617.711  
E30  25491846.940   133960527.238    25491852.840   100035449.352  
> 2021  1  4 22 32 13.0000000  0 15       0.000000000000
G 4  23538409.800   123695141.477    23538414.220    92369752.184  
G 5  23790261.020   125018647.602                                  
G 7  20853268.720   109584670.488                                  
G 8  22010297.520   115664829.367    22010298.400    86373084.789  
G 9  20909265.940   109878889.520    20909266.920    82052420.375  
G14  22127380.040   116280141.340                                  
G27  23407045.160   123004797.629    23407046.000    91854232.238  
G28  22381976.060   117618060.531                                  
G30  21552072.600   113256853.930    21552073.780    84574924.594  
E 7  25374464.040   133343662.398    25374470.720    99574801.930  
E18  28537842.040   149967346.0902                                 
E19  25405878.800   133508771.883    25405883.320    99698099.965  
E21  25085721.220   131826322.613    25085727.280    98441725.957  
E27  23366745.660   122793054.887    23366750.940    91696106.492  
E30  25492309.300   133962956.922    25492315.200   100037263.730  
> 2021  1  4 22 32 14.0000000  0 15       0.000000000000
G 4  23539031.440   123698408.191    23539035.840    92372191.613  
G 5  23790082.320   125017708.559                                  
G 7  20853237.460   109584506.254                                  
G 8  22010178.340   115664203.137    22010179.220    86372617.148  
G 9  20909620.640   109880753.477    20909621.620    82053812.293  
G14  22126850.320   116277357.664                                  
G27  23407340.900   123006351.734    23407341.740    91855392.773  
G28  22381446.720   117615278.840                                  
G30  21551780.200   113255317.410    21551781.380    84573777.195  
E 7  25374934.480   133346134.484    25374941.140    99576647.969  
E18  28536939.560   149962603.5162                                 
E19  25405473.580   133506642.410    25405478.080    99696509.777  
E21  25085402.300   131824646.676    25085408.360    98440474.449  
E27  23366870.260   122793709.680    23366875.540    91696595.465  
E30  25492771.660   133965386.633    25492777.560   100039078.125  
> 2021  1  4 22 32 15.0000000  0 15       0.000000000000
G 4  23539653.120   123701675.141    23539657.540    92374631.215  
G 5  23789903.740   125016770.117                                  
G 7  20853206.260   109584342.219                                  
G 8  22010059.300   115663577.582    22010060.180    86372150.012  
G 9  20909975.440   109882617.938    20909976.420    82055204.586  
G14  22126320.680   116274574.363                                  
G27  23407636.760   123007906.465    23407637.600    91856553.770  
G28  22380917.460   117612497.504                                  
G30  21551487.840   113253781.066    21551489.020    84572629.926  
E 7  25375404.940   133348606.824    25375411.600    99578494.199  
E18  28536037.020   149957860.6052                                 
E19  25405068.400   133504513.203    25405072.900    99694919.789  
E21  25085083.420   131822970.980    25085089.480    98439223.121  
E27  23366994.920   122794364.738    23367000.180    91697084.633  
E30  25493234.020   133967816.363    25493239.920   100040892.535  
> 2021  1  4 22 32 16.0000000  0 15       0.000000000000
G 4  23540274.840   123704942.336    23540279.260    92377071.004  
G 5  23789725.280   125015832.277                                  
G 7  20853175.080   109584178.383                                  
G 8  22009940.380   115662952.656    22009941.260    86371683.348  
G 9  20910330.340   109884482.910    20910331.320    82056597.258  
G14  22125791.100   116271791.418                                  
G27  23407932.720   123009461.828    23407933.580    91857715.246  
G28  22380388.260   117609716.563                                  
G30  21551195.520   113252244.898    21551196.700    84571482.789  
E 7  25375875.460   133351079.426    25375882.120    99580340.625  
E18  28535134.400   149953117.3672                                 
E19  25404663.280   133502384.242    25404667.780    99693329.988  
E21  25084764.600   131821295.574    25084770.660    98437972.012  
E27  23367119.620   122795020.059    23367124.880    91697574.000  
E30  25493696.380   133970246.113    25493702.280   100042706.965  
> 2021  1  4 22 32 17.0000000  0 15       0.000000000000
G 4  23540896.620   123708209.777    23540901.040    92379510.977  
G 5  23789546.920   125014895.047                                  
G 7  20853143.940   109584014.738                                  
G 8  22009821.600   115662328.379    22009822.460    86371217.168  
G 9  20910685.320   109886348.383    20910686.300    82057990.305  
G14  22125261.580   116269008.832                                  
G27  23408228.820   123011017.805    23408229.680    91858877.172  
G28  22379859.120   117606935.957                                  
G30  21550903.220   113250708.898    21550904.420    84570335.773  
E 7  25376346.040   133353552.270    25376352.680    99582187.234  
E18  28534231.740   149948373.8012                                 
E19  25404258.180   133500255.512    25404262.700    99691740.355  
E21  25084445.820   131819620.395    25084451.900    98436721.070  
E27  23367244.380   122795675.637    23367249.640    91698063.559  
E30  25494158.760   133972675.883    25494164.660   100044521.406  
> 2021  1  4 22 32 18.0000000  0 15       0.000000000000
G 4  23541518.440   123711477.453    23541522.860    92381951.121  
G 5  23789368.700   125013958.418                                  
G 7  20853112.840   109583851.289                                  
G 8  22009702.920   115661704.734    22009703.800    86370751.461  
G 9  20911040.400   109888214.355    20911041.380    82059383.723  
G14  22124732.160   116266226.617                                  
G27  23408525.040   123012574.406    23408525.880    91860039.570  
G28  22379330.060   117604155.723                                  
G30  21550610.980   113249173.090    21550612.160    84569188.902  
E 7  25376816.640   133356025.363    25376823.300    99584034.027  
E18  28533329.000   149943629.8872                                 
E19  25403853.160   133498127.027    25403857.660    99690150.910  
E21  25084127.100   131817945.488    25084133.160    98435470.332  
E27  23367369.180   122796331.473    23367374.440    91698553.313  
E30  25494621.120   133975105.672    25494627.020   100046335.863  
> 2021  1  4 22 32 19.0000000  0 15       0.000000000000
G 4  23542140.300   123714745.375    23542144.720    92384391.453  
G 5  23789190.580   125013022.398                                  
G 7  20853081.760   109583688.031                                  
G 8  22009584.360   115661081.754    22009585.240    86370286.246  
G 9  20911395.580   109890080.840    20911396.560    82060777.527  
G14  22124202.780   116263444.754                                  
G27  23408821.360   123014131.641    23408822.220    91861202.438  
G28  22378801.060   117601375.828                                  
G30  21550318.760   113247637.453    21550319.940    84568042.160  
E 7  25377287.300   133358498.711    25377293.960    99585881.012  
E18  28532426.200   149938885.6482                                 
E19  25403448.160   133495998.809    25403452.660    99688561.656  
E21  25083808.420   131816270.824    25083814.480    98434219.777  
E27  23367494.040   122796987.574    23367499.300    91699043.262  
E30  25495083.500   133977535.484    25495089.400   100048150.332  
> 2021  1  4 22 32 20.0000000  0 15       0.000000000000
G 4  23542762.220   123718013.535    23542766.620    92386831.957  
G 5  23789012.560   125012086.977                                  
G 7  20853050.740   109583524.973                                  
G 8  22009465.940   115660459.414    22009466.820    86369821.512  
G 9  20911750.860   109891947.836    20911751.840    82062171.715  
G14  22123673.480   116260663.250                                  
G27  23409117.820   123015689.492    23409118.660    91862365.770  
G28  22378272.140   117598596.297                                  
G30  21550026.560   113246101.980    21550027.740    84566895.543  
E 7  25377758.020   133360972.316    25377764.680    99587728.188  
E18  28531523.340   149934141.0862                                 
E19  25403043.220   133493870.828    25403047.720    99686972.586  
E21  25083489.800   131814596.422    25083495.860    98432969.414  
E27  23367618.940   122797643.934    23367624.200    91699533.402  
E30  25495545.880   133979965.320    25495551.780   100049964.824  
> 2021  1  4 22 32 21.0000000  0 15       0.000000000000
G 4  23543384.180   123721281.945    23543388.580    92389272.652  
G 5  23788834.680   125011152.160                                  
G 7  20853019.740   109583362.113                                  
G 8  22009347.640   115659837.719    22009348.520    86369357.258  
G 9  20912106.240   109893815.336    20912107.220    82063566.273  
G14  22123144.240   116257882.113                                  
G27  23409414.380   123017247.965    23409415.240    91863529.563  
G28  22377743.280   117595817.117                                  
G30  21549734.400   113244566.691    21549735.580    84565749.063  
E 7  25378228.780   133363446.168    25378235.440    99589575.547  
E18  28530620.400   149929396.1842                                 
E19  25402638.340   133491743.105    25402642.840    99685383.707  
E21  25083171.220   131812922.285    25083177.280    98431719.250  
E27  23367743.880   122798300.551    23367749.140    91700023.738  
E30  25496008.280   133982395.164    25496014.160   100051779.320  
> 2021  1  4 22 32 22.0000000  0 15       0.000000000000
G 4  23544006.180   123724550.602    23544010.600    92391713.531  
G 5  23788656.900   125010217.945                                  
G 7  20852988.800   109583199.457                                  
G 8  22009229.460   115659216.680    22009230.340    86368893.496  
G 9  20912461.720   109895683.348    20912462.700    82064961.215  
G14  22122615.080   116255101.328                                  
G27  23409711.060   123018807.066    23409711.920    91864693.824  
G28  22377214.480   117593038.313                                  
G30  21549442.280   113243031.566    21549443.460    84564602.703  
E 7  25378699.580   133365920.277    25378706.240    99591423.102  
E18  28529717.420   149924650.9412                                 
E19  25402233.480   133489615.613    25402237.980    99683794.996  
E21  25082852.680   131811248.387    25082858.740    98430469.270  
E27  23367868.880   122798957.434    23367874.140    91700514.270  
E30  25496470.660   133984825.035    25496476.560   100053593.840  
> 2021  1  4 22 32 23.0000000  0 15       0.000000000000
G 4  23544628.240   123727819.488    23544632.640    92394154.582  
G 5  23788479.240   125009284.336                                  
G 7  20852957.880   109583037.008                                  
G 8  22009111.400   115658596.293    22009112.280    86368430.219  
G 9  20912817.280   109897551.859    20912818.260    82066356.531  
G14  22122085.980   116252320.918                                  
G27  23410007.880   123020366.785    23410008.720    91865858.551  
G28  22376685.760   117590259.848                                  
G30  21549150.200   113241496.629    21549151.380    84563456.484  
E 7  25379170.440   133368394.625    25379177.100    99593270.832  
E18  28528814.360   149919905.3752                                 
E19  25401828.680   133487488.363    25401833.180    99682206.473  
E21  25082534.200   131809574.754    25082540.260    98429219.480  
E27  23367993.940   122799614.570    23367999.180    91701004.996  
E30  25496933.060   133987254.926    25496938.940   100055408.371  
> 2021  1  4 22 32 24.0000000  0 15       0.000000000000
G 4  23545250.320   123731088.629    23545254.740    92396595.824  
G 5  23788301.700   125008351.336                                  
G 7  20852927.000   109582874.758                                  
G 8  22008993.460   115657976.551    22008994.340    86367967.426  
G 9  20913172.940   109899420.875    20913173.920    82067752.227  
G14  22121556.960   116249540.867                                  
G27  23410304.800   123021927.137    23410305.660    91867023.750  
G28  22376157.100   117587481.762                                  
G30  21548858.140   113239961.867    21548859.320    84562310.395  
E 7  25379641.340   133370869.242    25379648.000    99595118.762  
E18  28527911.260   149915159.4802                                 
E19  25401423.920   133485361.375    25401428.420    99680618.141  
E21  25082215.760   131807901.379    25082221.820    98427969.887  
E27  23368119.040   122800271.977    23368124.280    91701495.918  
E30  25497395.460   133989684.836    25497401.340   100057222.918  
> 2021  1  4 22 32 27.0000000  0 15       0.000000000000
G 4  23547116.900   123740897.484    23547121.300    92403920.613  
G 5  23787769.760   125005555.941                                  
G 7  20852834.600   109582389.152                                  
G 8  22008640.400   115656121.199    22008641.280    86366581.938  
G 9  20914240.500   109905030.973    20914241.480    82071941.582  
G14  22119970.300   116241202.898                                  
G27  23411196.280   123026611.930    23411197.140    91870522.129  
G28  22374571.560   117579149.645                                  
G30  21547982.180   113235358.648    21547983.360    84558872.926  
E 7  25381054.340   133378294.582    25381061.000    99600663.660  
E18  28525201.540   149900919.8012                                 
E19  25400209.940   133478981.887    25400214.440    99675854.242  
E21  25081260.760   131802882.777    25081266.820    98424222.234  
E27  23368494.620   122802245.750    23368499.880    91702969.844  
E30  25498782.660   133996974.691    25498788.560   100062666.645  
> 2021  1  4 22 32 28.0000000  0 15       0.000000000000
G 4  23547739.180   123744167.602    23547743.600    92406362.582  
G 5  23787592.660   125004625.344                                  
G 7  20852803.860   109582227.664                                  
G 8  22008522.960   115655504.039    22008523.840    86366121.070  
G 9  20914596.560   109906902.027    20914597.540    82073338.801  
G14  22119441.540   116238424.301                                  
G27  23411493.680   123028174.773    23411494.540    91871689.188  
G28  22374043.180   117576372.980                                  
G30  21547690.260   113233824.586    21547691.440    84557727.359  
E 7  25381525.440   133380770.203    25381532.080    99602512.340  
E18  28524298.160   149896172.5702                                 
E19  25399805.380   133476855.898    25399809.880    99674266.656  
E21  25080942.520   131801210.430    25080948.580    98422973.406  
E27  23368619.920   122802904.199    23368625.180    91703461.543  
E30  25499245.080   133999404.684    25499250.980   100064481.250  
> 2021  1  4 22 32 29.0000000  0 15       0.000000000000
G 4  23548361.500   123747437.957    23548365.920    92408804.727  
G 5  23787415.700   125003695.359                                  
G 7  20852773.180   109582066.367                                  
G 8  22008405.640   115654887.523    22008406.520    86365660.688  
G 9  20914952.700   109908773.563    20914953.680    82074736.375  
G14  22118912.860   116235646.059                                  
G27  23411791.200   123029738.238    23411792.060    91872856.711  
G28  22373514.860   117573596.691                                  
G30  21547398.360   113232290.707    21547399.540    84556581.930  
E 7  25381996.580   133383246.070    25382003.240    99604361.207  
E18  28523394.740   149891425.0202                                 
E19  25399400.860   133474730.137    25399405.360    99672679.242  
E21  25080624.320   131799538.320    25080630.380    98421724.762  
E27  23368745.280   122803562.902    23368750.520    91703953.438  
E30  25499707.500   134001834.695    25499713.380   100066295.871  
> 2021  1  4 22 32 30.0000000  0 15       0.000000000000
G 4  23548983.880   123750708.543    23548988.300    92411247.047  
G 5  23787238.840   125002765.973                                  
G 7  20852742.520   109581905.258                                  
G 8  22008288.460   115654271.672    22008289.320    86365200.797  
G 9  20915308.940   109910645.625    20915309.920    82076134.344  
G14  22118384.240   116232868.180                                  
G27  23412088.840   123031302.336    23412089.700    91874024.703  
G28  22372986.620   117570820.750                                  
G30  21547106.500   113230756.996    21547107.680    84555436.629  
E 7  25382467.780   133385722.203    25382474.420    99606210.270  
E18  28522491.240   149886677.1292                                 
E19  25398996.400   133472604.633    25399000.900    99671092.020  
E21  25080306.200   131797866.492    25080312.240    98420476.320  
E27  23368870.680   122804221.863    23368875.920    91704445.523  
E30  25500169.920   134004264.723    25500175.800   100068110.508  
> 2021  1  4 22 32 31.0000000  0 15       0.000000000000
G 4  23549606.300   123753979.371    23549610.720    92413689.551  
G 5  23787062.100   125001837.191                                  
G 7  20852711.900   109581744.344                                  
G 8  22008171.380   115653656.457    22008172.260    86364741.383  
G 9  20915665.280   109912518.168    20915666.260    82077532.668  
G14  22117855.700   116230090.668                                  
G27  23412386.600   123032867.051    23412387.460    91875193.160  
G28  22372458.440   117568045.176                                  
G30  21546814.680   113229223.469    21546815.860    84554291.461  
E 7  25382939.000   133388198.563    25382945.660    99608059.504  
E18  28521587.680   149881928.9062                                 
E19  25398591.980   133470479.375    25398596.460    99669504.980  
E21  25079988.100   131796194.891    25079994.140    98419228.051  
E27  23368996.120   122804881.086    23369001.360    91704937.805  
E30  25500632.340   134006694.770    25500638.220   100069925.152  
> 2021  1  4 22 32 32.0000000  0 15       0.000000000000
G 4  23550228.760   123757250.445    23550233.180    92416132.234  
G 5  23786885.480   125000909.0082                                 
G 7  20852681.320   109581583.625                                  
G 8  22008054.440   115653041.891    22008055.300    86364282.453  
G 9  20916021.700   109914391.238    20916022.700    82078931.391  
G14  22117327.220   116227313.512                                  
G27  23412684.480   123034432.395    23412685.320    91876362.086  
G28  22371930.340   117565269.957                                  
G30  21546522.900   113227690.109    21546524.080    84553146.422  
E 7  25383410.300   133390675.188    25383416.940    99609908.934  
E18  28520684.060   149877180.3632                                 
E19  25398187.600   133468354.363    25398192.080    99667918.129  
E21  25079670.060   131794523.563    25079676.100    98417979.984  
E27  23369121.620   122805540.578    23369126.860    91705430.285  
E30  25501094.760   134009124.844    25501100.660   100071739.824  
> 2021  1  4 22 32 33.0000000  0 15       0.000000000000
G 4  23550851.280   123760521.762    23550855.700    92418575.098  
G 5  23786708.960   124999981.4302                                 
G 7  20852650.760   109581423.094                                  
G 8  22007937.600   115652427.973    22007938.480    86363824.008  
G 9  20916378.240   109916264.809    20916379.220    82080330.484  
G14  22116798.820   116224536.730                                  
G27  23412982.460   123035998.363    23412983.320    91877531.477  
G28  22371402.300   117562495.098                                  
G30  21546231.140   113226156.930    21546232.320    84552001.516  
E 7  25383881.640   133393152.066    25383888.280    99611758.551  
E18  28519780.380   149872431.4842                                 
E19  25397783.260   133466229.602    25397787.760    99666331.457  
E21  25079352.060   131792852.488    25079358.100    98416732.109  
E27  23369247.160   122806200.324    23369252.400    91705922.957  
E30  25501557.200   134011554.934    25501563.080   100073554.504  
> 2021  1  4 22 32 34.0000000  0 15       0.000000000000
G 4  23551473.840   123763793.320    23551478.260    92421018.141  
G 5  23786532.560   124999054.4492                                 
G 7  20852620.260   109581262.758                                  
G 8  22007820.900   115651814.730    22007821.780    86363366.066  
G 9  20916734.860   109918138.887    20916735.840    82081729.957  
G14  22116270.480   116221760.305                                  
G27  23413280.580   123037564.949    23413281.440    91878701.328  
G28  22370874.320   117559720.594                                  
G30  21545939.420   113224623.934    21545940.600    84550856.746  
E 7  25384353.020   133395629.188    25384359.660    99613608.355  
E18  28518876.640   149867682.2662                                 
E19  25397378.980   133464105.070    25397383.480    99664744.961  
E21  25079034.120   131791181.676    25079040.160    98415484.430  
E27  23369372.760   122806860.328    23369378.000    91706415.820  
E30  25502019.640   134013985.043    25502025.520   100075369.199  
> 2021  1  4 22 32 35.0000000  0 15       0.000000000000
G 4  23552096.440   123767065.117    23552100.860    92423461.363  
G 5  23786356.280   124998128.0822                                 
G 7  20852589.780   109581102.617                                  
G 8  22007704.340   115651202.129    22007705.220    86362908.605  
G 9  20917091.580   109920013.473    20917092.560    82083129.809  
G14  22115742.220   116218984.230                                  
G27  23413578.820   123039132.156    23413579.660    91879871.645  
G28  22370346.420   117556946.469                                  
G30  21545647.740   113223091.105    21545648.920    84549712.102  
E 7  25384824.440   133398106.578    25384831.080    99615458.355  
E18  28517972.820   149862932.7232                                 
E19  25396974.760   133461980.820    25396979.240    99663158.676  
E21  25078716.220   131789511.117    25078722.260    98414236.938  
E27  23369498.400   122807520.594    23369503.640    91706908.879  
E30  25502482.080   134016415.172    25502487.960   100077183.906  
> 2021  1  4 22 32 36.0000000  0 15       0.000000000000
G 4  23552719.080   123770337.156    23552723.500    92425904.773  
G 5  23786180.120   124997202.3162                                 
G 7  20852559.340   109580942.664                                  
G 8  22007587.880   115650590.160    22007588.760    86362451.617  
G 9  20917448.400   109921888.559    20917449.380    82084530.039  
G14  22115214.020   116216208.531                                  
G27  23413877.160   123040699.992    23413878.020    91881042.430  
G28  22369818.600   117554172.699                                  
G30  21545356.080   113221558.457    21545357.260    84548567.590  
E 7  25385295.920   133400584.207    25385302.560    99617308.531  
E18  28517068.960   149858182.8522                                 
E19  25396570.560   133459856.805    25396575.060    99661572.559  
E21  25078398.360   131787840.813    25078404.420    98412989.633  
E27  23369624.100   122808181.121    23369629.340    91707402.129  
E30  25502944.520   134018845.316    25502950.400   100078998.625  
> 2021  1  4 22 32 37.0000000  0 15       0.000000000000
G 4  23553341.780   123773609.445    23553346.200    92428348.359  
G 5  23786004.060   124996277.1522                                 
G 7  20852528.940   109580782.906                                  
G 8  22007471.560   115649978.875    22007472.440    86361995.137  
G 9  20917805.320   109923764.145    20917806.300    82085930.637  
G14  22114685.880   116213433.191                                  
G27  23414175.620   123042268.449    23414176.480    91882213.684  
G28  22369290.840   117551399.277                                  
G30  21545064.460   113220025.984    21545065.640    84547423.211  
E 7  25385767.440   133403062.094    25385774.100    99619158.898  
E18  28516165.020   149853432.6372                                 
E19  25396166.420   133457733.031    25396170.920    99659986.625  
E21  25078080.560   131786170.758    25078086.620    98411742.516  
E27  23369749.840   122808841.914    23369755.080    91707895.578  
E30  25503406.960   134021275.488    25503412.840   100080813.363  
> 2021  1  4 22 32 38.0000000  0 15       0.000000000000
G 4  23553964.520   123776881.969    23553968.940    92430792.129  
G 5  23785828.120   124995352.5822                                 
G 7  20852498.580   109580623.359                                  
G 8  22007355.360   115649368.219    22007356.220    86361539.129  
G 9  20918162.320   109925640.254    20918163.300    82087331.629  
G14  22114157.820   116210658.215                                  
G27  23414474.220   123043837.531    23414475.060    91883385.395  
G28  22368763.140   117548626.219                                  
G30  21544772.880   113218493.676    21544774.060    84546278.953  
E 7  25386239.020   133405540.215    25386245.660    99621009.445  
E18  28515261.020   149848682.0742                                 
E19  25395762.340   133455609.516    25395766.820    99658400.883  
E21  25077762.820   131784500.961    25077768.860    98410495.586  
E27  23369875.620   122809502.953    23369880.880    91708389.211  
E30  25503869.420   134023705.668    25503875.300   100082628.102  
> 2021  1  4 22 32 39.0000000  0 15       0.000000000000
G 4  23554587.320   123780154.734    23554591.720    92433236.078  
G 5  23785652.300   124994428.6212                                 
G 7  20852468.260   109580464.016                                  
G 8  22007239.280   115648758.207    22007240.140    86361083.602  
G 9  20918519.440   109927516.863    20918520.420    82088732.992  
G14  22113629.840   116207883.602                                  
G27  23414772.920   123045407.223    23414773.780    91884557.570  
G28  22368235.500   117545853.520                                  
G30  21544481.320   113216961.563    21544482.500    84545134.848  
E 7  25386710.640   133408018.594    25386717.280    99622860.180  
E18  28514356.960   149843931.2152                                 
E19  25395358.280   133453486.227    25395362.780    99656815.309  
E21  25077445.120   131782831.430    25077451.160    98409248.859  
E27  23370001.480   122810164.254    23370006.720    91708883.039  
E30  25504331.860   134026135.859    25504337.740   100084442.855  
> 2021  1  4 22 32 40.0000000  0 15       0.000000000000
G 4  23555210.140   123783427.742    23555214.560    92435680.203  
G 5  23785476.580   124993505.2662                                 
G 7  20852437.980   109580304.867                                  
G 8  22007123.300   115648148.824    22007124.180    86360628.543  
G 9  20918876.640   109929393.973    20918877.620    82090134.727  
G14  22113101.900   116205109.352                                  
G27  23415071.740   123046977.563    23415072.600    91885730.227  
G28  22367707.940   117543081.184                                  
G30  21544189.800   113215429.609    21544190.980    84543990.855  
E 7  25387182.320   133410497.234    25387188.960    99624711.113  
E18  28513452.840   149839180.0122                                 
E19  25394954.280   133451363.215    25394958.780    99655229.945  
E21  25077127.460   131781162.148    25077133.500    98408002.320  
E27  23370127.360   122810825.828    23370132.620    91709377.070  
E30  25504794.320   134028566.094    25504800.200   100086257.641  
> 2021  1  4 22 32 42.0000000  0 15       0.000000000000
G 4  23556455.960   123789974.496    23556460.380    92440569.012  
G 5  23785125.520   124991660.3552                                 
G 7  20852377.500   109579987.145                                  
G 8  22006891.760   115646931.992    22006892.620    86359719.871  
G 9  20919591.320   109933149.719    20919592.320    82092939.344  
G14  22112046.280   116199561.941                                  
G27  23415669.740   123050120.090    23415670.600    91888076.918  
G28  22366653.040   117537537.605                                  
G30  21543606.860   113212366.262    21543608.040    84541703.293  
E 7  25388125.800   133415455.266    25388132.440    99628413.539  
E18  28511644.400   149829676.6412                                 
E19  25394146.440   133447117.906    25394150.920    99652059.746  
E21  25076492.300   131777824.363    25076498.340    98405509.816  
E27  23370379.300   122812149.738    23370384.540    91710365.707  
E30  25505719.240   134033426.598    25505725.140   100089887.234  
> 2021  1  4 22 32 43.0000000  0 15       0.000000000000
G 4  23557078.920   123793248.227    23557083.340    92443013.680  
G 5  23784950.140   124990738.8092                                 
G 7  20852347.340   109579828.574                                  
G 8  22006776.160   115646324.551    22006777.040    86359266.262  
G 9  20919948.820   109935028.352    20919949.800    82094342.219  
G14  22111518.560   116196788.777                                  
G27  23415968.920   123051692.285    23415969.780    91889250.961  
G28  22366125.680   117534766.355                                  
G30  21543315.440   113210834.840    21543316.620    84540559.699  
E 7  25388597.600   133417934.660    25388604.260    99630265.031  
E18  28510740.100   149824924.4532                                 
E19  25393742.580   133444995.641    25393747.060    99650474.938  
E21  25076174.800   131776155.855    25076180.840    98404263.855  
E27  23370505.340   122812812.090    23370510.580    91710860.320  
E30  25506181.720   134035856.883    25506187.600   100091702.059  
> 2021  1  4 22 32 44.0000000  0 15       0.000000000000
G 4  23557701.940   123796522.203    23557706.360    92445458.527  
G 5  23784774.900   124989817.8632                                 
G 7  20852317.200   109579670.191                                  
G 8  22006660.700   115645717.770    22006661.580    86358813.148  
G 9  20920306.400   109936907.484    20920307.400    82095745.465  
G14  22110990.900   116194015.980                                  
G27  23416268.220   123053265.105    23416269.080    91890425.465  
G28  22365598.400   117531995.469                                  
G30  21543024.060   113209303.602    21543025.240    84539416.242  
E 7  25389069.480   133420414.309    25389076.120    99632116.715  
E18  28509835.720   149820171.9302                                 
E19  25393338.760   133442873.605    25393343.260    99648890.301  
E21  25075857.340   131774487.594    25075863.380    98403018.074  
E27  23370631.420   122813474.703    23370636.680    91711355.125  
E30  25506644.180   134038287.195    25506650.080   100093516.902  
> 2021  1  4 22 32 45.0000000  0 15       0.000000000000
G 4  23558325.000   123799796.418    23558329.420    92447903.559  
G 5  23784599.760   124988897.5202                                 
G 7  20852287.100   109579512.004                                  
G 8  22006545.360   115645111.637    22006546.220    86358360.516  
G 9  20920664.100   109938787.121    20920665.080    82097149.090  
G14  22110463.340   116191243.539                                  
G27  23416567.640   123054838.543    23416568.500    91891600.438  
G28  22365071.180   117529224.922                                  
G30  21542732.700   113207772.527    21542733.880    84538272.906  
E 7  25389541.380   133422894.195    25389548.020    99633968.578  
E18  28508931.280   149815419.0822                                 
E19  25392935.000   133440751.809    25392939.500    99647305.844  
E21  25075539.920   131772819.605    25075545.980    98401772.500  
E27  23370757.560   122814137.570    23370762.820    91711850.125  
E30  25507106.660   134040717.516    25507112.560   100095331.750  
> 2021  1  4 22 32 46.0000000  0 15       0.000000000000
G 4  23558948.120   123803070.875    23558952.540    92450348.770  
G 5  23784424.740   124987977.7852                                 
G 7  20852257.020   109579353.992                                  
G 8  22006430.140   115644506.148    22006431.000    86357908.367  
G 9  20921021.880   109940667.266    20921022.860    82098553.094  
G14  22109935.820   116188471.469                                  
G27  23416867.180   123056412.613    23416868.020    91892775.875  
G28  22364544.040   117526454.758                                  
G30  21542441.380   113206241.641    21542442.560    84537129.711  
E 7  25390013.340   133425374.340    25390019.980    99635820.637  
E18  28508026.780   149810665.9022                                 
E19  25392531.280   133438630.277    25392535.780    99645721.586  
E21  25075222.560   131771151.867    25075228.620    98400527.109  
E27  23370883.760   122814800.695    23370889.000    91712345.316  
E30  25507569.140   134043147.855    25507575.020   100097146.613  
> 2021  1  4 22 32 47.0000000  0 15       0.000000000000
G 4  23559571.280   123806345.578    23559575.700    92452794.160  
G 5  23784249.840   124987058.6522                                 
G 7  20852227.000   109579196.191                                  
G 8  22006315.040   115643901.305    22006315.900    86357456.695  
G 9  20921379.740   109942547.918    20921380.740    82099957.477  
G14  22109408.380   116185699.773                                  
G27  23417166.820   123057987.301    23417167.680    91893951.781  
G28  22364016.960   117523684.953                                  
G30  21542150.100   113204710.922    21542151.280    84535986.645  
E 7  25390485.340   133427854.742    25390491.980    99637672.879  
E18  28507122.220   149805912.3952                                 
E19  25392127.620   133436509.008    25392132.120    99644137.520  
E21  25074905.260   131769484.387    25074911.300    98399281.914  
E27  23371010.000   122815464.074    23371015.240    91712840.695  
E30  25508031.620   134045578.215    25508037.520   100098961.488  
> 2021  1  4 22 32 48.0000000  0 15       0.000000000000
G 4  23560194.480   123809620.516    23560198.900    92455239.730  
G 5  23784075.040   124986140.1252                                 
G 7  20852197.000   109579038.590                                  
G 8  22006200.060   115643297.125    22006200.940    86357005.523  
G 9  20921737.720   109944429.074    20921738.700    82101362.234  
G14  22108881.020   116182928.430                                  
G27  23417466.600   123059562.617    23417467.460    91895128.152  
G28  22363489.960   117520915.496                                  
G30  21541858.860   113203180.391    21541860.040    84534843.715  
E 7  25390957.400   133430335.391    25390964.040    99639525.313  
E18  28506217.600   149801158.5512                                 
E19  25391724.000   133434387.961    25391728.480    99642553.621  
E21  25074587.980   131767817.152    25074594.040    98398036.902  
E27  23371136.280   122816127.719    23371141.540    91713336.273  
E30  25508494.100   134048008.586    25508500.000   100100776.379  
> 2021  1  4 22 32 49.0000000  0 15       0.000000000000
G 4  23560817.720   123812895.691    23560822.140    92457685.477  
G 5  23783900.360   124985222.1992                                 
G 7  20852167.060   109578881.172                                  
G 8  22006085.220   115642693.590    22006086.080    86356554.832  
G 9  20922095.800   109946310.734    20922096.780    82102767.371  
G14  22108353.720   116180157.449                                  
G27  23417766.500   123061138.551    23417767.340    91896304.984  
G28  22362963.020   117518146.426                                  
G30  21541567.640   113201650.039    21541568.820    84533700.918  
E 7  25391429.500   133432816.281    25391436.140    99641377.926  
E18  28505312.900   149796404.3792                                 
E19  25391320.440   133432267.195    25391324.920    99640969.934  
E21  25074270.780   131766150.180    25074276.820    98396792.086  
E27  23371262.620   122816791.625    23371267.860    91713832.047  
E30  25508956.600   134050438.984    25508962.480   100102591.285  
> 2021  1  4 22 32 50.0000000  0 15       0.000000000000
G 4  23561441.040   123816170.957    23561445.480    92460131.176  
G 5  23783725.800   124984304.844                                  
G 7  20852137.120   109578724.004                                  
G 8  22005970.460   115642090.777    22005971.340    86356104.695  
G 9  20922453.960   109948192.867    20922454.960    82104172.809  
G14  22107826.480   116177386.824                                  
G27  23418066.500   123062715.133    23418067.360    91897482.289  
G28  22362436.140   117515377.684                                  
G30  21541276.440   113200119.875    21541277.620    84532558.246  
E 7  25391901.640   133435297.395    25391908.300    99643230.684  
E18  28504408.100   149791650.0662                                 
E19  25390916.920   133430146.613    25390921.400    99639386.363  
E21  25073953.600   131764483.453    25073959.660    98395547.453  
E27  23371389.000   122817455.781    23371394.260    91714328.012  
E30  25509419.080   134052869.398    25509424.980   100104406.211  
> 2021  1  4 22 32 51.0000000  0 15       0.000000000000
G 4  23562064.380   123819446.617    23562068.820    92462577.289  
G 5  23783551.360   124983388.113                                  
G 7  20852107.240   109578566.953                                  
G 8  22005855.860   115641488.516    22005856.740    86355654.965  
G 9  20922812.220   109950075.527    20922813.220    82105578.695  
G14  22107299.320   116174616.551                                  
G27  23418366.620   123064292.313    23418367.480    91898660.063  
G28  22361909.340   117512609.305                                  
G30  21540985.300   113198589.859    21540986.480    84531415.711  
E 7  25392373.840   133437778.789    25392380.500    99645083.672  
E18  28503503.300   149786895.2382                                 
E19  25390513.440   133428026.320    25390517.940    99637803.027  
E21  25073636.480   131762816.977    25073642.540    98394303.004  
E27  23371515.440   122818120.195    23371520.700    91714824.160  
E30  25509881.580   134055299.828    25509887.480   100106221.145  
> 2021  1  4 22 32 52.0000000  0 15       0.000000000000
G 4  23562687.760   123822722.516    23562692.200    92465023.582  
G 5  23783377.040   124982471.996                                  
G 7  20852077.400   109578410.105                                  
G 8  22005741.380   115640886.922    22005742.260    86355205.730  
G 9  20923170.580   109951958.703    20923171.580    82106984.973  
G14  22106772.240   116171846.656                                  
G27  23418666.860   123065870.102    23418667.720    91899838.285  
G28  22361382.600   117509841.301                                  
G30  21540694.180   113197060.031    21540695.360    84530273.313  
E 7  25392846.080   133440260.430    25392852.740    99646936.844  
E18  28502598.420   149782140.0742                                 
E19  25390110.020   133425906.281    25390114.500    99636219.879  
E21  25073319.420   131761150.766    25073325.460    98393058.758  
E27  23371641.920   122818784.875    23371647.180    91715320.512  
E30  25510344.080   134057730.277    25510349.980   100108036.086  
> 2021  1  4 22 32 53.0000000  0 15       0.000000000000
G 4  23563311.200   123825998.664    23563315.640    92467470.059  
G 5  23783202.820   124981556.484                                  
G 7  20852047.580   109578253.453                                  
G 8  22005627.040   115640285.973    22005627.900    86354756.973  
G 9  20923529.040   109953842.383    20923530.020    82108391.621  
G14  22106245.200   116169077.121                                  
G27  23418967.240   123067448.523    23418968.080    91901016.980  
G28  22360855.940   117507073.664                                  
G30  21540403.100   113195530.375    21540404.280    84529131.043  
E 7  25393318.380   133442742.328    25393325.040    99648790.207  
E18  28501693.480   149777384.5782                                 
E19  25389706.620   133423786.465    25389711.120    99634636.902  
E21  25073002.400   131759484.813    25073008.460    98391814.699  
E27  23371768.460   122819449.813    23371773.720    91715817.055  
E30  25510806.600   134060160.738    25510812.480   100109851.039  
> 2021  1  4 22 32 54.0000000  0 15       0.000000000000
G 4  23563934.660   123829275.043    23563939.120    92469916.707  
G 5  23783028.720   124980641.578                                  
G 7  20852017.820   109578097.004                                  
G 8  22005512.800   115639685.680    22005513.660    86354308.703  
G 9  20923887.580   109955726.570    20923888.580    82109798.648  
G14  22105718.260   116166307.965                                  
G27  23419267.720   123069027.570    23419268.560    91902196.145  
G28  22360329.340   117504306.391                                  
G30  21540112.040   113194000.898    21540113.220    84527988.906  
E 7  25393790.720   133445224.480    25393797.380    99650643.762  
E18  28500788.480   149772628.7422                                 
E19  25389303.300   133421666.930    25389307.780    99633054.129  
E21  25072685.440   131757819.117    25072691.480    98390570.840  
E27  23371895.040   122820115.012    23371900.300    91716313.797  
E30  25511269.100   134062591.223    25511274.980   100111666.012  
> 2021  1  4 22 32 55.0000000  0 15       0.000000000000
G 4  23564558.200   123832551.668    23564562.640    92472363.539  
G 5  23782854.740   124979727.285                                  
G 7  20851988.080   109577940.746                                  
G 8  22005398.700   115639086.051    22005399.560    86353860.934  
G 9  20924246.220   109957611.266    20924247.220    82111206.051  
G14  22105191.360   116163539.164                                  
G27  23419568.320   123070607.242    23419569.180    91903375.770  
G28  22359802.820   117501539.480                                  
G30  21539821.020   113192471.594    21539822.200    84526846.895  
E 7  25394263.100   133447706.875    25394269.760    99652497.496  
E18  28499883.420   149767872.5782                                 
E19  25388900.000   133419547.637    25388904.500    99631471.543  
E21  25072368.520   131756153.668    25072374.560    98389327.160  
E27  23372021.680   122820780.465    23372026.940    91716810.727  
E30  25511731.620   134065021.734    25511737.500   100113481.000  
> 2021  1  4 22 32 56.0000000  0 15       0.000000000000
G 4  23565181.760   123835828.535    23565186.200    92474810.551  
G 5  23782680.860   124978813.578                                  
G 7  20851958.380   109577784.676                                  
G 8  22005284.720   115638487.082    22005285.580    86353413.648  
G 9  20924604.960   109959496.461    20924605.960    82112613.824  
G14  22104664.560   116160770.723                                  
G27  23419869.040   123072187.531    23419869.900    91904555.855  
G28  22359276.360   117498772.930                                  
G30  21539530.040   113190942.473    21539531.220    84525705.020  
E 7  25394735.540   133450189.520    25394742.200    99654351.418  
E18  28498978.280   149763116.0982                                 
E19  25388496.760   133417428.590    25388501.260    99629889.137  
E21  25072051.640   131754488.488    25072057.680    98388083.680  
E27  23372148.360   122821446.184    23372153.620    91717307.852  
E30  25512194.140   134067452.258    25512200.020   100115296.000  
> 2021  1  4 22 32 57.0000000  0 15       0.000000000000
G 4  23565805.380   123839105.641    23565809.820    92477257.738  
G 5  23782507.100   124977900.477                                  
G 7  20851928.720   109577628.809                                  
G 8  22005170.860   115637888.734    22005171.720    86352966.832  
G 9  20924963.800   109961382.156    20924964.800    82114021.977  
G14  22104137.800   116158002.656                                  
G27  23420169.880   123073768.445    23420170.720    91905736.406  
G28  22358749.980   117496006.727                                  
G30  21539239.100   113189413.527    21539240.280    84524563.273  
E 7  25395208.020   133452672.422    25395214.680    99656205.535  
E18  28498073.100   149758359.2892                                 
E19  25388093.580   133415309.809    25388098.080    99628306.930  
E21  25071734.820   131752823.555    25071740.860    98386840.387  
E27  23372275.100   122822112.152    23372280.340    91717805.168  
E30  25512656.660   134069882.801    25512662.540   100117111.016  
> 2021  1  4 22 32 58.0000000  0 15       0.000000000000
G 4  23566429.040   123842382.988    23566433.480    92479705.105  
G 5  23782333.460   124976987.988                                  
G 7  20851899.100   109577473.129                                  
G 8  22005057.120   115637291.031    22005057.980    86352520.496  
G 9  20925322.740   109963268.371    20925323.740    82115430.512  
G14  22103611.120   116155234.949                                  
G27  23420470.840   123075349.977    23420471.680    91906917.418  
G28  22358223.660   117493240.895                                  
G30  21538948.180   113187884.758    21538949.360    84523421.660  
E 7  25395680.560   133455155.570    25395687.200    99658059.832  
E18  28497167.840   149753602.1482                                 
E19  25387690.440   133413191.258    25387694.920    99626724.895  
E21  25071418.040   131751158.891    25071424.100    98385597.293  
E27  23372401.880   122822778.387    23372407.140    91718302.676  
E30  25513119.180   134072313.363    25513125.060   100118926.047  
> 2021  1  4 22 32 59.0000000  0 15       0.000000000000
G 4  23567052.740   123845660.578    23567057.180    92482152.656  
G 5  23782159.940   124976076.094                                  
G 7  20851869.500   109577317.645                                  
G 8  22004943.500   115636693.965    22004944.360    86352074.633  
G 9  20925681.780   109965155.086    20925682.760    82116839.422  
G14  22103084.520   116152467.609                                  
G27  23420771.900   123076932.137    23420772.760    91908098.902  
G28  22357697.400   117490475.430                                  
G30  21538657.300   113186356.168    21538658.480    84522280.180  
E 7  25396153.140   133457638.977    25396159.780    99659914.320  
E18  28496262.520   149748844.6762                                 
E19  25387287.340   133411072.969    25387291.840    99625143.055  
E21  25071101.320   131749494.469    25071107.360    98384354.383  
E27  23372528.720   122823444.883    23372533.960    91718800.387  
E30  25513581.700   134074743.941    25513587.600   100120741.086  
> 2021  1  4 22 33  0.0000000  0 15       0.000000000000
G 4  23567676.480   123848938.402    23567680.940    92484600.379  
G 5  23781986.520   124975164.828                                  
G 7  20851839.960   109577162.352                                  
G 8  22004830.000   115636097.551    22004830.860    86351629.258  
G 9  20926040.900   109967042.301    20926041.880    82118248.703  
G14  22102557.980   116149700.629                                  
G27  23421073.100   123078514.918    23421073.960    91909280.848  
G28  22357171.220   117487710.316                                  
G30  21538366.460   113184827.746    21538367.640    84521138.828  
E 7  25396625.760   133460122.625    25396632.420    99661768.992  
E18  28495357.160   149744086.8712                                 
E19  25386884.300   133408954.926    25386888.780    99623561.402  
E21  25070784.640   131747830.316    25070790.680    98383111.668  
E27  23372655.600   122824111.641    23372660.840    91719298.289  
E30  25514044.240   134077174.547    25514050.120   100122556.145  
> 2021  1  4 22 33  1.0000000  0 15       0.000000000000
G 4  23568300.280   123852216.473    23568304.740    92487048.285  
G 5  23781813.240   124974254.152                                  
G 7  20851810.440   109577007.258                                  
G 8  22004716.620   115635501.766    22004717.500    86351184.355  
G 9  20926400.120   109968930.023    20926401.120    82119658.367  
G14  22102031.520   116146934.016                                  
G27  23421374.420   123080098.324    23421375.260    91910463.258  
G28  22356645.100   117484945.586                                  
G30  21538075.640   113183299.508    21538076.820    84519997.609  
E 7  25397098.440   133462606.520    25397105.080    99663623.848  
E18  28494451.700   149739328.7272                                 
E19  25386481.280   133406837.125    25386485.780    99621979.926  
E21  25070468.020   131746166.410    25070474.060    98381869.141  
E27  23372782.520   122824778.641    23372787.780    91719796.375  
E30  25514506.760   134079605.156    25514512.660   100124371.211  
> 2021  1  4 22 33  2.0000000  0 15       0.000000000000
G 4  23568924.120   123855494.777    23568928.580    92489496.367  
G 5  23781640.060   124973344.090                                  
G 7  20851780.960   109576852.352                                  
G 8  22004603.380   115634906.656    22004604.240    86350739.957  
G 9  20926759.440   109970818.250    20926760.440    82121068.406  
G14  22101505.120   116144167.766                                  
G27  23421675.840   123081682.348    23421676.700    91911646.133  
G28  22356119.060   117482181.191                                  
G30  21537784.860   113181771.438    21537786.040    84518856.520  
E 7  25397571.160   133465090.672    25397577.800    99665478.895  
E18  28493546.200   149734570.2732                                 
E19  25386078.340   133404719.574    25386082.820    99620398.641  
E21  25070151.440   131744502.758    25070157.480    98380626.805  
E27  23372909.500   122825445.918    23372914.760    91720294.664  
E30  25514969.300   134082035.801    25514975.200   100126186.301  
> 2021  1  4 22 33  3.0000000  0 15       0.000000000000
G 4  23569548.020   123858773.336    23569552.460    92491944.641  
G 5  23781466.980   124972434.625                                  
G 7  20851751.520   109576697.633                                  
G 8  22004490.260   115634312.203    22004491.120    86350296.043  
G 9  20927118.860   109972706.988    20927119.840    82122478.824  
G14  22100978.780   116141401.871                                  
G27  23421977.400   123083267.004    23421978.260    91912829.480  
G28  22355593.080   117479417.152                                  
G30  21537494.100   113180243.535    21537495.280    84517715.555  
E 7  25398043.920   133467575.090    25398050.580    99667334.141  
E18  28492640.640   149729811.4802                                 
E19  25385675.420   133402602.270    25385679.920    99618817.535  
E21  25069834.900   131742839.367    25069840.940    98379384.660  
E27  23373036.540   122826113.445    23373041.780    91720793.145  
E30  25515431.840   134084466.457    25515437.740   100128001.398  
> 2021  1  4 22 33  4.0000000  0 15       0.000000000000
G 4  23570171.960   123862052.125    23570176.400    92494393.086  
G 5  23781294.040   124971525.781                                  
G 7  20851722.120   109576543.121                                  
G 8  22004377.260   115633718.395    22004378.120    86349852.617  
G 9  20927478.360   109974596.230    20927479.360    82123889.621  
G14  22100452.520   116138636.359                                  
G27  23422279.060   123084852.273    23422279.920    91914013.285  
G28  22355067.180   117476653.500                                  
G30  21537203.400   113178715.828    21537204.580    84516574.730  
E 7  25398516.740   133470059.738    25398523.400    99669189.559  
E18  28491735.020   149725052.3552                                 
E19  25385272.580   133400485.234    25385277.060    99617236.633  
E21  25069518.420   131741176.234    25069524.460    98378142.711  
E27  23373163.620   122826781.234    23373168.860    91721291.816  
E30  25515894.380   134086897.129    25515900.280   100129816.512  
> 2021  1  4 22 33  5.0000000  0 15       0.000000000000
G 4  23570795.940   123865331.156    23570800.380    92496841.711  
G 5  23781121.200   124970617.520                                  
G 7  20851692.760   109576388.801                                  
G 8  22004264.380   115633125.238    22004265.260    86349409.676  
G 9  20927837.960   109976485.965    20927838.960    82125300.785  
G14  22099926.320   116135871.195                                  
G27  23422580.860   123086438.164    23422581.700    91915197.551  
G28  22354541.340   117473890.191                                  
G30  21536912.720   113177188.289    21536913.900    84515434.035  
E 7  25398989.600   133472544.656    25398996.260    99671045.180  
E18  28490829.320   149720292.9142                                 
E19  25384869.760   133398368.441    25384874.260    99615655.910  
E21  25069201.980   131739513.348    25069208.040    98376900.945  
E27  23373290.740   122827449.285    23373296.000    91721790.684  
E30  25516356.940   134089327.820    25516362.840   100131631.637  
> 2021  1  4 22 33  6.0000000  0 15       0.000000000000
G 4  23571419.960   123868610.434    23571424.420    92499290.520  
G 5  23780948.480   124969709.867                                  
G 7  20851663.420   109576234.672                                  
G 8  22004151.640   115632532.734    22004152.500    86348967.223  
G 9  20928197.680   109978376.219    20928198.660    82126712.336  
G14  22099400.200   116133106.398                                  
G27  23422882.760   123088024.676    23422883.600    91916382.281  
G28  22354015.560   117471127.262                                  
G30  21536622.060   113175660.930    21536623.240    84514293.477  
E 7  25399462.520   133475029.805    25399469.180    99672900.973  
E18  28489923.560   149715533.1372                                 
E19  25384467.000   133396251.898    25384471.480    99614075.375  
E21  25068885.600   131737850.730    25068891.640    98375659.379  
E27  23373417.920   122828117.594    23373423.160    91722289.746  
E30  25516819.480   134091758.531    25516825.380   100133446.777  
> 2021  1  4 22 33  7.0000000  0 15       0.000000000000
G 4  23572044.040   123871889.945    23572048.480    92501739.504  
G 5  23780775.880   124968802.820                                  
G 7  20851634.140   109576080.742                                  
G 8  22004039.020   115631940.875    22004039.880    86348525.246  
G 9  20928557.480   109980266.969    20928558.460    82128124.262  
G14  22098874.140   116130341.969                                  
G27  23423184.780   123089611.809    23423185.640    91917567.477  
G28  22353489.860   117468364.680                                  
G30  21536331.460   113174133.742    21536332.620    84513153.043  
E 7  25399935.480   133477515.223    25399942.140    99674756.957  
E18  28489017.740   149710773.0272                                 
E19  25384064.280   133394135.605    25384068.780    99612495.023  
E21  25068569.260   131736188.367    25068575.320    98374418.004  
E27  23373545.140   122828786.164    23373550.400    91722788.996  
E30  25517282.040   134094189.262    25517287.940   100135261.926  
> 2021  1  4 22 33  8.0000000  0 15       0.000000000000
G 4  23572668.140   123875169.695    23572672.600    92504188.664  
G 5  23780603.400   124967896.375                                  
G 7  20851604.880   109575927.012                                  
G 8  22003926.500   115631349.660    22003927.380    86348083.754  
G 9  20928917.360   109982158.227    20928918.360    82129536.563  
G14  22098348.160   116127577.902                                  
G27  23423486.920   123091199.566    23423487.780    91918753.141  
G28  22352964.240   117465602.480                                  
G30  21536040.880   113172606.734    21536042.060    84512012.746  
E 7  25400408.480   133480000.883    25400415.140    99676613.129  
E18  28488111.860   149706012.5982                                 
E19  25383661.620   133392019.563    25383666.100    99610914.855  
E21  25068252.980   131734526.258    25068259.020    98373176.813  
E27  23373672.420   122829454.992    23373677.680    91723288.445  
E30  25517744.600   134096620.016    25517750.500   100137077.094  
> 2021  1  4 22 33 10.0000000  0 15       0.000000000000
G 4  23573916.520   123881729.918    23573920.980    92509087.531  
G 5  23780258.760   124966085.285                                  
G 7  20851546.480   109575620.133                                  
G 8  22003701.860   115630169.145    22003702.740    86347202.203  
G 9  20929637.440   109985942.262    20929638.440    82132362.305  
G14  22097296.400   116122050.875                                  
G27  23424091.560   123094376.938    23424092.400    91921125.852  
G28  22351913.180   117460079.133                                  
G30  21535459.820   113169553.270    21535461.000    84509732.566  
E 7  25401354.640   133484972.953    25401361.300    99680326.035  
E18  28486299.920   149696490.7462                                 
E19  25382856.420   133387788.234    25382860.920    99607755.094  
E21  25067620.540   131731202.813    25067626.600    98370695.016  
E27  23373927.120   122830793.430    23373932.360    91724287.922  
E30  25518669.720   134101481.570    25518675.620   100140707.473  
> 2021  1  4 22 33 11.0000000  0 15       0.000000000000
G 4  23574540.760   123885010.363    23574545.220    92511537.215  
G 5  23780086.600   124965180.656                                  
G 7  20851517.340   109575466.984                                  
G 8  22003589.720   115629579.871    22003590.600    86346762.160  
G 9  20929997.620   109987835.031    20929998.620    82133775.738  
G14  22096770.620   116119287.906                                  
G27  23424394.040   123095966.570    23424394.900    91922312.918  
G28  22351387.740   117457317.996                                  
G30  21535169.340   113168026.785    21535170.520    84508592.660  
E 7  25401827.780   133487459.367    25401834.460    99682182.766  
E18  28485393.860   149691729.3362                                 
E19  25382453.880   133385672.934    25382458.380    99606175.484  
E21  25067304.400   131729541.473    25067310.460    98369454.402  
E27  23374054.540   122831463.039    23374059.800    91724787.949  
E30  25519132.300   134103912.383    25519138.200   100142522.684  
> 2021  1  4 22 33 13.0000000  0 15       0.000000000000
G 4  23575789.420   123891572.055    23575793.880    92516437.172  
G 5  23779742.660   124963373.191                                  
G 7  20851459.160   109575161.246                                  
G 8  22003365.820   115628403.254    22003366.700    86345883.516  
G 9  20930718.280   109991622.086    20930719.280    82136603.730  
G14  22095719.280   116113763.055                                  
G27  23424999.400   123099147.676    23425000.260    91924688.414  
G28  22350337.100   117451796.828                                  
G30  21534588.480   113164974.363    21534589.660    84506313.250  
E 7  25402774.220   133492432.941    25402780.900    99685896.789  
E18  28483581.540   149682205.5162                                 
E19  25381648.980   133381443.109    25381653.480    99603016.844  
E21  25066672.260   131726219.578    25066678.320    98366973.762  
E27  23374309.520   122832803.016    23374314.780    91725788.578  
E30  25520057.440   134108774.055    25520063.340   100146153.145  
> 2021  1  4 22 33 14.0000000  0 15       0.000000000000
G 4  23576413.800   123894853.242    23576418.260    92518887.410  
G 5  23779570.860   124962470.363                                  
G 7  20851430.120   109575008.676                                  
G 8  22003254.060   115627815.930    22003254.920    86345444.930  
G 9  20931078.740   109993516.371    20931079.740    82138018.293  
G14  22095193.720   116111001.176                                  
G27  23425302.240   123100739.156    23425303.100    91925876.855  
G28  22349811.880   117449036.781                                  
G30  21534298.100   113163448.414    21534299.280    84505173.746  
E 7  25403247.520   133494920.102    25403254.180    99687754.082  
E18  28482675.280   149677443.1092                                 
E19  25381246.600   133379328.566    25381251.100    99601437.797  
E21  25066356.260   131724559.004    25066362.320    98365733.719  
E27  23374437.100   122833473.402    23374442.360    91726289.188  
E30  25520520.020   134111204.918    25520525.920   100147968.395  
> 2021  1  4 22 33 15.0000000  0 15       0.000000000000
G 4  23577038.240   123898134.676    23577042.700    92521337.828  
G 5  23779399.160   124961568.137                                  
G 7  20851401.120   109574856.293                                  
G 8  22003142.420   115627229.270    22003143.280    86345006.840  
G 9  20931439.320   109995411.160    20931440.320    82139433.234  
G14  22094668.220   116108239.652                                  
G27  23425605.220   123102331.270    23425606.080    91927065.770  
G28  22349286.720   117446277.078                                  
G30  21534007.760   113161922.641    21534008.940    84504034.367  
E 7  25403720.860   133497407.516    25403727.520    99689611.559  
E18  28481768.960   149672680.3792                                 
E19  25380844.260   133377214.270    25380848.760    99599858.938  
E21  25066040.320   131722898.688    25066046.380    98364493.867  
E27  23374564.720   122834144.039    23374569.980    91726789.984  
E30  25520982.600   134113635.797    25520988.500   100149783.656  
> 2021  1  4 22 33 16.0000000  0 15       0.000000000000
G 4  23577662.720   123901416.340    23577667.180    92523788.418  
G 5  23779227.600   124960666.520                                  
G 7  20851372.160   109574704.109                                  
G 8  22003030.900   115626643.254    22003031.780    86344569.230  
G 9  20931799.980   109997306.453    20931800.980    82140848.547  
G14  22094142.780   116105478.516                                  
G27  23425908.300   123103923.992    23425909.160    91928255.141  
G28  22348761.660   117443517.773                                  
G30  21533717.440   113160397.043    21533718.620    84502895.121  
E 7  25404194.240   133499895.180    25404200.920    99691469.227  
E18  28480862.580   149667917.3162                                 
E19  25380441.980   133375100.242    25380446.480    99598280.273  
E21  25065724.420   131721238.625    25065730.480    98363254.207  
E27  23374692.380   122834814.938    23374697.640    91727290.973  
E30  25521445.180   134116066.684    25521451.100   100151598.926  
> 2021  1  4 22 33 17.0000000  0 15       0.000000000000
G 4  23578287.260   123904698.254    23578291.720    92526239.199  
G 5  23779056.140   124959765.508                                  
G 7  20851343.240   109574552.125                                  
G 8  22002919.520   115626057.895    22002920.380    86344132.113  
G 9  20932160.740   109999202.266    20932161.740    82142264.250  
G14  22093617.420   116102717.730                                  
G27  23426211.500   123105517.340    23426212.360    91929444.977  
G28  22348236.640   117440758.793                                  
G30  21533427.160   113158871.633    21533428.340    84501756.016  
E 7  25404667.680   133502383.105    25404674.360    99693327.090  
E18  28479956.140   149663153.9262                                 
E19  25380039.740   133372986.457    25380044.240    99596701.793  
E21  25065408.580   131719578.836    25065414.640    98362014.750  
E27  23374820.100   122835486.102    23374825.360    91727792.164  
E30  25521907.780   134118497.609    25521913.680   100153414.219  
> 2021  1  4 22 33 18.0000000  0 15       0.000000000000
G 4  23578911.820   123907980.402    23578916.280    92528690.152  
G 5  23778884.800   124958865.094                                  
G 7  20851314.360   109574400.328                                  
G 8  22002808.260   115625473.172    22002809.120    86343695.469  
G 9  20932521.600   110001098.570    20932522.600    82143680.320  
G14  22093092.140   116099957.316                                  
G27  23426514.820   123107111.316    23426515.680    91930635.285  
G28  22347711.700   117438000.195                                  
G30  21533136.920   113157346.391    21533138.100    84500617.039  
E 7  25405141.160   133504871.258    25405147.840    99695185.117  
E18  28479049.620   149658390.2112                                 
E19  25379637.540   133370872.930    25379642.040    99595123.508  
E21  25065092.780   131717919.285    25065098.840    98360775.473  
E27  23374947.860   122836157.516    23374953.120    91728293.539  
E30  25522370.360   134120928.539    25522376.280   100155229.520  
> 2021  1  4 22 33 19.0000000  0 15       0.000000000000
G 4  23579536.440   123911262.766    23579540.900    92531141.266  
G 5  23778713.560   124957965.285                                  
G 7  20851285.520   109574248.730                                  
G 8  22002697.100   115624889.113    22002697.980    86343259.320  
G 9  20932882.540   110002995.371    20932883.540    82145096.766  
G14  22092566.920   116097197.258                                  
G27  23426818.280   123108705.914    23426819.140    91931826.051  
G28  22347186.820   117435241.953                                  
G30  21532846.700   113155821.313    21532847.880    84499478.184  
E 7  25405614.700   133507359.664    25405621.360    99697043.340  
E18  28478143.060   149653626.1562                                 
E19  25379235.400   133368759.645    25379239.900    99593545.402  
E21  25064777.020   131716260.000    25064783.080    98359536.391  
E27  23375075.680   122836829.191    23375080.940    91728795.109  
E30  25522832.960   134123359.492    25522838.880   100157044.836  
> 2021  1  4 22 33 20.0000000  0 15       0.000000000000
G 4  23580161.120   123914545.414    23580165.580    92533592.590  
G 5  23778542.460   124957066.094                                  
G 7  20851256.700   109574097.328                                  
G 8  22002586.100   115624305.711    22002586.960    86342823.660  
G 9  20933243.600   110004892.684    20933244.580    82146513.586  
G14  22092041.760   116094437.566                                  
G27  23427121.840   123110301.125    23427122.680    91933017.281  
G28  22346662.000   117432484.074                                  
G30  21532556.540   113154296.434    21532557.720    84498339.473  
E 7  25406088.280   133509848.332    25406094.940    99698901.754  
E18  28477236.420   149648861.7852                                 
E19  25378833.300   133366646.602    25378837.800    99591967.477  
E21  25064461.320   131714600.969    25064467.380    98358297.500  
E27  23375203.540   122837501.125    23375208.820    91729296.875  
E30  25523295.560   134125790.461    25523301.480   100158860.164  
> 2021  1  4 22 33 21.0000000  0 15       0.000000000000
G 4  23580785.820   123917828.281    23580790.280    92536044.078  
G 5  23778371.460   124956167.504                                  
G 7  20851227.920   109573946.117                                  
G 8  22002475.200   115623722.961    22002476.060    86342388.488  
G 9  20933604.740   110006790.504    20933605.740    82147930.789  
G14  22091516.680   116091678.246                                  
G27  23427425.500   123111896.957    23427426.360    91934208.973  
G28  22346137.260   117429726.559                                  
G30  21532266.400   113152771.719    21532267.560    84497200.887  
E 7  25406561.900   133512337.242    25406568.580    99700760.352  
E18  28476329.740   149644097.0702                                 
E19  25378431.240   133364533.820    25378435.760    99590389.746  
E21  25064145.660   131712942.188    25064151.720    98357058.797  
E27  23375331.460   122838173.316    23375336.720    91729798.832  
E30  25523758.160   134128221.445    25523764.080   100160675.504  
> 2021  1  4 22 33 22.0000000  0 15       0.000000000000
G 4  23581410.580   123921111.387    23581415.040    92538495.750  
G 5  23778200.580   124955269.516                                  
G 7  20851199.180   109573795.102                                  
G 8  22002364.420   115623140.840    22002365.280    86341953.789  
G 9  20933965.980   110008688.816    20933966.980    82149348.359  
G14  22090991.660   116088919.289                                  
G27  23427729.300   123113493.418    23427730.160    91935401.133  
G28  22345612.600   117426969.414                                  
G30  21531976.280   113151247.184    21531977.460    84496062.438  
E 7  25407035.580   133514826.406    25407042.240    99702619.137  
E18  28475422.980   149639332.0432                                 
E19  25378029.240   133362421.297    25378033.760    99588812.207  
E21  25063830.060   131711283.672    25063836.120    98355820.289  
E27  23375459.420   122838845.762    23375464.700    91730300.980  
E30  25524220.780   134130652.457    25524226.680   100162490.867  
> 2021  1  4 22 33 23.0000000  0 15       0.000000000000
G 4  23582035.380   123924394.730    23582039.840    92540947.594  
G 5  23778029.820   124954372.137                                  
G 7  20851170.480   109573644.277                                  
G 8  22002253.780   115622559.379    22002254.640    86341519.582  
G 9  20934327.300   110010587.637    20934328.300    82150766.309  
G14  22090466.720   116086160.688                                  
G27  23428033.220   123115090.500    23428034.080    91936593.758  
G28  22345088.000   117424212.629                                  
G30  21531686.200   113149722.824    21531687.380    84494924.113  
E 7  25407509.300   133517315.816    25407515.960    99704478.113  
E18  28474516.160   149634566.6842                                 
E19  25377627.300   133360309.023    25377631.800    99587234.859  
E21  25063514.500   131709625.414    25063520.560    98354581.980  
E27  23375587.440   122839518.469    23375592.700    91730803.324  
E30  25524683.380   134133083.480    25524689.300   100164306.238  
> 2021  1  4 22 33 24.0000000  0 15       0.000000000000
G 4  23582660.220   123927678.285    23582664.680    92543399.598  
G 5  23777859.160   124953475.344                                  
G 7  20851141.820   109573493.656                                  
G 8  22002143.240   115621978.555    22002144.120    86341085.852  
G 9  20934688.740   110012486.965    20934689.740    82152184.637  
G14  22089941.840   116083402.461                                  
G27  23428337.260   123116688.191    23428338.120    91937786.840  
G28  22344563.480   117421456.199                                  
G30  21531396.160   113148198.645    21531397.340    84493785.926  
E 7  25407983.060   133519805.477    25407989.740    99706337.273  
E18  28473609.280   149629800.9882                                 
E19  25377225.380   133358196.988    25377229.900    99585657.691  
E21  25063199.000   131707967.406    25063205.060    98353343.859  
E27  23375715.500   122840191.434    23375720.760    91731305.863  
E30  25525146.000   134135514.527    25525151.900   100166121.629  
> 2021  1  4 22 33 25.0000000  0 15       0.000000000000
G 4  23583285.120   123930962.137    23583289.580    92545851.820  
G 5  23777688.620   124952579.164                                  
G 7  20851113.200   109573343.223                                  
G 8  22002032.840   115621398.395    22002033.720    86340652.613  
G 9  20935050.260   110014386.809    20935051.260    82153603.352  
G14  22089417.040   116080644.590                                  
G27  23428641.400   123118286.504    23428642.260    91938980.383  
G28  22344039.000   117418700.129                                  
G30  21531106.160   113146674.648    21531107.340    84492647.879  
E 7  25408456.880   133522295.387    25408463.560    99708196.621  
E18  28472702.340   149625034.9692                                 
E19  25376823.520   133356085.203    25376828.040    99584080.711  
E21  25062883.540   131706309.645    25062889.600    98352105.918  
E27  23375843.600   122840864.652    23375848.880    91731808.594  
E30  25525608.620   134137945.582    25525614.520   100167937.027  
> 2021  1  4 22 33 26.0000000  0 15       0.000000000000
G 4  23583910.040   123934246.180    23583914.520    92548304.191  
G 5  23777518.200   124951683.582                                  
G 7  20851084.620   109573192.988                                  
G 8  22001922.580   115620818.902    22001923.440    86340219.875  
G 9  20935411.900   110016287.145    20935412.880    82155022.434  
G14  22088892.320   116077887.094                                  
G27  23428945.660   123119885.441    23428946.540    91940174.395  
G28  22343514.620   117415944.438                                  
G30  21530816.180   113145150.816    21530817.360    84491509.953  
E 7  25408930.740   133524785.547    25408937.420    99710056.152  
E18  28471795.320   149620268.6172                                 
E19  25376421.720   133353973.676    25376426.220    99582503.922  
E21  25062568.120   131704652.160    25062574.180    98350868.188  
E27  23375971.760   122841538.137    23375977.040    91732311.516  
E30  25526071.240   134140376.660    25526077.140   100169752.441  
> 2021  1  4 22 33 27.0000000  0 15       0.000000000000
G 4  23584535.040   123937530.477    23584539.500    92550756.750  
G 5  23777347.900   124950788.613                                  
G 7  20851056.060   109573042.945                                  
G 8  22001812.420   115620240.043    22001813.280    86339787.609  
G 9  20935773.600   110018187.984    20935774.600    82156441.891  
G14  22088367.640   116075129.957                                  
G27  23429250.060   123121485.012    23429250.920    91941368.875  
G28  22342990.300   117413189.098                                  
G30  21530526.240   113143627.164    21530527.420    84490372.160  
E 7  25409404.640   133527275.957    25409411.320    99711915.875  
E18  28470888.260   149615501.9532                                 
E19  25376019.960   133351862.398    25376024.460    99580927.316  
E21  25062252.760   131702994.926    25062258.820    98349630.645  
E27  23376099.980   122842211.875    23376105.240    91732814.633  
E30  25526533.860   134142807.762    25526539.760   100171567.871  
> 2021  1  4 22 33 28.0000000  0 15       0.000000000000
G 4  23585160.060   123940815.020    23585164.520    92553209.488  
G 5  23777177.700   124949894.230                                  
G 7  20851027.540   109572893.098                                  
G 8  22001702.400   115619661.840    22001703.260    86339355.836  
G 9  20936135.420   110020089.328    20936136.420    82157861.723  
G14  22087843.040   116072373.188                                  
G27  23429554.560   123123085.188    23429555.420    91942563.813  
G28  22342466.040   117410434.133                                  
G30  21530236.340   113142103.691    21530237.520    84489234.504  
E 7  25409878.600   133529766.617    25409885.280    99713775.781  
E18  28469981.140   149610734.9532                                 
E19  25375618.240   133349751.383    25375622.740    99579350.910  
E21  25061937.440   131701337.930    25061943.500    98348393.277  
E27  23376228.240   122842885.863    23376233.500    91733317.938  
E30  25526996.480   134145238.867    25527002.400   100173383.305  
> 2021  1  4 22 33 29.0000000  0 15       0.000000000000
G 4  23585785.140   123944099.805    23585789.600    92555662.410  
G 5  23777007.620   124949000.457                                  
G 7  20850999.060   109572743.445                                  
G 8  22001592.480   115619084.281    22001593.360    86338924.539  
G 9  20936497.340   110021991.172    20936498.340    82159281.930  
G14  22087318.520   116069616.793                                  
G27  23429859.180   123124685.992    23429860.040    91943759.219  
G28  22341941.860   117407679.535                                  
G30  21529946.460   113140580.391    21529947.640    84488096.973  
E 7  25410352.600   133532257.520    25410359.280    99715635.871  
E18  28469073.940   149605967.6212                                 
E19  25375216.580   133347640.602    25375221.080    99577774.676  
E21  25061622.180   131699681.215    25061628.240    98347156.121  
E27  23376356.540   122843560.125    23376361.800    91733821.441  
E30  25527459.100   134147669.996    25527465.020   100175198.758  
> 2021  1  4 22 33 30.0000000  0 15       0.000000000000
G 4  23586410.260   123947384.816    23586414.720    92558115.500  
G 5  23776837.660   124948107.289                                  
G 7  20850970.620   109572593.980                                  
G 8  22001482.700   115618507.395    22001483.580    86338493.746  
G 9  20936859.340   110023893.527    20936860.340    82160702.520  
G14  22086794.060   116066860.750                                  
G27  23430163.920   123126287.410    23430164.780    91944955.078  
G28  22341417.740   117404925.289                                  
G30  21529656.620   113139057.266    21529657.800    84486959.574  
E 7  25410826.660   133534748.684    25410833.340    99717496.156  
E18  28468166.680   149601199.9612                                 
E19  25374814.960   133345530.086    25374819.460    99576198.645  
E21  25061306.960   131698024.746    25061313.020    98345919.145  
E27  23376484.900   122844234.641    23376490.160    91734325.141  
E30  25527921.740   134150101.148    25527927.660   100177014.227  
> 2021  1  4 22 33 31.0000000  0 15       0.000000000000
G 4  23587035.420   123950670.070    23587039.880    92560568.773  
G 5  23776667.800   124947214.734                                  
G 7  20850942.220   109572444.719                                  
G 8  22001373.060   115617931.156    22001373.920    86338063.438  
G 9  20937221.440   110025796.383    20937222.440    82162123.484  
G14  22086269.680   116064105.086                                  
G27  23430468.780   123127889.449    23430469.640    91946151.406  
G28  22340893.700   117402171.410                                  
G30  21529366.800   113137534.316    21529367.980    84485822.305  
E 7  25411300.760   133537240.094    25411307.440    99719356.621  
E18  28467259.360   149596431.9772                                 
E19  25374413.380   133343419.809    25374417.900    99574622.789  
E21  25060991.800   131696368.531    25060997.860    98344682.363  
E27  23376613.300   122844909.406    23376618.560    91734829.023  
E30  25528384.380   134152532.316    25528390.300   100178829.707  
> 2021  1  4 22 33 32.0000000  0 15       0.000000000000
G 4  23587660.620   123953955.570    23587665.100    92563022.230  
G 5  23776498.080   124946322.770                                  
G 7  20850913.860   109572295.648                                  
G 8  22001263.520   115617355.559    22001264.380    86337633.609  
G 9  20937583.640   110027699.754    20937584.640    82163544.828  
G14  22085745.360   116061349.770                                  
G27  23430773.760   123129492.109    23430774.620    91947348.199  
G28  22340369.720   117399417.895                                  
G30  21529077.040   113136011.547    21529078.220    84484685.172  
E 7  25411774.900   133539731.750    25411781.580    99721217.273  
E18  28466351.980   149591663.6722                                 
E19  25374011.860   133341309.785    25374016.360    99573047.121  
E21  25060676.680   131694712.574    25060682.740    98343445.770  
E27  23376741.760   122845584.438    23376747.020    91735333.105  
E30  25528847.020   134154963.496    25528852.940   100180645.199  
> 2021  1  4 22 33 33.0000000  0 15       0.000000000000
G 4  23588285.880   123957241.297    23588290.340    92565475.855  
G 5  23776328.460   124945431.422                                  
G 7  20850885.520   109572146.770                                  
G 8  22001154.120   115616780.621    22001154.980    86337204.273  
G 9  20937945.940   110029603.609    20937946.940    82164966.539  
G14  22085221.120   116058594.828                                  
G27  23431078.860   123131095.391    23431079.720    91948545.449  
G28  22339845.800   117396664.723                                  
G30  21528787.300   113134488.961    21528788.480    84483548.176  
E 7  25412249.100   133542223.652    25412255.780    99723078.105  
E18  28465444.540   149586895.0232                                 
E19  25373610.380   133339200.027    25373614.900    99571471.652  
E21  25060361.620   131693056.871    25060367.680    98342209.367  
E27  23376870.260   122846259.723    23376875.520    91735837.375  
E30  25529309.660   134157394.691    25529315.580   100182460.699  
> 2021  1  4 22 33 34.0000000  0 15       0.000000000000
G 4  23588911.180   123960527.289    23588915.660    92567929.680  
G 5  23776158.960   124944540.672                                  
G 7  20850857.240   109571998.082                                  
G 8  22001044.820   115616206.324    22001045.700    86336775.414  
G 9  20938308.320   110031507.973    20938309.320    82166388.629  
G14  22084696.940   116055840.250                                  
G27  23431384.060   123132699.285    23431384.940    91949743.164  
G28  22339321.960   117393911.930                                  
G30  21528497.580   113132966.531    21528498.760    84482411.297  
E 7  25412723.340   133544715.805    25412730.020    99724939.129  
E18  28464537.040   149582126.0552                                 
E19  25373208.960   133337090.500    25373213.460    99569896.352  
E21  25060046.580   131691401.414    25060052.660    98340973.152  
E27  23376998.800   122846935.258    23377004.080    91736341.832  
E30  25529772.300   134159825.898    25529778.220   100184276.211  
> 2021  1  4 22 33 35.0000000  0 15       0.000000000000
G 4  23589536.540   123963813.477    23589541.000    92570383.648  
G 5  23775989.560   124943650.531                                  
G 7  20850828.980   109571849.602                                  
G 8  22000935.660   115615632.680    22000936.540    86336347.043  
G 9  20938670.800   110033412.855    20938671.800    82167811.105  
G14  22084172.820   116053086.047                                  
G27  23431689.400   123134303.809    23431690.260    91950941.348  
G28  22338798.200   117391159.500                                  
G30  21528207.920   113131444.289    21528209.100    84481274.559  
E 7  25413197.640   133547208.207    25413204.320    99726800.340  
E18  28463629.480   149577356.7582                                 
E19  25372807.580   133334981.246    25372812.080    99568321.262  
E21  25059731.620   131689746.230    25059737.680    98339737.137  
E27  23377127.400   122847611.066    23377132.680    91736846.492  
E30  25530234.960   134162257.145    25530240.880   100186091.750  
> 2021  1  4 22 33 36.0000000  0 15       0.000000000000
G 4  23590161.920   123967099.926    23590166.380    92572837.813  
G 5  23775820.300   124942761.000                                  
G 7  20850800.760   109571701.316                                  
G 8  22000826.620   115615059.668    22000827.500    86335919.145  
G 9  20939033.400   110035318.234    20939034.400    82169233.949  
G14  22083648.780   116050332.203                                  
G27  23431994.840   123135908.953    23431995.720    91952139.992  
G28  22338274.500   117388407.438                                  
G30  21527918.280   113129922.227    21527919.460    84480137.953  
E 7  25413671.980   133549700.863    25413678.660    99728661.734  
E18  28462721.840   149572587.1332                                 
E19  25372406.240   133332872.234    25372410.760    99566746.348  
E21  25059416.700   131688091.297    25059422.760    98338501.309  
E27  23377256.060   122848287.125    23377261.320    91737351.340  
E30  25530697.600   134164688.395    25530703.520   100187907.293  
> 2021  1  4 22 33 37.0000000  0 15       0.000000000000
G 4  23590787.360   123970386.637    23590791.840    92575292.172  
G 5  23775651.140   124941872.059                                  
G 7  20850772.580   109571553.211                                  
G 8  22000717.720   115614487.332    22000718.580    86335491.750  
G 9  20939396.060   110037224.113    20939397.060    82170657.172  
G14  22083124.820   116047578.730                                  
G27  23432300.420   123137514.711    23432301.280    91953339.094  
G28  22337750.860   117385655.738                                  
G30  21527628.680   113128400.344    21527629.860    84479001.484  
E 7  25414146.360   133552193.758    25414153.040    99730523.313  
E18  28461814.160   149567817.1802                                 
E19  25372004.960   133330763.461    25372009.460    99565171.617  
E21  25059101.820   131686436.617    25059107.880    98337265.672  
E27  23377384.760   122848963.434    23377390.020    91737856.375  
E30  25531160.260   134167119.664    25531166.180   100189722.848  
> 2021  1  4 22 33 38.0000000  0 15       0.000000000000
G 4  23591412.840   123973673.535    23591417.300    92577746.672  
G 5  23775482.100   124940983.734                                  
G 7  20850744.440   109571405.309                                  
G 8  22000608.940   115613915.656    22000609.800    86335064.848  
G 9  20939758.840   110039130.500    20939759.840    82172080.773  
G14  22082600.920   116044825.625                                  
G27  23432606.100   123139121.098    23432606.960    91954538.668  
G28  22337227.300   117382904.387                                  
G30  21527339.100   113126878.633    21527340.280    84477865.141  
E 7  25414620.780   133554686.922    25414627.460    99732385.086  
E18  28460906.400   149563046.8872                                 
E19  25371603.720   133328654.961    25371608.240    99563597.086  
E21  25058787.000   131684782.199    25058793.060    98336030.230  
E27  23377513.500   122849640.016    23377518.780    91738361.617  
E30  25531622.920   134169550.949    25531628.840   100191538.418  
> 2021  1  4 22 33 39.0000000  0 15       0.000000000000
G 4  23592038.360   123976960.707    23592042.840    92580201.375  
G 5  23775313.160   124940096.023                                  
G 7  20850716.320   109571257.602                                  
G 8  22000500.260   115613344.613    22000501.140    86334638.422  
G 9  20940121.700   110041037.375    20940122.700    82173504.734  
G14  22082077.080   116042072.863                                  
G27  23432911.900   123140728.098    23432912.780    91955738.699  
G28  22336703.800   117380153.434                                  
G30  21527049.560   113125357.105    21527050.740    84476728.934  
E 7  25415095.260   133557180.313    25415101.940    99734247.035  
E18  28459998.580   149558276.3052                                 
E19  25371202.540   133326546.699    25371207.040    99562022.734  
E21  25058472.220   131683128.043    25058478.280    98334794.984  
E27  23377642.300   122850316.844    23377647.580    91738867.039  
E30  25532085.580   134171982.246    25532091.500   100193353.996  
> 2021  1  4 22 33 40.0000000  0 15       0.000000000000
G 4  23592663.940   123980248.125    23592668.420    92582656.266  
G 5  23775144.360   124939208.910                                  
G 7  20850688.260   109571110.090                                  
G 8  22000391.720   115612774.199    22000392.580    86334212.461  
G 9  20940484.680   110042944.766    20940485.680    82174929.086  
G14  22081553.320   116039320.492                                  
G27  23433217.820   123142335.727    23433218.700    91956939.199  
G28  22336180.380   117377402.816                                  
G30  21526760.060   113123835.750    21526761.240    84475592.855  
E 7  25415569.800   133559673.965    25415576.480    99736109.176  
E18  28459090.700   149553505.3672                                 
E19  25370801.400   133324438.703    25370805.900    99560448.582  
E21  25058157.480   131681474.125    25058163.540    98333559.918  
E27  23377771.140   122850993.926    23377776.420    91739372.652  
E30  25532548.240   134174413.473    25532554.160   100195169.523  
> 2021  1  4 22 33 41.0000000  0 15       0.000000000000
G 4  23593289.560   123983535.770    23593294.040    92585111.324  
G 5  23774975.660   124938322.398                                  
G 7  20850660.220   109570962.770                                  
G 8  22000283.300   115612204.438    22000284.160    86333786.988  
G 9  20940847.740   110044852.664    20940848.740    82176353.813  
G14  22081029.640   116036568.480                                  
G27  23433523.860   123143943.965    23433524.740    91958140.156  
G28  22335657.040   117374652.578                                  
G30  21526470.580   113122314.566    21526471.760    84474456.910  
E 7  25416044.360   133562167.871    25416051.060    99737971.508  
E18  28458182.760   149548734.1212                                 
E19  25370400.300   133322330.949    25370404.820    99558874.613  
E21  25057842.800   131679820.480    25057848.880    98332325.051  
E27  23377900.040   122851671.270    23377905.320    91739878.461  
E30  25533010.900   134176844.809    25533016.820   100196985.129  
> 2021  1  4 22 33 42.0000000  0 15       0.000000000000
G 4  23593915.220   123986823.648    23593919.700    92587566.555  
G 5  23774807.080   124937436.492                                  
G 7  20850632.220   109570815.645                                  
G 8  22000175.000   115611635.336    22000175.860    86333362.012  
G 9  20941210.900   110046761.070    20941211.900    82177778.922  
G14  22080506.020   116033816.828                                  
G27  23433830.020   123145552.832    23433830.880    91959341.582  
G28  22335133.740   117371902.680                                  
G30  21526181.160   113120793.566    21526182.340    84473321.098  
E 7  25416518.980   133564662.008    25416525.680    99739834.012  
E18  28457274.760   149543962.5232                                 
E19  25369999.260   133320223.445    25370003.760    99557300.828  
E21  25057528.180   131678167.078    25057534.240    98331090.371  
E27  23378028.980   122852348.879    23378034.260    91740384.469  
E30  25533473.580   134179276.164    25533479.500   100198800.750  
> 2021  1  4 22 33 44.0000000  0 15       0.000000000000
G 4  23595166.680   123993400.082    23595171.160    92592477.523  
G 5  23774470.260   124935666.500                                  
G 7  20850576.340   109570521.980                                  
G 8  21999958.780   115610499.082    21999959.640    86332513.512  
G 9  20941937.500   110050579.371    20941938.500    82180630.246  
G14  22079458.980   116028314.629                                  
G27  23434442.680   123148772.410    23434443.560    91961745.809  
G28  22334087.380   117366404.012                                  
G30  21525602.380   113117752.094    21525603.560    84471049.867  
E 7  25417468.380   133569651.047    25417475.060    99743559.590  
E18  28455458.560   149534418.3712                                 
E19  25369197.320   133316009.191    25369201.820    99554153.816  
E21  25056899.060   131674861.047    25056905.120    98328621.578  
E27  23378287.020   122853704.852    23378292.280    91741397.043  
E30  25534398.920   134184138.914    25534404.840   100202432.020  
> 2021  1  4 22 33 45.0000000  0 15       0.000000000000
G 4  23595792.480   123996688.691    23595796.960    92594933.301  
G 5  23774302.020   124934782.414                                  
G 7  20850548.460   109570375.438                                  
G 8  21999850.860   115609931.930    21999851.720    86332089.988  
G 9  20942300.940   110052489.281    20942301.940    82182056.480  
G14  22078935.560   116025564.078                                  
G27  23434749.200   123150383.133    23434750.060    91962948.621  
G28  22333564.300   117363655.215                                  
G30  21525313.040   113116231.621    21525314.220    84469914.449  
E 7  25417943.140   133572145.945    25417949.820    99745422.660  
E18  28454550.380   149529645.8052                                 
E19  25368796.420   133313902.461    25368800.920    99552580.609  
E21  25056584.580   131673208.418    25056590.640    98327387.473  
E27  23378416.120   122854383.223    23378421.380    91741903.621  
E30  25534861.600   134186570.320    25534867.520   100204247.680  
> 2021  1  4 22 33 46.0000000  0 15       0.000000000000
G 4  23596418.340   123999977.531    23596422.800    92597389.254  
G 5  23774133.880   124933899.055                                  
G 7  20850520.620   109570229.008                                  
G 8  21999743.040   115609365.414    21999743.920    86331666.938  
G 9  20942664.500   110054399.598    20942665.520    82183482.957  
G14  22078412.220   116022813.871                                  
G27  23435055.800   123151994.617    23435056.640    91964152.090  
G28  22333041.280   117360906.836                                  
G30  21525023.740   113114711.305    21525024.920    84468779.137  
E 7  25418417.940   133574641.078    25418424.640    99747285.902  
E18  28453642.080   149524873.0902                                 
E19  25368395.560   133311795.992    25368400.060    99551007.613  
E21  25056270.140   131671556.047    25056276.200    98326153.559  
E27  23378545.260   122855061.805    23378550.540    91742410.320  
E30  25535324.260   134189001.859    25535330.180   100206063.512  
> 2021  1  4 22 33 47.0000000  0 15       0.000000000000
G 4  23597044.220   124003266.613    23597048.700    92599845.387  
G 5  23773965.860   124933016.176                                  
G 7  20850492.800   109570082.863                                  
G 8  21999635.360   115608799.563    21999636.240    86331244.391  
G 9  20943028.140   110056310.523    20943029.140    82184909.945  
G14  22077888.960   116020064.066                                  
G27  23435362.540   123153606.590    23435363.400    91965355.832  
G28  22332518.340   117358158.777                                  
G30  21524734.480   113113191.203    21524735.660    84467643.996  
E 7  25418892.800   133577136.480    25418899.480    99749149.352  
E18  28452733.780   149520099.8872                                 
E19  25367994.760   133309689.770    25367999.260    99549434.785  
E21  25055955.760   131669903.945    25055961.820    98324919.848  
E27  23378674.440   122855740.711    23378679.720    91742917.297  
E30  25535786.960   134191433.309    25535792.860   100207879.203  
> 2021  1  4 22 33 48.0000000  0 15       0.000000000000
G 4  23597670.160   124006555.918    23597674.620    92602301.684  
G 5  23773797.980   124932133.918                                  
G 7  20850465.040   109569936.910                                  
G 8  21999527.820   115608234.371    21999528.680    86330822.332  
G 9  20943391.860   110058221.941    20943392.880    82186337.301  
G14  22077365.740   116017314.617                                  
G27  23435669.400   123155219.172    23435670.260    91966560.035  
G28  22331995.460   117355411.070                                  
G30  21524445.240   113111671.250    21524446.420    84466508.965  
E 7  25419367.700   133579632.121    25419374.400    99751012.980  
E18  28451825.400   149515326.3362                                 
E19  25367594.000   133307583.793    25367598.500    99547862.141  
E21  25055641.420   131668252.094    25055647.480    98323686.324  
E27  23378803.680   122856419.855    23378808.960    91743424.449  
E30  25536249.640   134193864.770    25536255.540   100209694.902  
> 2021  1  4 22 33 49.0000000  0 15       0.000000000000
G 4  23598296.140   124009845.469    23598300.600    92604758.164  
G 5  23773630.200   124931252.254                                  
G 7  20850437.300   109569791.164                                  
G 8  21999420.380   115607669.820    21999421.240    86330400.750  
G 9  20943755.680   110060133.867    20943756.700    82187765.039  
G14  22076842.620   116014565.543                                  
G27  23435976.380   123156832.383    23435977.240    91967764.703  
G28  22331472.660   117352663.738                                  
G30  21524156.040   113110151.508    21524157.220    84465374.090  
E 7  25419842.660   133582128.016    25419849.340    99752876.797  
E18  28450916.960   149510552.4802                                 
E19  25367193.300   133305478.074    25367197.800    99546289.688  
E21  25055327.120   131666600.492    25055333.180    98322452.984  
E27  23378932.960   122857099.266    23378938.240    91743931.801  
E30  25536712.340   134196296.242    25536718.240   100211510.613  
> 2021  1  4 22 33 50.0000000  0 15       0.000000000000
G 4  23598922.160   124013135.262    23598926.640    92607214.828  
G 5  23773462.540   124930371.199                                  
G 7  20850409.600   109569645.613                                  
G 8  21999313.060   115607105.898    21999313.940    86329979.641  
G 9  20944119.600   110062046.301    20944120.620    82189193.156  
G14  22076319.560   116011816.836                                  
G27  23436283.480   123158446.203    23436284.340    91968969.832  
G28  22330949.940   117349916.785                                  
G30  21523866.860   113108631.926    21523868.040    84464239.340  
E 7  25420317.660   133584624.164    25420324.340    99754740.801  
E18  28450008.460   149505778.2852                                 
E19  25366792.640   133303372.590    25366797.140    99544717.414  
E21  25055012.880   131664949.152    25055018.940    98321219.840  
E27  23379062.300   122857778.938    23379067.580    91744439.348  
E30  25537175.040   134198727.738    25537180.940   100213326.340  
> 2021  1  4 22 33 51.0000000  0 15       0.000000000000
G 4  23599548.220   124016425.285    23599552.700    92609671.664  
G 5  23773294.980   124929490.738                                  
G 7  20850381.940   109569500.250                                  
G 8  21999205.880   115606542.660    21999206.760    86329559.039  
G 9  20944483.620   110063959.238    20944484.640    82190621.645  
G14  22075796.560   116009068.496                                  
G27  23436590.700   123160060.648    23436591.560    91970175.422  
G28  22330427.260   117347170.184                                  
G30  21523577.740   113107112.527    21523578.920    84463104.727  
E 7  25420792.700   133587120.559    25420799.400    99756604.992  
E18  28449099.900   149501003.7702                                 
E19  25366392.020   133301267.387    25366396.520    99543145.348  
E21  25054698.680   131663298.070    25054704.740    98319986.891  
E27  23379191.680   122858458.855    23379196.960    91744947.082  
E30  25537637.740   134201159.250    25537643.640   100215142.078  
> 2021  1  4 22 33 52.0000000  0 15       0.000000000000
G 4  23600174.340   124019715.539    23600178.820    92612128.668  
G 5  23773127.560   124928610.887                                  
G 7  20850354.300   109569355.090                                  
G 8  21999098.820   115605980.070    21999099.700    86329138.926  
G 9  20944847.740   110065872.680    20944848.760    82192050.512  
G14  22075273.620   116006320.512                                  
G27  23436898.040   123161675.707    23436898.880    91971381.473  
G28  22329904.680   117344423.941                                  
G30  21523288.640   113105593.305    21523289.820    84461970.238  
E 7  25421267.800   133589617.203    25421274.480    99758469.371  
E18  28448191.260   149496228.9222                                 
E19  25365991.460   133299162.402    25365995.960    99541573.441  
E21  25054384.540   131661647.230    25054390.600    98318754.121  
E27  23379321.120   122859139.035    23379326.400    91745455.004  
E30  25538100.440   134203590.781    25538106.340   100216957.832  
> 2021  1  4 22 33 53.0000000  0 15       0.000000000000
G 4  23600800.500   124023006.020    23600804.980    92614585.844  
G 5  23772960.240   124927731.637                                  
G 7  20850326.720   109569210.121                                  
G 8  21998991.900   115605418.152    21998992.760    86328719.313  
G 9  20945211.940   110067786.621    20945212.960    82193479.758  
G14  22074750.780   116003572.902                                  
G27  23437205.500   123163291.395    23437206.340    91972587.992  
G28  22329382.160   117341678.074                                  
G30  21522999.560   113104074.254    21523000.740    84460835.887  
E 7  25421742.940   133592114.090    25421749.620    99760333.926  
E18  28447282.580   149491453.7502                                 
E19  25365590.940   133297057.699    25365595.440    99540001.750  
E21  25054070.440   131659996.660    25054076.500    98317521.551  
E27  23379450.600   122859819.480    23379455.880    91745963.133  
E30  25538563.140   134206022.328    25538569.040   100218773.594  
> 2021  1  4 22 33 54.0000000  0 15       0.000000000000
G 4  23601426.700   124026296.758    23601431.180    92617043.211  
G 5  23772793.040   124926852.988                                  
G 7  20850299.160   109569065.344                                  
G 8  21998885.080   115604856.875    21998885.960    86328300.176  
G 9  20945576.260   110069701.066    20945577.280    82194909.375  
G14  22074227.980   116000825.660                                  
G27  23437513.060   123164907.699    23437513.900    91973794.973  
G28  22328859.700   117338932.555                                  
G30  21522710.520   113102555.387    21522711.720    84459701.664  
E 7  25422218.120   133594611.227    25422224.820    99762198.672  
E18  28446373.820   149486678.2462                                 
E19  25365190.480   133294953.242    25365194.980    99538430.238  
E21  25053756.400   131658346.336    25053762.460    98316289.168  
E27  23379580.140   122860500.176    23379585.400    91746471.441  
E30  25539025.860   134208453.883    25539031.760   100220589.367  
> 2021  1  4 22 33 55.0000000  0 15       0.000000000000
G 4  23602052.960   124029587.754    23602057.440    92619500.773  
G 5  23772625.940   124925974.953                                  
G 7  20850271.660   109568920.770                                  
G 8  21998778.400   115604296.230    21998779.260    86327881.516  
G 9  20945940.660   110071616.023    20945941.680    82196339.375  
G14  22073705.280   115998078.789                                  
G27  23437820.760   123166524.629    23437821.600    91975002.418  
G28  22328337.300   117336187.418                                  
G30  21522421.540   113101036.695    21522422.720    84458567.578  
E 7  25422693.360   133597108.617    25422700.040    99764063.605  
E18  28445465.020   149481902.4222                                 
E19  25364790.060   133292849.035    25364794.560    99536858.918  
E21  25053442.400   131656696.285    25053448.460    98315056.988  
E27  23379709.720   122861181.129    23379714.980    91746979.945  
E30  25539488.560   134210885.469    25539494.460   100222405.160  
> 2021  1  4 22 33 56.0000000  0 15       0.000000000000
G 4  23602679.260   124032878.969    23602683.720    92621958.496  
G 5  23772458.980   124925097.516                                  
G 7  20850244.180   109568776.379                                  
G 8  21998671.840   115603736.254    21998672.700    86327463.348  
G 9  20946305.160   110073531.473    20946306.160    82197769.742  
G14  22073182.620   115995332.270                                  
G27  23438128.560   123168142.168    23438129.400    91976210.320  
G28  22327814.980   117333442.629                                  
G30  21522132.560   113099518.168    21522133.740    84457433.613  
E 7  25423168.640   133599606.250    25423175.340    99765928.719  
E18  28444556.140   149477126.2702                                 
E19  25364389.680   133290745.074    25364394.180    99535287.777  
E21  25053128.460   131655046.492    25053134.520    98313825.000  
E27  23379839.340   122861862.332    23379844.620    91747488.637  
E30  25539951.280   134213317.063    25539957.180   100224220.961  
> 2021  1  4 22 33 57.0000000  0 15       0.000000000000
G 4  23603305.600   124036170.418    23603310.060    92624416.398  
G 5  23772292.120   124924220.691                                  
G 7  20850216.740   109568632.188                                  
G 8  21998565.400   115603176.918    21998566.260    86327045.664  
G 9  20946669.740   110075447.430    20946670.760    82199200.488  
G14  22072660.060   115992586.141                                  
G27  23438436.480   123169760.328    23438437.320    91977418.688  
G28  22327292.740   117330698.191                                  
G30  21521843.640   113097999.832    21521844.820    84456299.793  
E 7  25423643.980   133602104.137    25423650.660    99767794.023  
E18  28443647.200   149472349.7892                                 
E19  25363989.360   133288641.383    25363993.860    99533716.840  
E21  25052814.560   131653396.945    25052820.600    98312593.195  
E27  23379969.020   122862543.805    23379974.300    91747997.527  
E30  25540414.000   134215748.672    25540419.900   100226036.773  
> 2021  1  4 22 33 58.0000000  0 15       0.000000000000
G 4  23603931.980   124039462.082    23603936.460    92626874.457  
G 5  23772125.380   124923344.469                                  
G 7  20850189.340   109568488.188                                  
G 8  21998459.080   115602618.230    21998459.940    86326628.461  
G 9  20947034.440   110077363.898    20947035.460    82200631.617  
G14  22072137.540   115989840.352                                  
G27  23438744.520   123171379.109    23438745.360    91978627.516  
G28  22326770.560   117327954.137                                  
G30  21521554.740   113096481.672    21521555.920    84455166.102  
E 7  25424119.340   133604602.258    25424126.040    99769659.504  
E18  28442738.200   149467572.9842                                 
E19  25363589.080   133286537.934    25363593.580    99532146.082  
E21  25052500.700   131651747.645    25052506.760    98311361.574  
E27  23380098.740   122863225.523    23380104.020    91748506.602  
E30  25540876.720   134218180.297    25540882.620   100227852.598  
> 2021  1  4 22 33 59.0000000  0 15       0.000000000000
G 4  23604558.420   124042754.023    23604562.880    92629332.723  
G 5  23771958.740   124922468.848                                  
G 7  20850161.960   109568344.387                                  
G 8  21998352.880   115602060.199    21998353.760    86326211.750  
G 9  20947399.220   110079280.852    20947400.240    82202063.109  
G14  22071615.120   115987094.957                                  
G27  23439052.680   123172998.504    23439053.520    91979836.805  
G28  22326248.440   117325210.434                                  
G30  21521265.860   113094963.676    21521267.040    84454032.535  
E 7  25424594.780   133607100.641    25424601.460    99771525.180  
E18  28441829.160   149462795.8832                                 
E19  25363188.860   133284434.730    25363193.360    99530575.512  
E21  25052186.900   131650098.609    25052192.960    98310130.152  
E27  23380228.520   122863907.496    23380233.780    91749015.871  
E30  25541339.440   134220611.945    25541345.360   100229668.438  
> 2021  1  4 22 34  0.0000000  0 15       0.000000000000
G 4  23605184.880   124046046.184    23605189.360    92631791.152  
G 5  23771792.240   124921593.844                                  
G 7  20850134.640   109568200.785                                  
G 8  21998246.820   115601502.828    21998247.680    86325795.535  
G 9  20947764.100   110081198.332    20947765.120    82203494.992  
G14  22071092.740   115984349.922                                  
G27  23439360.960   123174618.523    23439361.800    91981046.559  
G28  22325726.400   117322467.109                                  
G30  21520977.040   113093445.875    21520978.220    84452899.109  
E 7  25425070.240   133609599.281    25425076.940    99773391.047  
E18  28440920.020   149458018.4102                                 
E19  25362788.680   133282331.801    25362793.180    99529005.141  
E21  25051873.140   131648449.840    25051879.200    98308898.930  
E27  23380358.340   122864589.746    23380363.620    91749525.340  
E30  25541802.180   134223043.613    25541808.080   100231484.293  
> 2021  1  4 22 34  1.0000000  0 15       0.000000000000
G 4  23605811.400   124049338.578    23605815.880    92634249.758  
G 5  23771625.840   124920719.434                                  
G 7  20850107.340   109568057.367                                  
G 8  21998140.880   115600946.098    21998141.740    86325379.793  
G 9  20948129.080   110083116.289    20948130.100    82204927.234  
G14  22070570.440   115981605.234                                  
G27  23439669.360   123176239.156    23439670.200    91982256.773  
G28  22325204.440   117319724.145                                  
G30  21520688.240   113091928.246    21520689.420    84451765.816  
E 7  25425545.760   133612098.156    25425552.460    99775257.090  
E18  28440010.840   149453240.6212                                 
E19  25362388.540   133280229.109    25362393.040    99527434.949  
E21  25051559.440   131646801.301    25051565.500    98307667.879  
E27  23380488.200   122865272.230    23380493.480    91750034.988  
E30  25542264.900   134225475.281    25542270.820   100233300.148  
> 2021  1  4 22 34  2.0000000  0 15       0.000000000000
G 4  23606437.980   124052631.207    23606442.440    92636708.539  
G 5  23771459.560   124919845.629                                  
G 7  20850080.080   109567914.156                                  
G 8  21998035.060   115600390.027    21998035.920    86324964.547  
G 9  20948494.140   110085034.770    20948495.160    82206359.863  
G14  22070048.220   115978860.926                                  
G27  23439977.860   123177860.410    23439978.720    91983467.449  
G28  22324682.540   117316981.539                                  
G30  21520399.480   113090410.785    21520400.660    84450632.648  
E 7  25426021.340   133614597.273    25426028.020    99777123.313  
E18  28439101.600   149448462.5162                                 
E19  25361988.460   133278126.672    25361992.960    99525864.949  
E21  25051245.780   131645153.035    25051251.840    98306437.031  
E27  23380618.120   122865954.969    23380623.400    91750544.824  
E30  25542727.640   134227906.977    25542733.540   100235116.023  
> 2021  1  4 22 34  3.0000000  0 15       0.000000000000
G 4  23607064.580   124055924.082    23607069.060    92639167.504  
G 5  23771293.400   124918972.445                                  
G 7  20850052.880   109567771.141                                  
G 8  21997929.360   115599834.609    21997930.220    86324549.785  
G 9  20948859.320   110086953.746    20948860.340    82207792.863  
G14  22069526.060   115976116.992                                  
G27  23440286.500   123179482.293    23440287.340    91984678.594  
G28  22324160.700   117314239.297                                  
G30  21520110.740   113088893.508    21520111.920    84449499.617  
E 7  25426496.940   133617096.648    25426503.640    99778989.727  
E18  28438192.280   149443684.0902                                 
E19  25361588.440   133276024.492    25361592.940    99524295.141  
E21  25050932.160   131643505.023    25050938.220    98305206.375  
E27  23380748.100   122866637.984    23380753.380    91751054.871  
E30  25543190.380   134230338.688    25543196.280   100236931.910  
> 2021  1  4 22 34  4.0000000  0 15       0.000000000000
G 4  23607691.240   124059217.188    23607695.720    92641626.641  
G 5  23771127.340   124918099.859                                  
G 7  20850025.700   109567628.316                                  
G 8  21997823.780   115599279.828    21997824.660    86324135.504  
G 9  20949224.580   110088873.223    20949225.600    82209226.238  
G14  22069003.980   115973373.414                                  
G27  23440595.240   123181104.789    23440596.100    91985890.195  
G28  22323638.940   117311497.438                                  
G30  21519822.040   113087376.402    21519823.220    84448366.715  
E 7  25426972.600   133619596.270    25426979.300    99780856.324  
E18  28437282.920   149438905.3282                                 
E19  25361188.440   133273922.566    25361192.940    99522725.520  
E21  25050618.600   131641857.270    25050624.660    98303975.910  
E27  23380878.120   122867321.246    23380883.400    91751565.102  
E30  25543653.120   134232770.422    25543659.020   100238747.816  
> 2021  1  4 22 34  5.0000000  0 15       0.000000000000
G 4  23608317.940   124062510.527    23608322.420    92644085.949  
G 5  23770961.400   124917227.871                                  
G 7  20849998.540   109567485.688                                  
G 8  21997718.340   115598725.715    21997719.200    86323721.715  
G 9  20949589.940   110090793.199    20949590.960    82210659.988  
G14  22068481.960   115970630.211                                  
G27  23440904.120   123182727.895    23440904.960    91987102.258  
G28  22323117.240   117308755.930                                  
G30  21519533.380   113085859.480    21519534.560    84447233.949  
E 7  25427448.320   133622096.145    25427455.000    99782723.113  
E18  28436373.480   149434126.2382                                 
E19  25360788.500   133271820.887    25360793.000    99521156.086  
E21  25050305.100   131640209.777    25050311.160    98302745.641  
E27  23381008.180   122868004.762    23381013.460    91752075.516  
E30  25544115.860   134235202.168    25544121.760   100240563.730  
> 2021  1  4 22 34  6.0000000  0 15       0.000000000000
G 4  23608944.680   124065804.105    23608949.160    92646545.438  
G 5  23770795.580   124916356.492                                  
G 7  20849971.440   109567343.258                                  
G 8  21997613.020   115598172.254    21997613.880    86323308.418  
G 9  20949955.380   110092713.684    20949956.400    82212094.117  
G14  22067960.020   115967887.371                                  
G27  23441213.100   123184351.621    23441213.940    91988314.781  
G28  22322595.620   117306014.773                                  
G30  21519244.740   113084342.727    21519245.940    84446101.305  
E 7  25427924.060   133624596.254    25427930.760    99784590.078  
E18  28435464.000   149429346.8282                                 
E19  25360388.620   133269719.469    25360393.120    99519586.844  
E21  25049991.640   131638562.523    25049997.700    98301515.547  
E27  23381138.300   122868688.539    23381143.580    91752586.129  
E30  25544578.600   134237633.918    25544584.520   100242379.645  
> 2021  1  4 22 34  7.0000000  0 15       0.000000000000
G 4  23609571.480   124069097.926    23609575.960    92649005.109  
G 5  23770629.880   124915485.727                                  
G 7  20849944.380   109567201.023                                  
G 8  21997507.820   115597619.449    21997508.680    86322895.609  
G 9  20950320.940   110094634.672    20950321.960    82213528.617  
G14  22067438.140   115965144.906                                  
G27  23441522.200   123185975.961    23441523.040    91989527.762  
G28  22322074.060   117303274.012                                  
G30  21518956.160   113082826.164    21518957.340    84444968.809  
E 7  25428399.880   133627096.621    25428406.560    99786457.234  
E18  28434554.440   149424567.0902                                 
E19  25359988.780   133267618.313    25359993.280    99518017.801  
E21  25049678.220   131636915.535    25049684.280    98300285.656  
E27  23381268.460   122869372.566    23381273.740    91753096.930  
E30  25545041.360   134240065.688    25545047.260   100244195.574  
> 2021  1  4 22 34  8.0000000  0 15       0.000000000000
G 4  23610198.320   124072391.973    23610202.800    92651464.949  
G 5  23770464.300   124914615.551                                  
G 7  20849917.340   109567058.984                                  
G 8  21997402.740   115597067.277    21997403.600    86322483.273  
G 9  20950686.580   110096556.164    20950687.600    82214963.500  
G14  22066916.320   115962402.785                                  
G27  23441831.420   123187600.926    23441832.260    91990741.207  
G28  22321552.580   117300533.590                                  
G30  21518667.600   113081309.773    21518668.780    84443836.438  
E 7  25428875.720   133629597.230    25428882.400    99788324.574  
E18  28433644.820   149419787.0232                                 
E19  25359588.980   133265517.395    25359593.480    99516448.934  
E21  25049364.860   131635268.813    25049370.920    98299055.961  
E27  23381398.680   122870056.848    23381403.960    91753607.918  
E30  25545504.100   134242497.477    25545510.020   100246011.523  
> 2021  1  4 22 34  9.0000000  0 15       0.000000000000
G 4  23610825.200   124075686.266    23610829.680    92653924.973  
G 5  23770298.820   124913745.988                                  
G 7  20849890.340   109566917.129                                  
G 8  21997297.800   115596515.766    21997298.660    86322071.430  
G 9  20951052.320   110098478.152    20951053.340    82216398.750  
G14  22066394.580   115959661.051                                  
G27  23442140.760   123189226.516    23442141.600    91991955.121  
G28  22321031.160   117297793.531                                  
G30  21518379.060   113079793.555    21518380.240    84442704.199  
E 7  25429351.620   133632098.090    25429358.300    99790192.098  
E18  28432735.140   149415006.6412                                 
E19  25359189.240   133263416.734    25359193.740    99514880.258  
E21  25049051.540   131633622.340    25049057.600    98297826.453  
E27  23381528.940   122870741.387    23381534.220    91754119.102  
E30  25545966.860   134244929.289    25545972.780   100247827.484  
> 2021  1  4 22 34 10.0000000  0 15       0.000000000000
G 4  23611452.120   124078980.789    23611456.600    92656385.164  
G 5  23770133.460   124912877.027                                  
G 7  20849863.380   109566775.473                                  
G 8  21997192.960   115595964.914    21997193.820    86321660.082  
G 9  20951418.160   110100400.648    20951419.180    82217834.379  
G14  22065872.920   115956919.688                                  
G27  23442450.200   123190852.730    23442451.060    91993169.500  
G28  22320509.820   117295053.848                                  
G30  21518090.560   113078277.512    21518091.740    84441572.090  
E 7  25429827.560   133634599.203    25429834.240    99792059.813  
E18  28431825.400   149410225.9262                                 
E19  25358789.540   133261316.320    25358794.040    99513311.770  
E21  25048738.280   131631976.113    25048744.320    98296597.129  
E27  23381659.260   122871426.191    23381664.520    91754630.480  
E30  25546429.620   134247361.109    25546435.540   100249643.453  
> 2021  1  4 22 34 11.0000000  0 15       0.000000000000
G 4  23612079.100   124082275.559    23612083.580    92658845.543  
G 5  23769968.220   124912008.688                                  
G 7  20849836.460   109566634.016                                  
G 8  21997088.260   115595414.727    21997089.120    86321249.227  
G 9  20951784.100   110102323.648    20951785.120    82219270.387  
G14  22065351.320   115954178.703                                  
G27  23442759.780   123192479.551    23442760.620    91994384.336  
G28  22319988.540   117292314.535                                  
G30  21517802.100   113076761.656    21517803.280    84440440.121  
E 7  25430303.540   133637100.551    25430310.240    99793927.703  
E18  28430915.600   149405444.8982                                 
E19  25358389.900   133259216.172    25358394.400    99511743.477  
E21  25048425.060   131630330.168    25048431.120    98295368.012  
E27  23381789.600   122872111.242    23381794.880    91755142.043  
E30  25546892.380   134249792.945    25546898.300   100251459.438  
> 2021  1  4 22 34 12.0000000  0 15       0.000000000000
G 4  23612706.100   124085570.563    23612710.580    92661306.098  
G 5  23769803.080   124911140.941                                  
G 7  20849809.580   109566492.754                                  
G 8  21996983.680   115594865.195    21996984.560    86320838.863  
G 9  20952150.120   110104247.141    20952151.140    82220706.762  
G14  22064829.800   115951438.066                                  
G27  23443069.460   123194106.996    23443070.320    91995599.633  
G28  22319467.320   117289575.586                                  
G30  21517513.680   113075245.984    21517514.860    84439308.285  
E 7  25430779.580   133639602.164    25430786.280    99795795.785  
E18  28430005.720   149400663.5352                                 
E19  25357990.300   133257116.277    25357994.800    99510175.375  
E21  25048111.880   131628684.461    25048117.940    98294139.078  
E27  23381920.020   122872796.551    23381925.300    91755653.801  
E30  25547355.160   134252224.797    25547361.060   100253275.426  
> 2021  1  4 22 34 13.0000000  0 15       0.000000000000
G 4  23613333.160   124088865.805    23613337.640    92663766.828  
G 5  23769638.080   124910273.801                                  
G 7  20849782.740   109566351.684                                  
G 8  21996879.240   115594316.293    21996880.100    86320428.969  
G 9  20952516.240   110106171.152    20952517.260    82222143.523  
G14  22064308.340   115948697.797                                  
G27  23443379.280   123195735.059    23443380.120    91996815.395  
G28  22318946.180   117286837.012                                  
G30  21517225.280   113073730.480    21517226.460    84438176.582  
E 7  25431255.680   133642104.008    25431262.360    99797664.047  
E18  28429095.800   149395881.8482                                 
E19  25357590.740   133255016.633    25357595.240    99508607.457  
E21  25047798.760   131627039.008    25047804.820    98292910.328  
E27  23382050.480   122873482.117    23382055.760    91756165.746  
E30  25547817.920   134254656.664    25547823.820   100255091.430  
> 2021  1  4 22 34 15.0000000  0 15       0.000000000000
G 4  23614587.420   124095456.988    23614591.900    92668688.816  
G 5  23769308.380   124908541.316                                  
G 7  20849729.160   109566070.129                                  
G 8  21996670.700   115593220.453    21996671.560    86319610.648  
G 9  20953248.780   110110020.672    20953249.800    82225018.164  
G14  22063265.640   115943218.375                                  
G27  23443999.240   123198993.027    23444000.100    91999248.293  
G28  22317904.120   117281360.922                                  
G30  21516648.600   113070700.008    21516649.780    84435913.563  
E 7  25432207.980   133647108.449    25432214.680    99801401.129  
E18  28427275.760   149386317.5002                                 
E19  25356791.780   133250818.102    25356796.280    99505472.191  
E21  25047172.660   131623748.871    25047178.720    98290453.410  
E27  23382311.540   122874854.016    23382316.820    91757190.219  
E30  25548743.460   134259520.457    25548749.380   100258723.484  
> 2021  1  4 22 34 16.0000000  0 15       0.000000000000
G 4  23615214.620   124098752.938    23615219.100    92671150.074  
G 5  23769143.720   124907675.996                                  
G 7  20849702.420   109565929.648                                  
G 8  21996566.620   115592673.508    21996567.480    86319202.215  
G 9  20953615.180   110111946.188    20953616.200    82226456.047  
G14  22062744.380   115940479.211                                  
G27  23444309.400   123200622.941    23444310.260    92000465.438  
G28  22317383.180   117278623.434                                  
G30  21516360.320   113069185.035    21516361.500    84434782.254  
E 7  25432684.200   133649611.039    25432690.900    99803269.945  
E18  28426365.640   149381534.8242                                 
E19  25356392.380   133248719.227    25356396.880    99503904.852  
E21  25046859.700   131622104.195    25046865.760    98289225.246  
E27  23382442.140   122875540.352    23382447.420    91757702.742  
E30  25549206.240   134261952.375    25549212.160   100260539.527  
> 2021  1  4 22 34 17.0000000  0 15       0.000000000000
G 4  23615841.860   124102049.109    23615846.340    92673611.504  
G 5  23768979.160   124906811.273                                  
G 7  20849675.720   109565789.355                                  
G 8  21996462.660   115592127.215    21996463.520    86318794.273  
G 9  20953981.700   110113872.203    20953982.720    82227894.309  
G14  22062223.200   115937740.418                                  
G27  23444619.680   123202253.473    23444620.540    92001683.047  
G28  22316862.320   117275886.309                                  
G30  21516072.060   113067670.234    21516073.240    84433651.078  
E 7  25433160.480   133652113.883    25433167.180    99805138.949  
E18  28425455.480   149376751.8402                                 
E19  25355993.020   133246620.598    25355997.520    99502337.691  
E21  25046546.760   131620459.758    25046552.820    98287997.254  
E27  23382572.800   122876226.941    23382578.060    91758215.453  
E30  25549669.020   134264384.305    25549674.940   100262355.578  
> 2021  1  4 22 34 18.0000000  0 15       0.000000000000
G 4  23616469.140   124105345.527    23616473.640    92676073.117  
G 5  23768814.720   124905947.156                                  
G 7  20849649.060   109565649.266                                  
G 8  21996358.820   115591581.582    21996359.680    86318386.824  
G 9  20954348.300   110115798.711    20954349.320    82229332.938  
G14  22061702.100   115935001.984                                  
G27  23444930.080   123203884.613    23444930.920    92002901.105  
G28  22316341.540   117273149.547                                  
G30  21515783.820   113066155.621    21515785.000    84432520.039  
E 7  25433636.800   133654616.965    25433643.500    99807008.137  
E18  28424545.240   149371968.5392                                 
E19  25355593.720   133244522.227    25355598.220    99500770.727  
E21  25046233.900   131618815.590    25046239.940    98286769.469  
E27  23382703.500   122876913.789    23382708.760    91758728.363  
E30  25550131.800   134266816.258    25550137.720   100264171.645  
> 2021  1  4 22 34 19.0000000  0 15       0.000000000000
G 4  23617096.480   124108642.176    23617100.960    92678534.898  
G 5  23768650.400   124905083.641                                  
G 7  20849622.440   109565509.375                                  
G 8  21996255.120   115591036.594    21996255.980    86317979.852  
G 9  20954715.000   110117725.727    20954716.020    82230771.945  
G14  22061181.060   115932263.922                                  
G27  23445240.580   123205516.375    23445241.440    92004119.633  
G28  22315820.820   117270413.156                                  
G30  21515495.640   113064641.180    21515496.820    84431389.125  
E 7  25434113.180   133657120.301    25434119.860    99808877.508  
E18  28423634.940   149367184.9022                                 
E19  25355194.460   133242424.109    25355198.960    99499203.953  
E21  25045921.060   131617171.676    25045927.120    98285541.871  
E27  23382834.240   122877600.891    23382839.520    91759241.457  
E30  25550594.600   134269248.223    25550600.500   100265987.719  
> 2021  1  4 22 34 20.0000000  0 15       0.000000000000
G 4  23617723.860   124111939.059    23617728.340    92680996.855  
G 5  23768486.200   124904220.738                                  
G 7  20849595.840   109565369.664                                  
G 8  21996151.520   115590492.246    21996152.380    86317573.359  
G 9  20955081.780   110119653.238    20955082.800    82232211.320  
G14  22060660.080   115929526.230                                  
G27  23445551.220   123207148.758    23445552.060    92005338.617  
G28  22315300.160   117267677.121                                  
G30  21515207.480   113063126.906    21515208.660    84430258.336  
E 7  25434589.580   133659623.887    25434596.280    99810747.066  
E18  28422724.580   149362400.9262                                 
E19  25354795.240   133240326.250    25354799.740    99497637.371  
E21  25045608.280   131615528.027    25045614.340    98284314.473  
E27  23382965.040   122878288.250    23382970.320    91759754.746  
E30  25551057.380   134271680.195    25551063.280   100267803.805  
> 2021  1  4 22 34 21.0000000  0 15       0.000000000000
G 4  23618351.280   124115236.184    23618355.760    92683458.996  
G 5  23768322.100   124903358.445                                  
G 7  20849569.300   109565230.160                                  
G 8  21996048.060   115589948.555    21996048.920    86317167.355  
G 9  20955448.680   110121581.270    20955449.700    82233651.082  
G14  22060139.180   115926788.902                                  
G27  23445861.960   123208781.762    23445862.820    92006558.066  
G28  22314779.580   117264941.445                                  
G30  21514919.360   113061612.824    21514920.540    84429127.691  
E 7  25435066.040   133662127.727    25435072.740    99812616.816  
E18  28421814.160   149357616.6452                                 
E19  25354396.080   133238228.648    25354400.580    99496070.980  
E21  25045295.560   131613884.629    25045301.600    98283087.258  
E27  23383095.880   122878975.867    23383101.160    91760268.223  
E30  25551520.180   134274112.203    25551526.080   100269619.914  
> 2021  1  4 22 34 22.0000000  0 15       0.000000000000
G 4  23618978.740   124118533.543    23618983.220    92685921.309  
G 5  23768158.120   124902496.742                                  
G 7  20849542.780   109565090.852                                  
G 8  21995944.720   115589405.523    21995945.580    86316761.844  
G 9  20955815.660   110123509.789    20955816.680    82235091.211  
G14  22059618.360   115924051.949                                  
G27  23446172.840   123210415.379    23446173.680    92007777.977  
G28  22314259.060   117262206.156                                  
G30  21514631.260   113060098.906    21514632.440    84427997.168  
E 7  25435542.560   133664631.801    25435549.240    99814486.742  
E18  28420903.660   149352832.0202                                 
E19  25353996.960   133236131.289    25354001.460    99494504.770  
E21  25044982.880   131612241.480    25044988.920    98281860.234  
E27  23383226.780   122879663.734    23383232.060    91760781.891  
E30  25551982.960   134276544.215    25551988.880   100271436.023  
> 2021  1  4 22 34 23.0000000  0 15       0.000000000000
G 4  23619606.240   124121831.133    23619610.740    92688383.789  
G 5  23767994.260   124901635.641                                  
G 7  20849516.320   109564951.730                                  
G 8  21995841.520   115588863.148    21995842.380    86316356.824  
G 9  20956182.740   110125438.805    20956183.760    82236531.707  
G14  22059097.600   115921315.352                                  
G27  23446483.820   123212049.605    23446484.660    92008998.340  
G28  22313738.620   117259471.223                                  
G30  21514343.200   113058585.164    21514344.380    84426866.777  
E 7  25436019.100   133667136.113    25436025.800    99816356.848  
E18  28419993.120   149348047.0862                                 
E19  25353597.900   133234034.199    25353602.400    99492938.762  
E21  25044670.240   131610598.590    25044676.300    98280633.402  
E27  23383357.720   122880351.855    23383363.000    91761295.746  
E30  25552445.760   134278976.234    25552451.680   100273252.145  
> 2021  1  4 22 34 24.0000000  0 15       0.000000000000
G 4  23620233.800   124125128.961    23620238.280    92690846.453  
G 5  23767830.520   124900775.156                                  
G 7  20849489.880   109564812.813                                  
G 8  21995738.420   115588321.430    21995739.280    86315952.293  
G 9  20956549.920   110127368.336    20956550.940    82237972.594  
G14  22058576.920   115918579.133                                  
G27  23446794.920   123213684.473    23446795.760    92010219.184  
G28  22313218.240   117256736.652                                  
G30  21514055.180   113057071.605    21514056.360    84425736.523  
E 7  25436495.720   133669640.691    25436502.400    99818227.148  
E18  28419082.520   149343261.8282                                 
E19  25353198.880   133231937.348    25353203.380    99491372.934  
E21  25044357.660   131608955.957    25044363.700    98279406.758  
E27  23383488.720   122881040.234    23383494.000    91761809.797  
E30  25552908.560   134281408.277    25552914.480   100275068.277  
> 2021  1  4 22 34 25.0000000  0 15       0.000000000000
G 4  23620861.400   124128427.023    23620865.880    92693309.293  
G 5  23767666.880   124899915.266                                  
G 7  20849463.480   109564674.078                                  
G 8  21995635.460   115587780.359    21995636.320    86315548.250  
G 9  20956917.180   110129298.363    20956918.200    82239413.844  
G14  22058056.300   115915843.277                                  
G27  23447106.140   123215319.941    23447106.980    92011440.473  
G28  22312697.940   117254002.469                                  
G30  21513767.200   113055558.219    21513768.380    84424606.398  
E 7  25436972.360   133672145.496    25436979.060    99820097.617  
E18  28418171.840   149338476.2382                                 
E19  25352799.900   133229840.750    25352804.400    99489807.289  
E21  25044045.120   131607313.570    25044051.160    98278180.305  
E27  23383619.760   122881728.871    23383625.040    91762324.039  
E30  25553371.380   134283840.340    25553377.280   100276884.430  
> 2021  1  4 22 34 26.0000000  0 15       0.000000000000
G 4  23621489.040   124131725.324    23621493.540    92695772.309  
G 5  23767503.360   124899055.992                                  
G 7  20849437.100   109564535.547                                  
G 8  21995532.620   115587239.941    21995533.480    86315144.691  
G 9  20957284.540   110131228.891    20957285.560    82240855.473  
G14  22057535.740   115913107.793                                  
G27  23447417.460   123216956.023    23447418.320    92012662.223  
G28  22312177.720   117251268.621                                  
G30  21513479.240   113054045.016    21513480.420    84423476.410  
E 7  25437449.060   133674650.578    25437455.760    99821968.293  
E18  28417261.120   149333690.3362                                 
E19  25352400.980   133227744.406    25352405.480    99488241.840  
E21  25043732.620   131605671.453    25043738.680    98276954.047  
E27  23383750.840   122882417.766    23383756.120    91762838.473  
E30  25553834.180   134286272.410    25553840.080   100278700.586  
> 2021  1  4 22 34 27.0000000  0 15       0.000000000000
G 4  23622116.740   124135023.855    23622121.220    92698235.496  
G 5  23767339.960   124898197.324                                  
G 7  20849410.780   109564397.211                                  
G 8  21995429.900   115586700.172    21995430.760    86314741.617  
G 9  20957652.000   110133159.910    20957653.020    82242297.465  
G14  22057015.260   115910372.676                                  
G27  23447728.920   123218592.734    23447729.780    92013884.441  
G28  22311657.540   117248535.152                                  
G30  21513191.320   113052531.988    21513192.500    84422346.547  
E 7  25437925.800   133677155.891    25437932.500    99823839.145  
E18  28416350.320   149328904.1022                                 
E19  25352002.120   133225648.332    25352006.600    99486676.590  
E21  25043420.180   131604029.586    25043426.240    98275727.977  
E27  23383881.980   122883106.910    23383887.260    91763353.094  
E30  25554296.980   134288704.496    25554302.900   100280516.750  
> 2021  1  4 22 34 28.0000000  0 15       0.000000000000
G 4  23622744.480   124138322.629    23622748.960    92700698.863  
G 5  23767176.680   124897339.266                                  
G 7  20849384.500   109564259.070                                  
G 8  21995327.300   115586161.047    21995328.180    86314339.027  
G 9  20958019.560   110135091.457    20958020.580    82243739.855  
G14  22056494.860   115907637.934                                  
G27  23448040.500   123220230.059    23448041.340    92015107.117  
G28  22311137.460   117245802.043                                  
G30  21512903.420   113051019.137    21512904.600    84421216.824  
E 7  25438402.600   133679661.445    25438409.280    99825710.176  
E18  28415439.460   149324117.5352                                 
E19  25351603.300   133223552.520    25351607.780    99485111.535  
E21  25043107.800   131602387.984    25043113.860    98274502.109  
E27  23384013.180   122883796.309    23384018.440    91763867.906  
E30  25554759.800   134291136.602    25554765.700   100282332.934  
> 2021  1  4 22 34 29.0000000  0 15       0.000000000000
G 4  23623372.240   124141621.633    23623376.740    92703162.406  
G 5  23767013.520   124896481.816                                  
G 7  20849358.240   109564121.125                                  
G 8  21995224.840   115585622.602    21995225.700    86313936.938  
G 9  20958387.220   110137023.500    20958388.240    82245182.613  
G14  22055974.520   115904903.551                                  
G27  23448352.180   123221867.992    23448353.020    92016330.250  
G28  22310617.420   117243069.305                                  
G30  21512615.580   113049506.465    21512616.760    84420087.230  
E 7  25438879.440   133682167.262    25438886.120    99827581.402  
E18  28414528.560   149319330.6522                                 
E19  25351204.520   133221456.957    25351209.020    99483546.668  
E21  25042795.460   131600746.625    25042801.520    98273276.418  
E27  23384144.400   122884485.969    23384149.680    91764382.910  
E30  25555222.620   134293568.727    25555228.520   100284149.129  
> 2021  1  4 22 34 30.0000000  0 15       0.000000000000
G 4  23624000.080   124144920.875    23624004.560    92705626.121  
G 5  23766850.460   124895624.961                                  
G 7  20849332.020   109563983.371                                  
G 8  21995122.500   115585084.793    21995123.360    86313535.328  
G 9  20958754.960   110138956.031    20958755.980    82246625.738  
G14  22055454.260   115902169.535                                  
G27  23448663.980   123223506.543    23448664.840    92017553.844  
G28  22310097.460   117240336.918                                  
G30  21512327.760   113047993.969    21512328.940    84418957.770  
E 7  25439356.320   133684673.309    25439363.000    99829452.801  
E18  28413617.580   149314543.4492                                 
E19  25350805.780   133219361.629    25350810.280    99481981.977  
E21  25042483.160   131599105.527    25042489.220    98272050.922  
E27  23384275.700   122885175.883    23384280.960    91764898.105  
E30  25555685.440   134296000.859    25555691.340   100285965.332  
> 2021  1  4 22 34 31.0000000  0 15       0.000000000000
G 4  23624627.940   124148220.344    23624632.420    92708090.012  
G 5  23766687.520   124894768.715                                  
G 7  20849305.840   109563845.813                                  
G 8  21995020.280   115584547.641    21995021.140    86313134.211  
G 9  20959122.820   110140889.074    20959123.840    82248069.246  
G14  22054934.060   115899435.887                                  
G27  23448975.900   123225145.707    23448976.760    92018777.898  
G28  22309577.580   117237604.922                                  
G30  21512039.960   113046481.645    21512041.140    84417828.441  
E 7  25439833.240   133687179.602    25439839.940    99831324.383  
E18  28412706.540   149309755.9222                                 
E19  25350407.100   133217266.574    25350411.600    99480417.488  
E21  25042170.920   131597464.684    25042176.980    98270825.617  
E27  23384407.020   122885866.051    23384412.300    91765413.488  
E30  25556148.260   134298433.008    25556154.160   100287781.547  
> 2021  1  4 22 34 32.0000000  0 15       0.000000000000
G 4  23625255.860   124151520.047    23625260.340    92710554.082  
G 5  23766524.700   124893913.066                                  
G 7  20849279.700   109563708.445                                  
G 8  21994918.200   115584011.152    21994919.060    86312733.590  
G 9  20959490.760   110142822.621    20959491.780    82249513.133  
G14  22054413.940   115896702.605                                  
G27  23449287.940   123226785.500    23449288.800    92020002.422  
G28  22309057.780   117234873.277                                  
G30  21511752.220   113044969.504    21511753.400    84416699.250  
E 7  25440310.220   133689686.152    25440316.920    99833196.156  
E18  28411795.440   149304968.0592                                 
E19  25350008.480   133215171.762    25350012.980    99478853.180  
E21  25041858.720   131595824.098    25041864.780    98269600.504  
E27  23384538.400   122886556.473    23384543.680    91765929.066  
E30  25556611.080   134300865.176    25556616.980   100289597.773  
> 2021  1  4 22 34 33.0000000  0 15       0.000000000000
G 4  23625883.820   124154819.992    23625888.300    92713018.328  
G 5  23766361.980   124893058.027                                  
G 7  20849253.600   109563571.281                                  
G 8  21994816.220   115583475.313    21994817.080    86312333.457  
G 9  20959858.800   110144756.660    20959859.820    82250957.387  
G14  22053893.880   115893969.691                                  
G27  23449600.100   123228425.902    23449600.960    92021227.398  
G28  22308538.020   117232141.984                                  
G30  21511464.500   113043457.535    21511465.680    84415570.188  
E 7  25440787.260   133692192.949    25440793.940    99835068.113  
E18  28410884.280   149300179.8832                                 
E19  25349609.900   133213077.207    25349614.380    99477289.066  
E21  25041546.580   131594183.762    25041552.620    98268375.578  
E27  23384669.840   122887247.148    23384675.120    91766444.828  
E30  25557073.900   134303297.355    25557079.820   100291414.012  
> 2021  1  4 22 34 34.0000000  0 15       0.000000000000
G 4  23626511.820   124158120.168    23626516.300    92715482.746  
G 5  23766199.380   124892203.594                                  
G 7  20849227.540   109563434.313                                  
G 8  21994714.380   115582940.117    21994715.240    86311933.801  
G 9  20960226.920   110146691.199    20960227.940    82252402.012  
G14  22053373.900   115891237.148                                  
G27  23449912.380   123230066.922    23449913.220    92022452.840  
G28  22308018.340   117229411.078                                  
G30  21511176.820   113041945.750    21511177.980    84414441.262  
E 7  25441264.320   133694699.984    25441271.020    99836940.254  
E18  28409973.040   149295391.3792                                 
E19  25349211.360   133210982.930    25349215.860    99475725.160  
E21  25041234.480   131592543.688    25041240.540    98267150.852  
E27  23384801.320   122887938.078    23384806.600    91766960.789  
E30  25557536.740   134305729.551    25557542.640   100293230.266  
> 2021  1  4 22 34 35.0000000  0 15       0.000000000000
G 4  23627139.860   124161420.578    23627144.340    92717947.344  
G 5  23766036.920   124891349.766                                  
G 7  20849201.520   109563297.535                                  
G 8  21994612.660   115582405.570    21994613.520    86311534.629  
G 9  20960595.140   110148626.234    20960596.160    82253847.012  
G14  22052853.980   115888504.980                                  
G27  23450224.780   123231708.559    23450225.620    92023678.742  
G28  22307498.740   117226680.535                                  
G30  21510889.160   113040434.145    21510890.340    84413312.469  
E 7  25441741.440   133697207.266    25441748.140    99838812.578  
E18  28409061.760   149290602.5472                                 
E19  25348812.880   133208888.875    25348817.380    99474161.426  
E21  25040922.440   131590903.867    25040928.480    98265926.316  
E27  23384932.840   122888629.266    23384938.120    91767476.938  
E30  25557999.580   134308161.754    25558005.480   100295046.527  
> 2021  1  4 22 34 36.0000000  0 15       0.000000000000
G 4  23627767.960   124164721.215    23627772.440    92720412.105  
G 5  23765874.540   124890496.539                                  
G 7  20849175.520   109563160.969                                  
G 8  21994511.060   115581871.668    21994511.920    86311135.941  
G 9  20960963.480   110150561.785    20960964.480    82255292.395  
G14  22052334.120   115885773.164                                  
G27  23450537.280   123233350.805    23450538.140    92024905.098  
G28  22306979.200   117223950.359                                  
G30  21510601.540   113038922.715    21510602.720    84412183.809  
E 7  25442218.620   133699714.801    25442225.300    99840685.094  
E18  28408150.420   149285813.3792                                 
E19  25348414.440   133206795.090    25348418.940    99472597.887  
E21  25040610.440   131589264.297    25040616.480    98264701.969  
E27  23385064.420   122889320.703    23385069.700    91767993.277  
E30  25558462.400   134310593.965    25558468.320   100296862.789  
> 2021  1  4 22 34 37.0000000  0 15       0.000000000000
G 4  23628396.100   124168022.098    23628400.580    92722877.055  
G 5  23765712.300   124889643.926                                  
G 7  20849149.580   109563024.594                                  
G 8  21994409.580   115581338.434    21994410.440    86310737.750  
G 9  20961331.880   110152497.832    20961332.900    82256738.145  
G14  22051814.360   115883041.738                                  
G27  23450849.920   123234993.668    23450850.760    92026131.914  
G28  22306459.740   117221220.547                                  
G30  21510313.960   113037411.449    21510315.140    84411055.270  
E 7  25442695.820   133702222.566    25442702.520    99842557.777  
E18  28407239.000   149281023.9022                                 
E19  25348016.060   133204701.555    25348020.540    99471034.539  
E21  25040298.480   131587624.977    25040304.520    98263477.801  
E27  23385196.040   122890012.391    23385201.320    91768509.801  
E30  25558925.240   134313026.203    25558931.160   100298679.074  
> 2021  1  4 22 34 38.0000000  0 15       0.000000000000
G 4  23629024.280   124171323.211    23629028.760    92725342.176  
G 5  23765550.160   124888791.910                                  
G 7  20849123.660   109562888.410                                  
G 8  21994308.240   115580805.844    21994309.100    86310340.043  
G 9  20961700.400   110154434.375    20961701.420    82258184.270  
G14  22051294.640   115880310.668                                  
G27  23451162.660   123236637.152    23451163.500    92027359.195  
G28  22305940.340   117218491.098                                  
G30  21510026.420   113035900.363    21510027.580    84409926.863  
E 7  25443173.080   133704730.605    25443179.780    99844430.664  
E18  28406327.540   149276234.1132                                 
E19  25347617.720   133202608.281    25347622.220    99469471.383  
E21  25039986.580   131585985.930    25039992.620    98262253.844  
E27  23385327.720   122890704.340    23385332.980    91769026.520  
E30  25559388.080   134315458.449    25559394.000   100300495.363  
> 2021  1  4 22 34 39.0000000  0 15       0.000000000000
G 4  23629652.500   124174624.559    23629656.980    92727807.469  
G 5  23765388.140   124887940.504                                  
G 7  20849097.780   109562752.418                                  
G 8  21994207.020   115580273.914    21994207.880    86309942.824  
G 9  20962069.020   110156371.434    20962070.020    82259630.777  
G14  22050775.020   115877579.977                                  
G27  23451475.520   123238281.254    23451476.360    92028586.938  
G28  22305421.020   117215762.023                                  
G30  21509738.900   113034389.457    21509740.060    84408798.594  
E 7  25443650.400   133707238.871    25443657.080    99846303.727  
E18  28405416.000   149271443.9922                                 
E19  25347219.440   133200515.250    25347223.920    99467908.406  
E21  25039674.720   131584347.129    25039680.780    98261030.066  
E27  23385459.440   122891396.543    23385464.720    91769543.426  
E30  25559850.940   134317890.711    25559856.840   100302311.668  
> 2021  1  4 22 34 40.0000000  0 15       0.000000000000
G 4  23630280.780   124177926.148    23630285.260    92730272.945  
G 5  23765226.240   124887089.699                                  
G 7  20849071.940   109562616.621                                  
G 8  21994105.920   115579742.633    21994106.780    86309546.094  
G 9  20962437.720   110158308.984    20962438.720    82261077.652  
G14  22050255.440   115874849.645                                  
G27  23451788.500   123239925.977    23451789.340    92029815.141  
G28  22304901.760   117213033.324                                  
G30  21509451.420   113032878.734    21509452.580    84407670.461  
E 7  25444127.760   133709747.391    25444134.440    99848176.973  
E18  28404504.420   149266653.5392                                 
E19  25346821.200   133198422.496    25346825.680    99466345.641  
E21  25039362.920   131582708.586    25039368.960    98259806.484  
E27  23385591.220   122892089.004    23385596.480    91770060.531  
E30  25560313.780   134320322.992    25560319.680   100304127.984  
> 2021  1  4 22 34 41.0000000  0 15       0.000000000000
G 4  23630909.100   124181227.969    23630913.560    92732738.594  
G 5  23765064.460   124886239.504                                  
G 7  20849046.140   109562481.035                                  
G 8  21994004.940   115579212.016    21994005.800    86309149.859  
G 9  20962806.520   110160247.063    20962807.540    82262524.922  
G14  22049735.960   115872119.699                                  
G27  23452101.600   123241571.320    23452102.440    92031043.813  
G28  22304382.580   117210304.977                                  
G30  21509163.980   113031368.188    21509165.140    84406542.461  
E 7  25444605.160   133712256.152    25444611.840    99850050.402  
E18  28403592.760   149261862.7622                                 
E19  25346423.000   133196329.988    25346427.480    99464783.059  
E21  25039051.160   131581070.293    25039057.200    98258583.090  
E27  23385723.040   122892781.727    23385728.300    91770577.824  
E30  25560776.640   134322755.293    25560782.540   100305944.316  
> 2021  1  4 22 34 42.0000000  0 15       0.000000000000
G 4  23631537.460   124184529.961    23631541.940    92735204.336  
G 5  23764902.780   124885389.922                                  
G 7  20849020.380   109562345.637                                  
G 8  21993904.100   115578682.051    21993904.940    86308754.105  
G 9  20963175.420   110162185.609    20963176.420    82263972.543  
G14  22049216.520   115869390.105                                  
G27  23452414.820   123243217.266    23452415.660    92032272.922  
G28  22303863.460   117207577.020                                  
G30  21508876.560   113029857.816    21508877.720    84405414.598  
E 7  25445082.600   133714765.168    25445089.300    99851924.020  
E18  28402681.040   149257071.6912                                 
E19  25346024.860   133194237.758    25346029.340    99463220.691  
E21  25038739.460   131579432.270    25038745.500    98257359.895  
E27  23385854.900   122893474.691    23385860.160    91771095.305  
E30  25561239.480   134325187.598    25561245.400   100307760.648  
> 2021  1  4 22 34 43.0000000  0 15       0.000000000000
G 4  23632165.860   124187832.254    23632170.360    92737670.336  
G 5  23764741.220   124884540.934                                  
G 7  20848994.640   109562210.438                                  
G 8  21993803.380   115578152.727    21993804.220    86308358.836  
G 9  20963544.400   110164124.660    20963545.400    82265420.543  
G14  22048697.180   115866660.883                                  
G27  23452728.140   123244863.828    23452728.980    92033502.504  
G28  22303344.400   117204849.402                                  
G30  21508589.180   113028347.621    21508590.340    84404286.859  
E 7  25445560.100   133717274.414    25445566.780    99853797.813  
E18  28401769.260   149252280.2662                                 
E19  25345626.760   133192145.746    25345631.240    99461658.480  
E21  25038427.800   131577794.496    25038433.840    98256136.891  
E27  23385986.820   122894167.910    23385992.080    91771612.973  
E30  25561702.340   134327619.918    25561708.240   100309576.992  
> 2021  1  4 22 34 44.0000000  0 15       0.000000000000
G 4  23632794.320   124191134.773    23632798.800    92740136.504  
G 5  23764579.780   124883692.566                                  
G 7  20848968.960   109562075.438                                  
G 8  21993702.780   115577624.074    21993703.620    86307964.070  
G 9  20963913.480   110166064.230    20963914.500    82266868.926  
G14  22048177.880   115863932.027                                  
G27  23453041.600   123246511.023    23453042.440    92034732.555  
G28  22302825.420   117202122.164                                  
G30  21508301.820   113026837.609    21508302.980    84403159.258  
E 7  25446037.640   133719783.922    25446044.320    99855671.797  
E18  28400857.420   149247488.5232                                 
E19  25345228.720   133190054.008    25345233.200    99460096.473  
E21  25038116.180   131576156.980    25038122.220    98254914.074  
E27  23386118.780   122894861.395    23386124.040    91772130.836  
E30  25562165.200   134330052.266    25562171.100   100311393.359  
> 2021  1  4 22 34 46.0000000  0 15       0.000000000000
G 4  23634051.340   124197740.516    23634055.840    92745069.367  
G 5  23764257.260   124881997.633                                  
G 7  20848917.680   109561806.004                                  
G 8  21993501.940   115576568.695    21993502.780    86307175.965  
G 9  20964651.940   110169944.852    20964652.960    82269766.793  
G14  22047139.540   115858475.426                                  
G27  23453668.840   123249807.227    23453669.680    92037194.012  
G28  22301787.680   117196668.770                                  
G30  21507727.240   113023818.117    21507728.400    84400904.445  
E 7  25446992.860   133724803.664    25446999.560    99859420.309  
E18  28399033.560   149237904.0592                                 
E19  25344432.780   133185871.297    25344437.260    99456973.023  
E21  25037493.120   131572882.707    25037499.160    98252469.004  
E27  23386382.860   122896249.109    23386388.120    91773167.121  
E30  25563090.940   134334916.992    25563096.840   100315026.113  
> 2021  1  4 22 34 47.0000000  0 15       0.000000000000
G 4  23634679.940   124201043.742    23634684.420    92747536.066  
G 5  23764096.160   124881151.078                                  
G 7  20848892.100   109561671.578                                  
G 8  21993401.700   115576041.977    21993402.560    86306782.641  
G 9  20965021.320   110171885.914    20965022.320    82271216.293  
G14  22046620.460   115855747.688                                  
G27  23453982.640   123251456.258    23453983.480    92038425.434  
G28  22301268.920   117193942.625                                  
G30  21507439.980   113022308.637    21507441.140    84399777.238  
E 7  25447470.560   133727313.898    25447477.240    99861294.836  
E18  28398121.540   149233111.3482                                 
E19  25344034.880   133183780.336    25344039.360    99455411.594  
E21  25037181.660   131571245.961    25037187.680    98251246.762  
E27  23386514.960   122896943.355    23386520.220    91773685.559  
E30  25563553.800   134337349.375    25563559.700   100316842.508  
> 2021  1  4 22 34 48.0000000  0 15       0.000000000000
G 4  23635308.560   124204347.207    23635313.040    92750002.941  
G 5  23763935.180   124880305.137                                  
G 7  20848866.560   109561537.355                                  
G 8  21993301.600   115575515.906    21993302.440    86306389.801  
G 9  20965390.780   110173827.477    20965391.800    82272666.168  
G14  22046101.460   115853020.316                                  
G27  23454296.560   123253105.914    23454297.400    92039657.320  
G28  22300750.220   117191216.859                                  
G30  21507152.780   113020799.332    21507153.940    84398650.168  
E 7  25447948.280   133729824.395    25447954.960    99863169.563  
E18  28397209.440   149228318.3132                                 
E19  25343637.020   133181689.609    25343641.500    99453850.344  
E21  25036870.240   131569609.461    25036876.280    98250024.707  
E27  23386647.120   122897637.852    23386652.380    91774204.176  
E30  25564016.660   134339781.773    25564022.560   100318658.910  
> 2021  1  4 22 34 49.0000000  0 15       0.000000000000
G 4  23635937.240   124207650.895    23635941.720    92752469.984  
G 5  23763774.320   124879459.789                                  
G 7  20848841.060   109561403.328                                  
G 8  21993201.620   115574990.484    21993202.460    86305997.445  
G 9  20965760.340   110175769.547    20965761.360    82274116.414  
G14  22045582.520   115850293.313                                  
G27  23454610.600   123254756.168    23454611.440    92040889.660  
G28  22300231.580   117188491.445                                  
G30  21506865.600   113019290.207    21506866.760    84397523.227  
E 7  25448426.060   133732335.125    25448432.740    99865044.461  
E18  28396297.300   149223524.9452                                 
E19  25343239.220   133179599.141    25343243.700    99452289.281  
E21  25036558.860   131567973.230    25036564.900    98248802.848  
E27  23386779.320   122898332.602    23386784.580    91774722.984  
E30  25564479.540   134342214.188    25564485.440   100320475.328  
> 2021  1  4 22 34 50.0000000  0 15       0.000000000000
G 4  23636565.960   124210954.824    23636570.440    92754937.207  
G 5  23763613.560   124878615.047                                  
G 7  20848815.580   109561269.492                                  
G 8  21993101.760   115574465.738    21993102.600    86305605.590  
G 9  20966130.000   110177712.109    20966131.020    82275567.035  
G14  22045063.660   115847566.668                                  
G27  23454924.760   123256407.059    23454925.580    92042122.469  
G28  22299713.020   117185766.410                                  
G30  21506578.460   113017781.258    21506579.620    84396396.418  
E 7  25448903.880   133734846.102    25448910.560    99866919.543  
E18  28395385.100   149218731.2622                                 
E19  25342841.460   133177508.949    25342845.940    99450728.430  
E21  25036247.560   131566337.250    25036253.580    98247581.180  
E27  23386911.580   122899027.613    23386916.840    91775241.992  
E30  25564942.420   134344646.609    25564948.320   100322291.750  
> 2021  1  4 22 34 51.0000000  0 15       0.000000000000
G 4  23637194.720   124214258.996    23637199.200    92757404.609  
G 5  23763452.940   124877770.926                                  
G 7  20848790.160   109561135.852                                  
G 8  21993002.020   115573941.656    21993002.880    86305214.238  
G 9  20966499.760   110179655.188    20966500.760    82277018.039  
G14  22044544.880   115844840.406                                  
G27  23455239.020   123258058.555    23455239.860    92043355.734  
G28  22299194.540   117183041.730                                  
G30  21506291.340   113016272.488    21506292.500    84395269.746  
E 7  25449381.760   133737357.336    25449388.440    99868794.820  
E18  28394472.820   149213937.2702                                 
E19  25342443.760   133175419.000    25342448.240    99449167.758  
E21  25035936.280   131564701.535    25035942.320    98246359.707  
E27  23387043.880   122899722.875    23387049.140    91775761.188  
E30  25565405.300   134347079.051    25565411.200   100324108.188  
> 2021  1  4 22 34 52.0000000  0 15       0.000000000000
G 4  23637823.520   124217563.387    23637828.000    92759872.176  
G 5  23763292.420   124876927.395                                  
G 7  20848764.760   109561002.414                                  
G 8  21992902.420   115573418.246    21992903.260    86304823.379  
G 9  20966869.620   110181598.758    20966870.620    82278469.410  
G14  22044026.140   115842114.508                                  
G27  23455553.400   123259710.668    23455554.240    92044589.457  
G28  22298676.120   117180317.434                                  
G30  21506004.280   113014763.902    21506005.420    84394143.203  
E 7  25449859.680   133739868.809    25449866.360    99870670.273  
E18  28393560.500   149209142.9412                                 
E19  25342046.120   133173329.320    25342050.580    99447607.285  
E21  25035625.060   131563066.059    25035631.100    98245138.414  
E27  23387176.240   122900418.387    23387181.500    91776280.566  
E30  25565868.180   134349511.512    25565874.080   100325924.637  
> 2021  1  4 22 34 53.0000000  0 15       0.000000000000
G 4  23638452.380   124220868.016    23638456.860    92762339.922  
G 5  23763132.020   124876084.480                                  
G 7  20848739.400   109560869.164                                  
G 8  21992802.940   115572895.465    21992803.780    86304432.996  
G 9  20967239.560   110183542.828    20967240.560    82279921.152  
G14  22043507.500   115839388.969                                  
G27  23455867.920   123261363.395    23455868.740    92045823.641  
G28  22298157.780   117177593.492                                  
G30  21505717.220   113013255.477    21505718.380    84393016.789  
E 7  25450337.640   133742380.531    25450344.320    99872545.914  
E18  28392648.100   149204348.2892                                 
E19  25341648.500   133171239.879    25341652.980    99446046.996  
E21  25035313.900   131561430.852    25035319.920    98243917.324  
E27  23387308.640   122901114.152    23387313.900    91776800.133  
E30  25566331.060   134351943.980    25566336.960   100327741.094  
> 2021  1  4 22 34 54.0000000  0 15       0.000000000000
G 4  23639081.260   124224172.879    23639085.740    92764807.840  
G 5  23762971.720   124875242.156                                  
G 7  20848714.080   109560736.113                                  
G 8  21992703.580   115572373.324    21992704.420    86304043.094  
G 9  20967609.600   110185487.402    20967610.600    82281373.273  
G14  22042988.920   115836663.813                                  
G27  23456182.540   123263016.742    23456183.360    92047058.285  
G28  22297639.500   117174869.918                                  
G30  21505430.220   113011747.238    21505431.380    84391890.512  
E 7  25450815.640   133744892.480    25450822.320    99874421.727  
E18  28391735.640   149199553.3012                                 
E19  25341250.940   133169150.699    25341255.420    99444486.898  
E21  25035002.780   131559795.891    25035008.800    98242696.418  
E27  23387441.080   122901810.180    23387446.340    91777319.898  
E30  25566793.940   134354376.473    25566799.840   100329557.570  
> 2021  1  4 22 34 55.0000000  0 15       0.000000000000
G 4  23639710.200   124227477.977    23639714.680    92767275.938  
G 5  23762811.560   124874400.445                                  
G 7  20848688.800   109560603.254                                  
G 8  21992604.360   115571851.848    21992605.180    86303653.684  
G 9  20967979.740   110187432.480    20967980.740    82282825.770  
G14  22042470.400   115833939.012                                  
G27  23456497.280   123264670.695    23456498.100    92048293.387  
G28  22297121.280   117172146.727                                  
G30  21505143.240   113010239.176    21505144.400    84390764.367  
E 7  25451293.700   133747404.699    25451300.380    99876297.734  
E18  28390823.140   149194758.0082                                 
E19  25340853.440   133167061.777    25340857.900    99442926.992  
E21  25034691.700   131558161.191    25034697.720    98241475.703  
E27  23387573.580   122902506.461    23387578.840    91777839.852  
E30  25567256.840   134356808.961    25567262.740   100331374.043  
> 2021  1  4 22 34 56.0000000  0 15       0.000000000000
G 4  23640339.200   124230783.305    23640343.660    92769744.203  
G 5  23762651.500   124873559.332                                  
G 7  20848663.560   109560470.594                                  
G 8  21992505.240   115571331.027    21992506.080    86303264.762  
G 9  20968349.960   110189378.066    20968350.960    82284278.648  
G14  22041951.960   115831214.602                                  
G27  23456812.120   123266325.277    23456812.960    92049528.953  
G28  22296603.140   117169423.898                                  
G30  21504856.300   113008731.289    21504857.460    84389638.348  
E 7  25451771.820   133749917.152    25451778.480    99878173.922  
E18  28389910.560   149189962.3912                                 
E19  25340455.980   133164973.113    25340460.440    99441367.281  
E21  25034380.680   131556526.746    25034386.700    98240255.180  
E27  23387706.140   122903202.992    23387711.380    91778359.992  
E30  25567719.740   134359241.484    25567725.620   100333190.539  
> 2021  1  4 22 34 57.0000000  0 15       0.000000000000
G 4  23640968.220   124234088.875    23640972.700    92772212.652  
G 5  23762491.540   124872718.813                                  
G 7  20848638.360   109560338.129                                  
G 8  21992406.260   115570810.848    21992407.100    86302876.320  
G 9  20968720.300   110191324.133    20968721.280    82285731.883  
G14  22041433.600   115828490.547                                  
G27  23457127.100   123267980.473    23457127.920    92050764.980  
G28  22296085.080   117166701.434                                  
G30  21504569.400   113007223.578    21504570.540    84388512.465  
E 7  25452249.960   133752429.855    25452256.640    99880050.293  
E18  28388997.920   149185166.4492                                 
E19  25340058.560   133162884.703    25340063.040    99439807.758  
E21  25034069.700   131554892.551    25034075.720    98239034.844  
E27  23387838.720   122903899.777    23387843.980    91778880.324  
E30  25568182.620   134361674.016    25568188.520   100335007.043  
> 2021  1  4 22 34 58.0000000  0 15       0.000000000000
G 4  23641597.300   124237394.664    23641601.760    92774681.262  
G 5  23762331.720   124871878.914                                  
G 7  20848613.180   109560205.855                                  
G 8  21992307.400   115570291.320    21992308.220    86302488.363  
G 9  20969090.720   110193270.711    20969091.700    82287185.496  
G14  22040915.300   115825766.879                                  
G27  23457442.200   123269636.285    23457443.020    92052001.465  
G28  22295567.080   117163979.328                                  
G30  21504282.520   113005716.055    21504283.680    84387386.723  
E 7  25452728.160   133754942.801    25452734.840    99881926.848  
E18  28388085.220   149180370.1802                                 
E19  25339661.200   133160796.559    25339665.680    99438248.434  
E21  25033758.760   131553258.621    25033764.800    98237814.707  
E27  23387971.360   122904596.813    23387976.620    91779400.844  
E30  25568645.520   134364106.555    25568651.420   100336823.555  
> 2021  1  4 22 34 59.0000000  0 15       0.000000000000
G 4  23642226.420   124240700.699    23642230.880    92777150.059  
G 5  23762172.000   124871039.621                                  
G 7  20848588.060   109560073.781                                  
G 8  21992208.660   115569772.457    21992209.480    86302100.906  
G 9  20969461.240   110195217.809    20969462.220    82288639.504  
G14  22040397.060   115823043.559                                  
G27  23457757.400   123271292.715    23457758.220    92053238.414  
G28  22295049.160   117161257.609                                  
G30  21503995.680   113004208.715    21503996.840    84386261.113  
E 7  25453206.400   133757455.996    25453213.080    99883803.586  
E18  28387172.460   149175573.5902                                 
E19  25339263.900   133158708.664    25339268.360    99436689.297  
E21  25033447.900   131551624.945    25033453.920    98236594.758  
E27  23388104.060   122905294.117    23388109.320    91779921.563  
E30  25569108.420   134366539.109    25569114.320   100338640.074  
> 2021  1  4 22 35  0.0000000  0 15       0.000000000000
G 4  23642855.580   124244006.973    23642860.040    92779619.031  
G 5  23762012.420   124870200.938                                  
G 7  20848562.960   109559941.898                                  
G 8  21992110.040   115569254.238    21992110.880    86301713.930  
G 9  20969831.840   110197165.379    20969832.840    82290093.859  
G14  22039878.900   115820320.621                                  
G27  23458072.720   123272949.746    23458073.540    92054475.813  
G28  22294531.300   117158536.258                                  
G30  21503708.880   113002701.539    21503710.020    84385135.629  
E 7  25453684.700   133759969.438    25453691.380    99885680.508  
E18  28386259.640   149170776.6842                                 
E19  25338866.620   133156621.035    25338871.100    99435130.359  
E21  25033137.060   131549991.527    25033143.080    98235375.000  
E27  23388236.800   122905991.664    23388242.040    91780442.457  
E30  25569571.320   134368971.680    25569577.220   100340456.609  
> 2021  1  4 22 35  1.0000000  0 15       0.000000000000
G 4  23643484.780   124247313.465    23643489.260    92782088.168  
G 5  23761852.920   124869362.844                                  
G 7  20848537.900   109559810.215                                  
G 8  21992011.560   115568736.680    21992012.380    86301327.445  
G 9  20970202.560   110199113.457    20970203.540    82291548.602  
G14  22039360.820   115817598.047                                  
G27  23458388.160   123274607.398    23458388.980    92055713.672  
G28  22294013.500   117155815.234                                  
G30  21503422.100   113001194.543    21503423.260    84384010.281  
E 7  25454163.040   133762483.121    25454169.720    99887557.617  
E18  28385346.740   149165979.4382                                 
E19  25338469.420   133154533.648    25338473.880    99433571.598  
E21  25032826.280   131548358.355    25032832.300    98234155.434  
E27  23388369.580   122906689.461    23388374.840    91780963.547  
E30  25570034.240   134371404.262    25570040.120   100342273.152  
> 2021  1  4 22 35  2.0000000  0 15       0.000000000000
G 4  23644114.020   124250620.191    23644118.500    92784557.480  
G 5  23761693.560   124868525.363                                  
G 7  20848512.880   109559678.730                                  
G 8  21991913.200   115568219.785    21991914.020    86300941.457  
G 9  20970573.360   110201062.043    20970574.340    82293003.715  
G14  22038842.800   115814875.844                                  
G27  23458703.720   123276265.664    23458704.540    92056951.988  
G28  22293495.780   117153094.609                                  
G30  21503135.360   112999687.723    21503136.520    84382885.063  
E 7  25454641.420   133764997.055    25454648.100    99889434.906  
E18  28384433.800   149161181.8792                                 
E19  25338072.240   133152446.523    25338076.700    99432013.035  
E21  25032515.540   131546725.445    25032521.560    98232936.055  
E27  23388502.420   122907387.516    23388507.660    91781484.824  
E30  25570497.140   134373836.863    25570503.040   100344089.707  
> 2021  1  4 22 35  3.0000000  0 15       0.000000000000
G 4  23644743.320   124253927.160    23644747.800    92787026.973  
G 5  23761534.320   124867688.496                                  
G 7  20848487.900   109559547.438                                  
G 8  21991814.960   115567703.535    21991815.780    86300555.949  
G 9  20970944.260   110203011.125    20970945.240    82294459.199  
G14  22038324.840   115812154.012                                  
G27  23459019.400   123277924.551    23459020.220    92058190.773  
G28  22292978.120   117150374.328                                  
G30  21502848.660   112998181.086    21502849.800    84381759.980  
E 7  25455119.860   133767511.223    25455126.520    99891312.375  
E18  28383520.800   149156384.0202                                 
E19  25337675.120   133150359.656    25337679.580    99430454.664  
E21  25032204.860   131545092.805    25032210.880    98231716.879  
E27  23388635.300   122908085.828    23388640.560    91782006.297  
E30  25570960.060   134376269.480    25570965.940   100345906.273  
> 2021  1  4 22 35  4.0000000  0 15       0.000000000000
G 4  23645372.660   124257234.352    23645377.140    92789496.633  
G 5  23761375.180   124866852.230                                  
G 7  20848462.940   109559416.340                                  
G 8  21991716.840   115567187.965    21991717.680    86300170.949  
G 9  20971315.240   110204960.711    20971316.240    82295915.066  
G14  22037806.980   115809432.551                                  
G27  23459335.200   123279584.051    23459336.020    92059430.012  
G28  22292460.560   117147654.441                                  
G30  21502562.000   112996674.621    21502563.140    84380635.027  
E 7  25455598.340   133770025.652    25455605.000    99893190.031  
E18  28382607.720   149151585.8012                                 
E19  25337278.060   133148273.051    25337282.520    99428896.492  
E21  25031894.220   131543460.402    25031900.240    98230497.883  
E27  23388768.240   122908784.395    23388773.480    91782527.957  
E30  25571422.960   134378702.098    25571428.860   100347722.840  
> 2021  1  4 22 35  5.0000000  0 15       0.000000000000
G 4  23646002.040   124260541.785    23646006.520    92791966.473  
G 5  23761216.160   124866016.563                                  
G 7  20848438.040   109559285.441                                  
G 8  21991618.860   115566673.035    21991619.680    86299786.430  
G 9  20971686.340   110206910.785    20971687.320    82297371.293  
G14  22037289.160   115806711.465                                  
G27  23459651.100   123281244.156    23459651.920    92060669.707  
G28  22291943.040   117144934.902                                  
G30  21502275.360   112995168.324    21502276.500    84379510.199  
E 7  25456076.860   133772540.316    25456083.520    99895067.871  
E18  28381694.600   149146787.2812                                 
E19  25336881.040   133146186.688    25336885.500    99427338.496  
E21  25031583.640   131541828.250    25031589.660    98229279.070  
E27  23388901.220   122909483.211    23388906.460    91783049.805  
E30  25571885.880   134381134.738    25571891.760   100349539.426  
> 2021  1  4 22 35  6.0000000  0 15       0.000000000000
G 4  23646631.480   124263849.441    23646635.940    92794436.477  
G 5  23761057.240   124865181.516                                  
G 7  20848413.160   109559154.734                                  
G 8  21991521.000   115566158.770    21991521.820    86299402.402  
G 9  20972057.520   110208861.371    20972058.500    82298827.902  
G14  22036771.420   115803990.730                                  
G27  23459967.120   123282904.875    23459967.940    92061909.855  
G28  22291425.600   117142215.738                                  
G30  21501988.760   112993662.223    21501989.900    84378385.520  
E 7  25456555.440   133775055.230    25456562.100    99896945.895  
E18  28380781.400   149141988.4262                                 
E19  25336484.060   133144100.598    25336488.520    99425780.707  
E21  25031273.100   131540196.359    25031279.120    98228060.457  
E27  23389034.240   122910182.281    23389039.500    91783571.840  
E30  25572348.800   134383567.387    25572354.680   100351356.020  
> 2021  1  4 22 35  7.0000000  0 15       0.000000000000
G 4  23647260.940   124267157.344    23647265.420    92796906.664  
G 5  23760898.460   124864347.070                                  
G 7  20848388.320   109559024.230                                  
G 8  21991423.260   115565645.152    21991424.080    86299018.859  
G 9  20972428.800   110210812.457    20972429.780    82300284.883  
G14  22036253.760   115801270.383                                  
G27  23460283.260   123284566.223    23460284.080    92063150.473  
G28  22290908.220   117139496.941                                  
G30  21501702.180   112992156.285    21501703.320    84377260.957  
E 7  25457034.060   133777570.379    25457040.720    99898824.094  
E18  28379868.160   149137189.2622                                 
E19  25336087.140   133142014.766    25336091.600    99424223.109  
E21  25030962.620   131538564.730    25030968.620    98226842.035  
E27  23389167.320   122910881.609    23389172.560    91784094.070  
E30  25572811.720   134386000.055    25572817.600   100353172.625  
