     3.03           OBSERVATION DATA    M: Mixed            RINEX VERSION / TYPE
sbp2rinex v2.2 (RTKL                    20210504 171530 UTC PGM / RUN BY / DATE 
log: 202103102340-202103110020.sbp                          COMMENT             
format: Swift Navigation SBP, option: CONVBASE,EPHALL,OBSALLCOMMENT             
                                                            MARKER NAME         
                                                            MARKER NUMBER       
                                                            MARKER TYPE         
                                                            OBSERVER / AGENCY   
                                                            REC # / TYPE / VERS 
                                                            ANT # / TYPE        
 -2711592.6468 -4352792.6432  3779529.8514                  APPROX POSITION XYZ 
        0.0000        0.0000        0.0000                  ANTENNA: DELTA H/E/N
G    4 C1C L1C C5I L5I                                      SYS / # / OBS TYPES 
E    4 C1B L1B C5I L5I                                      SYS / # / OBS TYPES 
  2021     3    10    23    40   18.0000000     GPS         TIME OF FIRST OBS   
  2021     3    11     0    30   16.0000000     GPS         TIME OF LAST OBS    
G                                                           SYS / PHASE SHIFT   
E                                                           SYS / PHASE SHIFT   
  0                                                         GLONASS SLOT / FRQ #
 C1C    0.000 C1P    0.000 C2C    0.000 C2P    0.000        GLONASS COD/PHS/BIS 
                                                            END OF HEADER       
> 2021  3 10 23 40 18.0000000  0 11       0.000000000000
G 2  21839756.320   114768698.492                                  
G 6  20810154.960   109358051.336    20810157.400    81663480.547  
G12  22286960.100   117118766.402                                  
G14  24211565.080   127232600.750    24211570.140    95011352.973  
G17  22775804.640   119687652.750                                  
G19  20834297.320   109484981.422                                  
G24  20915400.600   109911125.184    20915402.320    82076490.836  
G28  23605074.020   124045486.863                                  
E 2  23368889.840   122804335.145    23368892.020    91704531.652  
E25  25216746.380   132514853.320    25216750.480    98955886.063  
E30  25061557.460   131699338.133    25061561.080    98346898.348  
> 2021  3 10 23 40 19.0000000  0 11       0.000000000000
G 2  21839293.720   114766267.582                                  
G 6  20810009.600   109357287.484    20810012.040    81662910.137  
G12  22286490.760   117116300.094                                  
G14  24212070.020   127235254.191    24212075.060    95013334.434  
G17  22776291.120   119690209.164                                  
G19  20834651.180   109486840.965                                  
G24  20915388.240   109911060.141    20915389.940    82076442.258  
G28  23605464.040   124047536.395                                  
E 2  23368788.320   122803801.672    23368790.520    91704133.277  
E25  25217044.820   132516421.617    25217048.920    98957057.188  
E30  25061138.240   131697135.109    25061141.860    98345253.230  
> 2021  3 10 23 40 20.0000000  0 11       0.000000000000
G 2  21838831.220   114763837.109                                  
G 6  20809864.380   109356524.313    20809866.820    81662340.230  
G12  22286021.460   117113833.906                                  
G14  24212574.980   127237907.777    24212580.040    95015316.000  
G17  22776777.600   119692765.645                                  
G19  20835005.100   109488700.832                                  
G24  20915375.980   109910995.746    20915377.700    82076394.168  
G28  23605854.080   124049586.082                                  
E 2  23368686.840   122803268.418    23368689.040    91703735.063  
E25  25217343.300   132517990.141    25217347.400    98958228.484  
E30  25060719.020   131694932.102    25060722.640    98343608.121  
> 2021  3 10 23 40 21.0000000  0 11       0.000000000000
G 2  21838368.800   114761407.074                                  
G 6  20809719.280   109355761.801    20809721.720    81661770.820  
G12  22285552.200   117111367.863                                  
G14  24213079.960   127240561.508    24213085.020    95017297.676  
G17  22777264.080   119695322.184                                  
G19  20835359.080   109490561.031                                  
G24  20915363.840   109910931.980    20915365.560    82076346.547  
G28  23606244.140   124051635.918                                  
E 2  23368585.420   122802735.387    23368587.600    91703337.016  
E25  25217641.820   132519558.875    25217645.920    98959399.938  
E30  25060299.800   131692729.121    25060303.420    98341963.035  
> 2021  3 10 23 40 22.0000000  0 11       0.000000000000
G 2  21837906.460   114758977.484                                  
G 6  20809574.300   109354999.953    20809576.740    81661201.902  
G12  22285082.940   117108901.945                                  
G14  24213584.980   127243215.387    24213590.040    95019279.465  
G17  22777750.600   119697878.797                                  
G19  20835713.140   109492421.555                                  
G24  20915351.840   109910868.863    20915353.540    82076299.410  
G28  23606634.260   124053685.918                                  
E 2  23368484.020   122802202.566    23368486.220    91702939.129  
E25  25217940.380   132521127.840    25217944.480    98960571.563  
E30  25059880.580   131690526.152    25059884.220    98340317.957  
> 2021  3 10 23 40 23.0000000  0 11       0.000000000000
G 2  21837444.220   114756548.320                                  
G 6  20809429.460   109354238.785    20809431.900    81660633.496  
G12  22284613.720   117106436.160                                  
G14  24214090.040   127245869.406    24214095.080    95021261.359  
G17  22778237.120   119700435.465                                  
G19  20836067.240   109494282.402                                  
G24  20915339.940   109910806.395    20915341.660    82076252.758  
G28  23607024.380   124055736.066                                  
E 2  23368382.660   122801669.969    23368384.860    91702541.402  
E25  25218238.980   132522697.020    25218243.080    98961743.348  
E30  25059461.380   131688323.211    25059465.000    98338672.902  
> 2021  3 10 23 40 24.0000000  0 11       0.000000000000
G 2  21836982.040   114754119.594                                  
G 6  20809284.740   109353478.277    20809287.180    81660065.578  
G12  22284144.520   117103970.492                                  
G14  24214595.100   127248523.582    24214600.160    95023243.371  
G17  22778723.640   119702992.199                                  
G19  20836421.420   109496143.570                                  
G24  20915328.180   109910744.547    20915329.900    82076206.570  
G28  23607414.540   124057786.363                                  
E 2  23368281.360   122801137.602    23368283.560    91702143.855  
E25  25218537.620   132524266.414    25218541.720    98962915.297  
E30  25059042.180   131686120.289    25059045.800    98337027.859  
> 2021  3 10 23 40 25.0000000  0 11       0.000000000000
G 2  21836519.960   114751691.301                                  
G 6  20809140.140   109352718.434    20809142.600    81659498.160  
G12  22283675.340   117101504.934                                  
G14  24215100.200   127251177.910    24215105.260    95025225.492  
G17  22779210.180   119705548.992                                  
G19  20836775.640   109498005.070                                  
G24  20915316.520   109910683.344    20915318.240    82076160.859  
G28  23607804.740   124059836.824                                  
E 2  23368180.100   122800605.422    23368182.280    91701746.441  
E25  25218836.320   132525836.039    25218840.420    98964087.410  
E30  25058622.980   131683917.387    25058626.600    98335382.832  
> 2021  3 10 23 40 26.0000000  0 11       0.000000000000
G 2  21836057.940   114749263.449                                  
G 6  20808995.680   109351959.254    20808998.120    81658931.238  
G12  22283206.180   117099039.500                                  
G14  24215605.340   127253832.375    24215610.400    95027207.719  
G17  22779696.740   119708105.863                                  
G19  20837129.940   109499866.906                                  
G24  20915305.000   109910622.770    20915306.720    82076115.621  
G28  23608194.940   124061887.418                                  
E 2  23368078.860   122800073.504    23368081.060    91701349.227  
E25  25219135.040   132527405.879    25219139.140    98965259.691  
E30  25058203.780   131681714.508    25058207.420    98333737.820  
> 2021  3 10 23 40 27.0000000  0 11       0.000000000000
G 2  21835596.020   114746836.027                                  
G 6  20808851.340   109351200.742    20808853.780    81658364.813  
G12  22282737.040   117096574.176                                  
G14  24216110.500   127256486.984    24216115.540    95029190.051  
G17  22780183.320   119710662.797                                  
G19  20837484.300   109501729.059                                  
G24  20915293.600   109910562.840    20915295.320    82076070.863  
G28  23608585.200   124063938.180                                  
E 2  23367977.680   122799541.770    23367979.880    91700952.148  
E25  25219433.820   132528975.938    25219437.920    98966432.133  
E30  25057784.600   131679511.656    25057788.220    98332092.832  
> 2021  3 10 23 40 28.0000000  0 11       0.000000000000
G 2  21835134.180   114744409.051                                  
G 6  20808707.120   109350442.902    20808709.580    81657798.891  
G12  22282267.940   117094108.973                                  
G14  24216615.680   127259141.750    24216620.740    95031172.500  
G17  22780669.900   119713219.781                                  
G19  20837838.720   109503591.539                                  
G24  20915282.320   109910503.555    20915284.040    82076026.590  
G28  23608975.480   124065989.105                                  
E 2  23367876.540   122799010.258    23367878.740    91700555.238  
E25  25219732.640   132530546.219    25219736.740    98967604.742  
E30  25057365.400   131677308.820    25057369.040    98330447.852  
> 2021  3 10 23 40 29.0000000  0 11       0.000000000000
G 2  21834672.420   114741982.508                                  
G 6  20808563.040   109349685.723    20808565.480    81657233.461  
G12  22281798.840   117091643.887                                  
G14  24217120.880   127261796.648    24217125.940    95033155.047  
G17  22781156.480   119715776.836                                  
G19  20838193.200   109505454.352                                  
G24  20915271.160   109910444.918    20915272.880    82075982.797  
G28  23609365.780   124068040.180                                  
E 2  23367775.440   122798478.953    23367777.640    91700158.480  
E25  25220031.480   132532116.723    25220035.600    98968777.516  
E30  25056946.220   131675106.004    25056949.860    98328802.891  
> 2021  3 10 23 40 30.0000000  0 11       0.000000000000
G 2  21834210.760   114739556.410                                  
G 6  20808419.080   109348929.219    20808421.540    81656668.535  
G12  22281329.780   117089178.910                                  
G14  24217626.120   127264451.695    24217631.180    95035137.711  
G17  22781643.080   119718333.957                                  
G19  20838547.740   109507317.484                                  
G24  20915260.120   109910386.938    20915261.840    82075939.496  
G28  23609756.120   124070091.395                                  
E 2  23367674.380   122797947.891    23367676.580    91699761.902  
E25  25220330.380   132533687.449    25220334.500    98969950.457  
E30  25056527.040   131672903.215    25056530.680    98327157.945  
> 2021  3 10 23 40 31.0000000  0 11       0.000000000000
G 2  21833749.160   114737130.742                                  
G 6  20808275.240   109348173.383    20808277.700    81656104.105  
G12  22280860.720   117086714.059                                  
G14  24218131.400   127267106.887    24218136.460    95037120.477  
G17  22782129.700   119720891.133                                  
G19  20838902.340   109509180.949                                  
G24  20915249.220   109910329.594    20915250.940    82075896.672  
G28  23610146.480   124072142.785                                  
E 2  23367573.360   122797417.031    23367575.560    91699365.480  
E25  25220629.320   132535258.395    25220633.440    98971123.559  
E30  25056107.860   131670700.453    25056111.500    98325513.023  
> 2021  3 10 23 40 32.0000000  0 11       0.000000000000
G 2  21833287.660   114734705.512                                  
G 6  20808131.540   109347418.211    20808134.000    81655540.176  
G12  22280391.700   117084249.320                                  
G14  24218636.680   127269762.223    24218641.760    95039103.352  
G17  22782616.340   119723448.379                                  
G19  20839257.020   109511044.746                                  
G24  20915238.440   109910272.930    20915240.160    82075854.355  
G28  23610536.880   124074194.309                                  
E 2  23367472.380   122796886.414    23367474.580    91698969.234  
E25  25220928.300   132536829.555    25220932.420    98972296.824  
E30  25055688.700   131668497.711    25055692.340    98323868.117  
> 2021  3 10 23 40 33.0000000  0 11       0.000000000000
G 2  21832826.240   114732280.723                                  
G 6  20807987.960   109346663.707    20807990.420    81654976.746  
G12  22279922.700   117081784.703                                  
G14  24219142.020   127272417.715    24219147.080    95041086.348  
G17  22783102.980   119726005.680                                  
G19  20839611.740   109512908.867                                  
G24  20915227.760   109910216.883    20915229.500    82075812.496  
G28  23610927.300   124076246.008                                  
E 2  23367371.440   122796355.980    23367373.640    91698573.125  
E25  25221227.340   132538400.938    25221231.440    98973470.254  
E30  25055269.540   131666294.984    25055273.160    98322223.223  
> 2021  3 10 23 40 34.0000000  0 11       0.000000000000
G 2  21832364.900   114729856.371                                  
G 6  20807844.520   109345909.883    20807846.980    81654413.820  
G12  22279453.720   117079320.207                                  
G14  24219647.360   127275073.352    24219652.420    95043069.445  
G17  22783589.620   119728563.051                                  
G19  20839966.540   109514773.316                                  
G24  20915217.220   109910161.488    20915218.960    82075771.125  
G28  23611317.760   124078297.844                                  
E 2  23367270.540   122795825.801    23367272.760    91698177.211  
E25  25221526.400   132539972.547    25221530.520    98974643.855  
E30  25054850.380   131664092.289    25054854.000    98320578.348  
> 2021  3 10 23 40 35.0000000  0 11       0.000000000000
G 2  21831903.640   114727432.453                                  
G 6  20807701.200   109345156.715    20807703.660    81653851.387  
G12  22278984.760   117076855.828                                  
G14  24220152.740   127277729.133    24220157.820    95045052.656  
G17  22784076.280   119731120.488                                  
G19  20840321.400   109516638.094                                  
G24  20915206.800   109910106.727    20915208.540    82075730.230  
G28  23611708.240   124080349.844                                  
E 2  23367169.700   122795295.824    23367171.900    91697781.445  
E25  25221825.500   132541544.375    25221829.620    98975817.617  
E30  25054431.220   131661889.617    25054434.860    98318933.492  
> 2021  3 10 23 40 36.0000000  0 11       0.000000000000
G 2  21831442.460   114725008.977                                  
G 6  20807558.000   109344404.219    20807560.460    81653289.453  
G12  22278515.840   117074391.582                                  
G14  24220658.140   127280385.063    24220663.220    95047035.973  
G17  22784562.960   119733677.992                                  
G19  20840676.300   109518503.184                                  
G24  20915196.500   109910052.609    20915198.240    82075689.813  
G28  23612098.740   124082401.996                                  
E 2  23367068.880   122794766.055    23367071.100    91697385.832  
E25  25222124.660   132543116.422    25222128.780    98976991.547  
E30  25054012.060   131659686.965    25054015.700    98317288.652  
> 2021  3 10 23 40 37.0000000  0 11       0.000000000000
G 2  21830981.380   114722585.934                                  
G 6  20807414.920   109343652.391    20807417.400    81652728.020  
G12  22278046.920   117071927.441                                  
G14  24221163.580   127283041.137    24221168.660    95049019.402  
G17  22785049.660   119736235.551                                  
G19  20841031.280   109520368.613                                  
G24  20915186.320   109909999.129    20915188.060    82075649.871  
G28  23612489.280   124084454.297                                  
E 2  23366968.120   122794236.520    23366970.320    91696990.398  
E25  25222423.840   132544688.680    25222427.960    98978165.629  
E30  25053592.920   131657484.340    25053596.560    98315643.832  
> 2021  3 10 23 40 38.0000000  0 11       0.000000000000
G 2  21830520.380   114720163.340                                  
G 6  20807271.980   109342901.223    20807274.440    81652167.078  
G12  22277578.040   117069463.438                                  
G14  24221669.040   127285697.355    24221674.120    95051002.934  
G17  22785536.360   119738793.176                                  
G19  20841386.320   109522234.375                                  
G24  20915176.280   109909946.277    20915178.000    82075610.402  
G28  23612879.860   124086506.754                                  
E 2  23366867.380   122793707.203    23366869.600    91696595.125  
E25  25222723.080   132546261.172    25222727.200    98979339.887  
E30  25053173.780   131655281.723    25053177.420    98313999.016  
> 2021  3 10 23 40 39.0000000  0 11       0.000000000000
G 2  21830059.460   114717741.176                                  
G 6  20807129.180   109342150.727    20807131.640    81651606.641  
G12  22277109.180   117066999.543                                  
G14  24222174.540   127288353.719    24222179.600    95052986.578  
G17  22786023.060   119741350.871                                  
G19  20841741.440   109524100.457                                  
G24  20915166.340   109909894.047    20915168.060    82075571.395  
G28  23613270.460   124088559.363                                  
E 2  23366766.700   122793178.105    23366768.920    91696200.016  
E25  25223022.360   132547833.887    25223026.480    98980514.313  
E30  25052754.640   131653079.137    25052758.280    98312354.223  
> 2021  3 10 23 40 40.0000000  0 11       0.000000000000
G 2  21829598.620   114715319.449                                  
G 6  20806986.480   109341400.898    20806988.940    81651046.699  
G12  22276640.340   117064535.762                                  
G14  24222680.060   127291010.230    24222685.120    95054970.332  
G17  22786509.780   119743908.617                                  
G19  20842096.600   109525966.863                                  
G24  20915156.520   109909842.477    20915158.260    82075532.879  
G28  23613661.080   124090612.133                                  
E 2  23366666.060   122792649.215    23366668.260    91695805.063  
E25  25223321.680   132549406.816    25223325.800    98981688.902  
E30  25052335.500   131650876.566    25052339.140    98310709.441  
> 2021  3 10 23 40 41.0000000  0 11       0.000000000000
G 2  21829137.860   114712898.168                                  
G 6  20806843.920   109340651.734    20806846.380    81650487.254  
G12  22276171.520   117062072.102                                  
G14  24223185.600   127293666.891    24223190.680    95056954.199  
G17  22786996.520   119746466.441                                  
G19  20842451.820   109527833.605                                  
G24  20915146.840   109909791.586    20915148.560    82075494.871  
G28  23614051.740   124092665.043                                  
E 2  23366565.460   122792120.555    23366567.660    91695410.277  
E25  25223621.040   132550979.961    25223625.160    98982863.645  
E30  25051916.360   131648674.027    25051920.000    98309064.688  
> 2021  3 10 23 40 42.0000000  0 11       0.000000000000
G 2  21828677.180   114710477.316                                  
G 6  20806701.480   109339903.238    20806703.960    81649928.313  
G12  22275702.720   117059608.551                                  
G14  24223691.180   127296323.691    24223696.260    95058938.168  
G17  22787483.280   119749024.313                                  
G19  20842807.120   109529700.656                                  
G24  20915137.260   109909741.316    20915139.000    82075457.328  
G28  23614442.420   124094718.113                                  
E 2  23366464.900   122791592.098    23366467.100    91695015.648  
E25  25223920.440   132552553.336    25223924.560    98984038.563  
E30  25051497.240   131646471.500    25051500.880    98307419.941  
> 2021  3 10 23 40 43.0000000  0 11       0.000000000000
G 2  21828216.600   114708056.902                                  
G 6  20806559.180   109339155.414    20806561.640    81649369.867  
G12  22275233.940   117057145.137                                  
G14  24224196.780   127298980.645    24224201.860    95060922.254  
G17  22787970.040   119751582.266                                  
G19  20843162.460   109531568.051                                  
G24  20915127.820   109909691.688    20915129.560    82075420.266  
G28  23614833.140   124096771.336                                  
E 2  23366364.380   122791063.875    23366366.580    91694621.191  
E25  25224219.880   132554126.926    25224224.000    98985213.645  
E30  25051078.120   131644269.008    25051081.760    98305775.219  
> 2021  3 10 23 40 44.0000000  0 11       0.000000000000
G 2  21827756.080   114705636.934                                  
G 6  20806417.000   109338408.254    20806419.460    81648811.918  
G12  22274765.200   117054681.828                                  
G14  24224702.400   127301637.734    24224707.480    95062906.438  
G17  22788456.820   119754140.277                                  
G19  20843517.880   109533435.766                                  
G24  20915118.500   109909642.719    20915120.240    82075383.691  
G28  23615223.900   124098824.723                                  
E 2  23366263.900   122790535.867    23366266.120    91694226.895  
E25  25224519.360   132555700.742    25224523.500    98986388.891  
E30  25050659.000   131642066.531    25050662.640    98304130.508  
> 2021  3 10 23 40 45.0000000  0 11       0.000000000000
G 2  21827295.660   114703217.402                                  
G 6  20806274.940   109337661.762    20806277.420    81648254.473  
G12  22274296.460   117052218.641                                  
G14  24225208.060   127304294.984    24225213.140    95064890.742  
G17  22788943.600   119756698.348                                  
G19  20843873.360   109535303.813                                  
G24  20915109.300   109909594.383    20915111.040    82075347.598  
G28  23615614.660   124100878.266                                  
E 2  23366163.460   122790008.082    23366165.680    91693832.770  
E25  25224818.900   132557274.766    25224823.020    98987564.297  
E30  25050239.880   131639864.086    25050243.520    98302485.824  
> 2021  3 10 23 40 46.0000000  0 11       0.000000000000
G 2  21826835.320   114700798.301                                  
G 6  20806133.020   109336915.941    20806135.500    81647697.523  
G12  22273827.760   117049755.578                                  
G14  24225713.740   127306952.363    24225718.820    95066875.145  
G17  22789430.400   119759256.488                                  
G19  20844228.900   109537172.184                                  
G24  20915100.240   109909546.703    20915101.980    82075311.984  
G28  23616005.480   124102931.938                                  
E 2  23366063.060   122789480.508    23366065.280    91693438.801  
E25  25225118.460   132558849.027    25225122.580    98988739.883  
E30  25049820.780   131637661.648    25049824.420    98300841.148  
> 2021  3 10 23 40 47.0000000  0 11       0.000000000000
G 2  21826375.080   114698379.648                                  
G 6  20805991.220   109336170.785    20805993.700    81647141.070  
G12  22273359.080   117047292.621                                  
G14  24226219.460   127309609.906    24226224.540    95068859.668  
G17  22789917.200   119761814.688                                  
G19  20844584.500   109539040.879                                  
G24  20915091.280   109909499.668    20915093.020    82075276.855  
G28  23616396.300   124104985.777                                  
E 2  23365962.720   122788953.160    23365964.940    91693045.004  
E25  25225418.080   132560423.500    25225422.200    98989915.625  
E30  25049401.660   131635459.242    25049405.300    98299196.496  
> 2021  3 10 23 40 48.0000000  0 11       0.000000000000
G 2  21825914.900   114695961.430                                  
G 6  20805849.560   109335426.301    20805852.020    81646585.121  
G12  22272890.400   117044829.793                                  
G14  24226725.200   127312267.590    24226730.280    95070844.297  
G17  22790404.020   119764372.941                                  
G19  20844940.160   109540909.895                                  
G24  20915082.460   109909453.246    20915084.200    82075242.191  
G28  23616787.160   124107039.766                                  
E 2  23365862.400   122788426.016    23365864.620    91692651.359  
E25  25225717.740   132561998.195    25225721.860    98991091.535  
E30  25048982.560   131633256.863    25048986.200    98297551.863  
> 2021  3 10 23 40 49.0000000  0 11       0.000000000000
G 2  21825454.820   114693543.652                                  
G 6  20805708.020   109334682.480    20805710.480    81646029.668  
G12  22272421.780   117042367.090                                  
G14  24227230.960   127314925.422    24227236.060    95072829.035  
G17  22790890.860   119766931.262                                  
G19  20845295.880   109542779.238                                  
G24  20915073.740   109909407.496    20915075.480    82075208.020  
G28  23617178.060   124109093.918                                  
E 2  23365762.140   122787899.109    23365764.340    91692257.891  
E25  25226017.420   132563573.117    25226021.560    98992267.609  
E30  25048563.460   131631054.504    25048567.120    98295907.246  
> 2021  3 10 23 40 50.0000000  0 11       0.000000000000
G 2  21824994.800   114691126.316                                  
G 6  20805566.600   109333939.332    20805569.060    81645474.715  
G12  22271953.160   117039904.504                                  
G14  24227736.760   127317583.398    24227741.860    95074813.883  
G17  22791377.700   119769489.652                                  
G19  20845651.680   109544648.918                                  
G24  20915065.160   109909362.367    20915066.900    82075174.316  
G28  23617568.980   124111148.215                                  
E 2  23365661.900   122787372.418    23365664.120    91691864.582  
E25  25226317.160   132565148.258    25226321.300    98993443.852  
E30  25048144.380   131628852.168    25048148.020    98294262.645  
> 2021  3 10 23 40 51.0000000  0 11       0.000000000000
G 2  21824534.880   114688709.422                                  
G 6  20805425.300   109333196.844    20805427.780    81644920.258  
G12  22271484.560   117037442.039                                  
G14  24228242.600   127320241.520    24228247.680    95076798.840  
G17  22791864.560   119772048.102                                  
G19  20846007.520   109546518.918                                  
G24  20915056.700   109909317.883    20915058.440    82075141.094  
G28  23617959.920   124113202.672                                  
E 2  23365561.720   122786845.941    23365563.940    91691471.430  
E25  25226616.940   132566723.613    25226621.060    98994620.254  
E30  25047725.280   131626649.848    25047728.940    98292618.055  
> 2021  3 10 23 40 52.0000000  0 11       0.000000000000
G 2  21824075.040   114686292.953                                  
G 6  20805284.140   109332455.039    20805286.620    81644366.309  
G12  22271016.000   117034979.691                                  
G14  24228748.440   127322899.789    24228753.540    95078783.906  
G17  22792351.420   119774606.605                                  
G19  20846363.440   109548389.242                                  
G24  20915048.340   109909274.020    20915050.100    82075108.336  
G28  23618350.900   124115257.285                                  
E 2  23365461.580   122786319.684    23365463.800    91691078.445  
E25  25226916.760   132568299.191    25226920.900    98995796.820  
E30  25047306.200   131624447.551    25047309.840    98290973.484  
> 2021  3 10 23 40 53.0000000  0 11       0.000000000000
G 2  21823615.300   114683876.934                                  
G 6  20805143.100   109331713.891    20805145.580    81643812.848  
G12  22270547.440   117032517.469                                  
G14  24229254.320   127325558.199    24229259.420    95080769.078  
G17  22792838.300   119777165.168                                  
G19  20846719.420   109550259.895                                  
G24  20915040.120   109909230.813    20915041.880    82075076.066  
G28  23618741.920   124117312.047                                  
E 2  23365361.480   122785793.648    23365363.680    91690685.629  
E25  25227216.640   132569874.992    25227220.760    98996973.555  
E30  25046887.120   131622245.281    25046890.760    98289328.934  
> 2021  3 10 23 40 54.0000000  0 11       0.000000000000
G 2  21823155.620   114681461.355                                  
G 6  20805002.200   109330973.414    20805004.680    81643259.891  
G12  22270078.920   117030055.352                                  
G14  24229760.220   127328216.758    24229765.320    95082754.359  
G17  22793325.200   119779723.805                                  
G19  20847075.440   109552130.867                                  
G24  20915032.020   109909188.262    20915033.780    82075044.285  
G28  23619132.960   124119366.957                                  
E 2  23365261.420   122785267.828    23365263.620    91690292.969  
E25  25227516.540   132571451.012    25227520.660    98998150.449  
E30  25046468.040   131620043.035    25046471.700    98287684.398  
> 2021  3 10 23 40 55.0000000  0 11       0.000000000000
G 2  21822696.040   114679046.211                                  
G 6  20804861.420   109330233.605    20804863.900    81642707.434  
G12  22269610.420   117027593.363                                  
G14  24230266.160   127330875.461    24230271.260    95084739.750  
G17  22793812.100   119782282.512                                  
G19  20847431.540   109554002.176                                  
G24  20915024.060   109909146.359    20915025.800    82075012.992  
G28  23619524.020   124121422.023                                  
E 2  23365161.400   122784742.230    23365163.600    91689900.477  
E25  25227816.480   132573027.254    25227820.620    98999327.516  
E30  25046048.980   131617840.813    25046052.620    98286039.883  
> 2021  3 10 23 40 56.0000000  0 11       0.000000000000
G 2  21822236.540   114676631.508                                  
G 6  20804720.760   109329494.461    20804723.240    81642155.473  
G12  22269141.940   117025131.492                                  
G14  24230772.120   127333534.309    24230777.220    95086725.250  
G17  22794299.020   119784841.301                                  
G19  20847787.700   109555873.813                                  
G24  20915016.200   109909105.070    20915017.940    82074982.156  
G28  23619915.120   124123477.238                                  
E 2  23365061.420   122784216.855    23365063.640    91689508.152  
E25  25228116.480   132574603.715    25228120.600    99000504.742  
E30  25045629.920   131615638.605    25045633.560    98284395.379  
> 2021  3 10 23 40 57.0000000  0 11       0.000000000000
G 2  21821777.120   114674217.246                                  
G 6  20804580.240   109328755.988    20804582.720    81641604.012  
G12  22268673.480   117022669.746                                  
G14  24231278.120   127336193.309    24231283.220    95088710.859  
G17  22794785.960   119787400.145                                  
G19  20848143.920   109557745.773                                  
G24  20915008.460   109909064.445    20915010.220    82074951.816  
G28  23620306.240   124125532.617                                  
E 2  23364961.480   122783691.695    23364963.700    91689115.988  
E25  25228416.520   132576180.402    25228420.640    99001682.137  
E30  25045210.840   131613436.430    25045214.500    98282750.895  
> 2021  3 10 23 40 58.0000000  0 11       0.000000000000
G 2  21821317.780   114671803.422                                  
G 6  20804439.840   109328018.184    20804442.320    81641053.051  
G12  22268205.060   117020208.121                                  
G14  24231784.140   127338852.453    24231789.240    95090696.582  
G17  22795272.900   119789959.047                                  
G19  20848500.220   109559618.059                                  
G24  20915000.860   109909024.441    20915002.600    82074921.938  
G28  23620697.400   124127588.145                                  
E 2  23364861.580   122783166.758    23364863.800    91688723.988  
E25  25228716.580   132577757.305    25228720.700    99002859.691  
E30  25044791.800   131611234.270    25044795.440    98281106.426  
> 2021  3 10 23 40 59.0000000  0 11       0.000000000000
G 2  21820858.520   114669390.039                                  
G 6  20804299.560   109327281.043    20804302.040    81640502.582  
G12  22267736.640   117017746.613                                  
G14  24232290.180   127341511.746    24232295.280    95092682.410  
G17  22795759.860   119792518.004                                  
G19  20848856.560   109561490.664                                  
G24  20914993.360   109908985.105    20914995.120    82074892.559  
G28  23621088.580   124129643.828                                  
E 2  23364761.740   122782642.035    23364763.960    91688332.152  
E25  25229016.700   132579334.426    25229020.820    99004037.414  
E30  25044372.740   131609032.137    25044376.380    98279461.980  
> 2021  3 10 23 41  0.0000000  0 11       0.000000000000
G 2  21820399.360   114666977.094                                  
G 6  20804159.420   109326544.582    20804161.900    81639952.625  
G12  22267268.260   117015285.230                                  
G14  24232796.260   127344171.184    24232801.360    95094668.352  
G17  22796246.820   119795077.031                                  
G19  20849212.960   109563363.586                                  
G24  20914986.000   109908946.398    20914987.760    82074863.652  
G28  23621479.800   124131699.664                                  
E 2  23364661.920   122782117.539    23364664.140    91687940.480  
E25  25229316.860   132580911.762    25229320.980    99005215.297  
E30  25043953.680   131606830.027    25043957.320    98277817.547  
> 2021  3 10 23 41  1.0000000  0 11       0.000000000000
G 2  21819940.280   114664564.590                                  
G 6  20804019.400   109325808.770    20804021.880    81639403.152  
G12  22266799.900   117012823.961                                  
G14  24233302.360   127346830.762    24233307.460    95096654.395  
G17  22796733.800   119797636.109                                  
G19  20849569.440   109565236.836                                  
G24  20914978.760   109908908.340    20914980.520    82074835.227  
G28  23621871.040   124133755.656                                  
E 2  23364562.160   122781593.262    23364564.380    91687548.977  
E25  25229617.060   132582489.328    25229621.180    99006393.348  
E30  25043534.640   131604627.945    25043538.280    98276173.137  
> 2021  3 10 23 41  2.0000000  0 11       0.000000000000
G 2  21819481.260   114662152.520                                  
G 6  20803879.500   109325073.637    20803881.980    81638854.184  
G12  22266331.560   117010362.824                                  
G14  24233808.500   127349490.492    24233813.600    95098640.551  
G17  22797220.800   119800195.258                                  
G19  20849925.960   109567110.426                                  
G24  20914971.640   109908870.926    20914973.400    82074807.285  
G28  23622262.300   124135811.793                                  
E 2  23364462.440   122781069.195    23364464.640    91687157.629  
E25  25229917.300   132584067.117    25229921.420    99007571.566  
E30  25043115.600   131602425.883    25043119.240    98274528.738  
> 2021  3 10 23 41  3.0000000  0 11       0.000000000000
G 2  21819022.360   114659740.902                                  
G 6  20803739.740   109324339.172    20803742.220    81638305.719  
G12  22265863.240   117007901.797                                  
G14  24234314.640   127352150.359    24234319.760    95100626.813  
G17  22797707.800   119802754.461                                  
G19  20850282.560   109568984.324                                  
G24  20914964.640   109908834.148    20914966.400    82074779.813  
G28  23622653.620   124137868.094                                  
E 2  23364362.740   122780545.359    23364364.960    91686766.453  
E25  25230217.580   132585645.125    25230221.700    99008749.945  
E30  25042696.560   131600223.840    25042700.200    98272884.359  
> 2021  3 10 23 41  4.0000000  0 11       0.000000000000
G 2  21818563.520   114657329.730                                  
G 6  20803600.100   109323605.387    20803602.600    81637757.758  
G12  22265394.940   117005440.898                                  
G14  24234820.840   127354810.379    24234825.940    95102613.184  
G17  22798194.800   119805313.727                                  
G19  20850639.200   109570858.547                                  
G24  20914957.760   109908798.035    20914959.520    82074752.844  
G28  23623044.940   124139924.563                                  
E 2  23364263.100   122780021.742    23364265.320    91686375.441  
E25  25230517.900   132587223.348    25230522.040    99009928.492  
E30  25042277.540   131598021.824    25042281.180    98271239.996  
> 2021  3 10 23 41  5.0000000  0 11       0.000000000000
G 2  21818104.780   114654918.984                                  
G 6  20803460.600   109322872.262    20803463.080    81637210.289  
G12  22264926.680   117002980.117                                  
G14  24235327.040   127357470.551    24235332.160    95104599.672  
G17  22798681.820   119807873.047                                  
G19  20850995.920   109572733.102                                  
G24  20914951.020   109908762.559    20914952.780    82074726.348  
G28  23623436.300   124141981.164                                  
E 2  23364163.500   122779498.336    23364165.720    91685984.586  
E25  25230818.280   132588801.801    25230822.400    99011107.203  
E30  25041858.500   131595819.828    25041862.140    98269595.648  
> 2021  3 10 23 41  6.0000000  0 11       0.000000000000
G 2  21817646.100   114652508.676                                  
G 6  20803321.220   109322139.797    20803323.700    81636663.316  
G12  22264458.420   117000519.465                                  
G14  24235833.300   127360130.871    24235838.400    95106586.270  
G17  22799168.860   119810432.441                                  
G19  20851352.700   109574607.965                                  
G24  20914944.380   109908727.703    20914946.140    82074700.313  
G28  23623827.700   124144037.941                                  
E 2  23364063.940   122778975.133    23364066.160    91685593.879  
E25  25231118.680   132590380.477    25231122.820    99012286.086  
E30  25041439.480   131593617.863    25041443.120    98267951.324  
> 2021  3 10 23 41  7.0000000  0 11       0.000000000000
G 2  21817187.520   114650098.816                                  
G 6  20803181.960   109321408.000    20803184.440    81636116.840  
G12  22263990.200   116998058.926                                  
G14  24236339.560   127362791.336    24236344.660    95108572.977  
G17  22799655.920   119812991.906                                  
G19  20851709.540   109576483.176                                  
G24  20914937.880   109908693.516    20914939.640    82074674.785  
G28  23624219.120   124146094.863                                  
E 2  23363964.420   122778452.152    23363966.640    91685203.344  
E25  25231419.140   132591959.383    25231423.260    99013465.141  
E30  25041020.480   131591415.926    25041024.120    98266307.023  
> 2021  3 10 23 41  8.0000000  0 11       0.000000000000
G 2  21816729.020   114647689.418                                  
G 6  20803042.840   109320676.895    20803045.320    81635570.883  
G12  22263522.000   116995598.512                                  
G14  24236845.860   127365451.922    24236850.960    95110559.770  
G17  22800142.960   119815551.398                                  
G19  20852066.440   109578358.707                                  
G24  20914931.480   109908659.906    20914933.240    82074649.684  
G28  23624610.560   124148151.934                                  
E 2  23363864.960   122777929.465    23363867.160    91684813.023  
E25  25231719.640   132593538.461    25231723.760    99014644.320  
E30  25040601.460   131589213.973    25040605.100    98264662.707  
> 2021  3 10 23 41  9.0000000  0 11       0.000000000000
G 2  21816270.620   114645280.434                                  
G 6  20802903.840   109319946.441    20802906.320    81635025.410  
G12  22263053.820   116993138.219                                  
G14  24237352.180   127368112.680    24237357.280    95112546.695  
G17  22800630.040   119818110.973                                  
G19  20852423.400   109580234.563                                  
G24  20914925.220   109908626.988    20914926.980    82074625.098  
G28  23625002.040   124150209.168                                  
E 2  23363765.520   122777406.926    23363767.740    91684422.816  
E25  25232020.160   132595117.805    25232024.300    99015823.699  
E30  25040182.440   131587012.074    25040186.080    98263018.434  
> 2021  3 10 23 41 10.0000000  0 11       0.000000000000
G 2  21815812.280   114642871.895                                  
G 6  20802764.960   109319216.656    20802767.440    81634480.441  
G12  22262585.660   116990678.043                                  
G14  24237858.540   127370773.574    24237863.640    95114533.727  
G17  22801117.120   119820670.605                                  
G19  20852780.420   109582110.746                                  
G24  20914919.080   109908594.711    20914920.840    82074600.996  
G28  23625393.540   124152266.543                                  
E 2  23363666.120   122776884.621    23363668.340    91684032.785  
E25  25232320.740   132596697.348    25232324.880    99017003.227  
E30  25039763.440   131584810.195    25039767.080    98261374.172  
> 2021  3 10 23 41 11.0000000  0 11       0.000000000000
G 2  21815354.040   114640463.801                                  
G 6  20802626.200   109318487.539    20802628.700    81633935.969  
G12  22262117.540   116988217.992                                  
G14  24238364.920   127373434.617    24238370.020    95116520.867  
G17  22801604.220   119823230.285                                  
G19  20853137.520   109583987.254                                  
G24  20914913.060   109908563.098    20914914.820    82074577.387  
G28  23625785.080   124154324.090                                  
E 2  23363566.780   122776362.539    23363569.000    91683642.918  
E25  25232621.360   132598277.121    25232625.500    99018182.926  
E30  25039344.440   131582608.344    25039348.080    98259729.934  
> 2021  3 10 23 41 12.0000000  0 11       0.000000000000
G 2  21814895.880   114638056.148                                  
G 6  20802487.600   109317759.090    20802490.080    81633391.996  
G12  22261649.420   116985758.094                                  
G14  24238871.340   127376095.723    24238876.460    95118508.012  
G17  22802091.320   119825790.043                                  
G19  20853494.660   109585864.078                                  
G24  20914907.160   109908532.129    20914908.940    82074554.262  
G28  23626176.660   124156381.727                                  
E 2  23363467.460   122775840.680    23363469.680    91683253.219  
E25  25232922.020   132599857.113    25232926.160    99019362.789  
E30  25038925.440   131580406.535    25038929.080    98258085.738  
> 2021  3 10 23 41 13.0000000  0 11       0.000000000000
G 2  21814437.800   114635648.926                                  
G 6  20802349.100   109317031.309    20802351.580    81632848.527  
G12  22261181.340   116983298.281                                  
G14  24239377.780   127378757.066    24239382.900    95120495.379  
G17  22802578.440   119828349.859                                  
G19  20853851.880   109587741.238                                  
G24  20914901.400   109908501.813    20914903.160    82074531.621  
G28  23626568.260   124158439.586                                  
E 2  23363368.200   122775319.035    23363370.420    91682863.680  
E25  25233222.740   132601437.332    25233226.860    99020542.824  
E30  25038506.440   131578204.730    25038510.080    98256441.535  
> 2021  3 10 23 41 14.0000000  0 11       0.000000000000
G 2  21813979.800   114633242.141                                  
G 6  20802210.740   109316304.195    20802213.220    81632305.551  
G12  22260713.260   116980838.590                                  
G14  24239884.240   127381418.535    24239889.360    95122482.836  
G17  22803065.560   119830909.730                                  
G19  20854209.160   109589618.715                                  
G24  20914895.740   109908472.129    20914897.520    82074509.453  
G28  23626959.880   124160497.586                                  
E 2  23363268.980   122774797.617    23363271.200    91682474.309  
E25  25233523.480   132603017.758    25233527.600    99021723.008  
E30  25038087.460   131576002.938    25038091.100    98254797.340  
> 2021  3 10 23 41 15.0000000  0 11       0.000000000000
G 2  21813521.880   114630835.801                                  
G 6  20802072.500   109315577.758    20802074.980    81631763.082  
G12  22260245.220   116978379.020                                  
G14  24240390.720   127384080.164    24240395.840    95124470.418  
G17  22803552.700   119833469.660                                  
G19  20854566.480   109591496.516                                  
G24  20914890.220   109908443.094    20914891.980    82074487.773  
G28  23627351.540   124162555.734                                  
E 2  23363169.800   122774276.414    23363172.000    91682085.098  
E25  25233824.260   132604598.422    25233828.400    99022903.375  
E30  25037668.480   131573801.176    25037672.120    98253153.168  
> 2021  3 10 23 41 16.0000000  0 11       0.000000000000
G 2  21813064.060   114628429.898                                  
G 6  20801934.380   109314851.988    20801936.880    81631221.109  
G12  22259777.200   116975919.566                                  
G14  24240897.240   127386741.930    24240902.360    95126458.098  
G17  22804039.860   119836029.656                                  
G19  20854923.880   109593374.641                                  
G24  20914884.820   109908414.691    20914886.580    82074466.563  
G28  23627743.220   124164614.043                                  
E 2  23363070.660   122773755.434    23363072.860    91681696.051  
E25  25234125.100   132606179.297    25234129.220    99024083.898  
E30  25037249.500   131571599.434    25037253.140    98251509.012  
> 2021  3 10 23 41 17.0000000  0 11       0.000000000000
G 2  21812606.300   114626024.434                                  
G 6  20801796.400   109314126.875    20801798.900    81630679.633  
G12  22259309.220   116973460.238                                  
G14  24241403.780   127389403.848    24241408.920    95128445.891  
G17  22804527.020   119838589.715                                  
G19  20855281.340   109595253.086                                  
G24  20914879.540   109908386.922    20914881.300    82074445.824  
G28  23628134.920   124166672.500                                  
E 2  23362971.560   122773234.668    23362973.760    91681307.168  
E25  25234425.960   132607760.391    25234430.100    99025264.586  
E30  25036830.520   131569397.719    25036834.160    98249864.875  
> 2021  3 10 23 41 18.0000000  0 11       0.000000000000
G 2  21812148.660   114623619.422                                  
G 6  20801658.540   109313402.438    20801661.040    81630138.656  
G12  22258841.240   116971001.039                                  
G14  24241910.360   127392065.918    24241915.480    95130433.801  
G17  22805014.200   119841149.824                                  
G19  20855638.860   109597131.855                                  
G24  20914874.380   109908359.824    20914876.140    82074425.590  
G28  23628526.660   124168731.109                                  
E 2  23362872.500   122772714.125    23362874.720    91680918.453  
E25  25234726.880   132609341.711    25234731.020    99026445.441  
E30  25036411.560   131567196.023    25036415.180    98248220.754  
> 2021  3 10 23 41 19.0000000  0 11       0.000000000000
G 2  21811691.080   114621214.852                                  
G 6  20801520.820   109312678.672    20801523.300    81629598.180  
G12  22258373.300   116968541.965                                  
G14  24242416.960   127394728.133    24242422.100    95132421.816  
G17  22805501.380   119843710.004                                  
G19  20855996.440   109599010.957                                  
G24  20914869.340   109908333.352    20914871.100    82074405.820  
G28  23628918.440   124170789.879                                  
E 2  23362773.480   122772193.793    23362775.700    91680529.895  
E25  25235027.840   132610923.188    25235031.960    99027626.398  
E30  25035992.600   131564994.680    25035996.220    98246576.977  
> 2021  3 10 23 41 20.0000000  0 11       0.000000000000
G 2  21811233.580   114618810.719                                  
G 6  20801383.220   109311955.582    20801385.700    81629058.211  
G12  22257905.380   116966083.035                                  
G14  24242923.600   127397390.484    24242928.720    95134409.934  
G17  22805988.580   119846270.242                                  
G19  20856354.080   109600890.375                                  
G24  20914864.420   109908307.508    20914866.180    82074386.523  
G28  23629310.240   124172848.797                                  
E 2  23362674.520   122771673.684    23362676.720    91680141.500  
E25  25235328.840   132612504.930    25235332.960    99028807.566  
E30  25035573.620   131562793.020    25035577.260    98244932.879  
> 2021  3 10 23 41 21.0000000  0 11       0.000000000000
G 2  21810776.180   114616407.027                                  
G 6  20801245.740   109311233.148    20801248.240    81628518.734  
G12  22257437.480   116963624.219                                  
G14  24243430.260   127400052.980    24243435.380    95136398.164  
G17  22806475.780   119848830.539                                  
G19  20856711.780   109602770.121                                  
G24  20914859.620   109908282.297    20914861.380    82074367.699  
G28  23629702.060   124174907.871                                  
E 2  23362575.580   122771153.793    23362577.800    91679753.270  
E25  25235629.880   132614086.898    25235634.000    99029988.906  
E30  25035154.680   131560591.398    25035158.300    98243288.809  
> 2021  3 10 23 41 22.0000000  0 11       0.000000000000
G 2  21810318.860   114614003.777                                  
G 6  20801108.400   109310511.387    20801110.880    81627979.758  
G12  22256969.600   116961165.527                                  
G14  24243936.940   127402715.625    24243942.060    95138386.500  
G17  22806963.000   119851390.902                                  
G19  20857069.540   109604650.191                                  
G24  20914854.960   109908257.734    20914856.720    82074349.355  
G28  23630093.920   124176967.102                                  
E 2  23362476.700   122770634.129    23362478.900    91679365.207  
E25  25235930.960   132615669.094    25235935.080    99031170.418  
E30  25034735.720   131558389.793    25034739.360    98241644.758  
> 2021  3 10 23 41 23.0000000  0 11       0.000000000000
G 2  21809861.620   114611600.969                                  
G 6  20800971.180   109309790.297    20800973.660    81627441.281  
G12  22256501.760   116958706.945                                  
G14  24244443.640   127405378.414    24244448.780    95140374.945  
G17  22807450.240   119853951.320                                  
G19  20857427.380   109606530.578                                  
G24  20914850.400   109908233.816    20914852.160    82074331.492  
G28  23630485.820   124179026.484                                  
E 2  23362377.840   122770114.672    23362380.060    91678977.305  
E25  25236232.080   132617251.508    25236236.220    99032352.090  
E30  25034316.780   131556188.207    25034320.400    98240000.715  
> 2021  3 10 23 41 24.0000000  0 11       0.000000000000
G 2  21809404.460   114609198.602                                  
G 6  20800834.080   109309069.875    20800836.580    81626903.301  
G12  22256033.920   116956248.480                                  
G14  24244950.400   127408041.359    24244955.520    95142363.508  
G17  22807937.480   119856511.805                                  
G19  20857785.260   109608411.281                                  
G24  20914845.980   109908210.547    20914847.740    82074314.117  
G28  23630877.740   124181086.008                                  
E 2  23362279.040   122769595.445    23362281.260    91678589.570  
E25  25236533.260   132618834.141    25236537.380    99033533.926  
E30  25033897.840   131553986.637    25033901.460    98238356.688  
> 2021  3 10 23 41 25.0000000  0 11       0.000000000000
G 2  21808947.380   114606796.676                                  
G 6  20800697.120   109308350.109    20800699.600    81626365.816  
G12  22255566.120   116953790.141                                  
G14  24245457.160   127410704.453    24245462.280    95144352.180  
G17  22808424.740   119859072.352                                  
G19  20858143.200   109610292.320                                  
G24  20914841.660   109908187.922    20914843.440    82074297.223  
G28  23631269.680   124183145.703                                  
E 2  23362180.280   122769076.430    23362182.480    91678201.992  
E25  25236834.460   132620416.996    25236838.580    99034715.926  
E30  25033478.900   131551785.105    25033482.520    98236712.688  
> 2021  3 10 23 41 26.0000000  0 11       0.000000000000
G 2  21808490.400   114604395.195                                  
G 6  20800560.280   109307631.023    20800562.780    81625828.836  
G12  22255098.340   116951331.930                                  
G14  24245963.960   127413367.676    24245969.080    95146340.949  
G17  22808912.000   119861632.957                                  
G19  20858501.220   109612173.684                                  
G24  20914837.480   109908165.945    20914839.240    82074280.813  
G28  23631661.660   124185205.547                                  
E 2  23362081.560   122768557.637    23362083.760    91677814.582  
E25  25237135.720   132622000.070    25237139.840    99035898.094  
E30  25033059.960   131549583.598    25033063.600    98235068.707  
> 2021  3 10 23 41 27.0000000  0 11       0.000000000000
G 2  21808033.500   114601994.148                                  
G 6  20800423.580   109306912.609    20800426.060    81625292.359  
G12  22254630.560   116948873.828                                  
G14  24246470.780   127416031.051    24246475.900    95148329.836  
G17  22809399.280   119864193.625                                  
G19  20858859.300   109614055.363                                  
G24  20914833.420   109908144.613    20914835.180    82074264.879  
G28  23632053.660   124187265.547                                  
E 2  23361982.880   122768039.070    23361985.080    91677427.340  
E25  25237437.000   132623583.367    25237441.140    99037080.426  
E30  25032641.040   131547382.109    25032644.660    98233424.734  
> 2021  3 10 23 41 28.0000000  0 11       0.000000000000
G 2  21807576.680   114599593.547                                  
G 6  20800286.980   109306194.859    20800289.480    81624756.379  
G12  22254162.840   116946415.852                                  
G14  24246977.640   127418694.563    24246982.760    95150318.820  
G17  22809886.580   119866754.359                                  
G19  20859217.420   109615937.367                                  
G24  20914829.480   109908123.914    20914831.240    82074249.422  
G28  23632445.700   124189325.699                                  
E 2  23361884.240   122767520.715    23361886.440    91677040.258  
E25  25237738.340   132625166.879    25237742.460    99038262.914  
E30  25032222.100   131545180.645    25032225.740    98231780.785  
> 2021  3 10 23 41 29.0000000  0 11       0.000000000000
G 2  21807119.940   114597193.391                                  
G 6  20800150.540   109305477.789    20800153.020    81624220.902  
G12  22253695.120   116943957.996                                  
G14  24247484.520   127421358.234    24247489.640    95152307.922  
G17  22810373.880   119869315.160                                  
G19  20859575.620   109617819.703                                  
G24  20914825.660   109908103.840    20914827.440    82074234.434  
G28  23632837.760   124191386.016                                  
E 2  23361785.640   122767002.594    23361787.860    91676653.348  
E25  25238039.720   132626750.621    25238043.840    99039445.582  
E30  25031803.180   131542979.203    25031806.820    98230136.855  
> 2021  3 10 23 41 30.0000000  0 11       0.000000000000
G 2  21806663.280   114594793.676                                  
G 6  20800014.200   109304761.383    20800016.700    81623685.922  
G12  22253227.420   116941500.266                                  
G14  24247991.420   127424022.043    24247996.540    95154297.133  
G17  22810861.200   119871876.016                                  
G19  20859933.880   109619702.352                                  
G24  20914821.960   109908084.402    20914823.740    82074219.918  
G28  23633229.860   124193446.469                                  
E 2  23361687.080   122766484.688    23361689.300    91676266.602  
E25  25238341.140   132628334.582    25238345.260    99040628.406  
E30  25031384.280   131540777.785    25031387.900    98228492.938  
> 2021  3 10 23 41 31.0000000  0 11       0.000000000000
G 2  21806206.720   114592394.402                                  
G 6  20799878.000   109304045.637    20799880.500    81623151.441  
G12  22252759.760   116939042.664                                  
G14  24248498.360   127426686.004    24248503.480    95156286.449  
G17  22811348.520   119874436.926                                  
G19  20860292.200   109621585.328                                  
G24  20914818.400   109908065.633    20914820.160    82074205.902  
G28  23633621.980   124195507.078                                  
E 2  23361588.580   122765966.996    23361590.780    91675880.012  
E25  25238642.600   132629918.766    25238646.720    99041811.402  
E30  25030965.360   131538576.395    25030969.000    98226849.043  
> 2021  3 10 23 41 32.0000000  0 11       0.000000000000
G 2  21805750.240   114589995.566                                  
G 6  20799741.920   109303330.559    20799744.420    81622617.453  
G12  22252292.120   116936585.176                                  
G14  24249005.320   127429350.113    24249010.440    95158275.879  
G17  22811835.860   119876997.898                                  
G19  20860650.580   109623468.621                                  
G24  20914814.940   109908047.508    20914816.720    82074192.367  
G28  23634014.120   124197567.852                                  
E 2  23361490.100   122765449.527    23361492.320    91675493.594  
E25  25238944.100   132631503.164    25238948.220    99042994.555  
E30  25030546.460   131536375.027    25030550.100    98225205.168  
> 2021  3 10 23 41 33.0000000  0 11       0.000000000000
G 2  21805293.840   114587597.184                                  
G 6  20799605.980   109302616.156    20799608.480    81622083.973  
G12  22251824.500   116934127.813                                  
G14  24249512.300   127432014.352    24249517.440    95160265.410  
G17  22812323.200   119879558.934                                  
G19  20861009.020   109625352.242                                  
G24  20914811.620   109908030.020    20914813.380    82074179.305  
G28  23634406.300   124199628.773                                  
E 2  23361391.680   122764932.285    23361393.900    91675107.340  
E25  25239245.640   132633087.785    25239249.780    99044177.879  
E30  25030127.560   131534173.684    25030131.180    98223561.305  
> 2021  3 10 23 41 34.0000000  0 11       0.000000000000
G 2  21804837.520   114585199.242                                  
G 6  20799470.160   109301902.422    20799472.660    81621550.988  
G12  22251356.900   116931670.570                                  
G14  24250019.320   127434678.754    24250024.460    95162255.059  
G17  22812810.560   119882120.027                                  
G19  20861367.520   109627236.188                                  
G24  20914808.400   109908013.152    20914810.180    82074166.711  
G28  23634798.520   124201689.852                                  
E 2  23361293.300   122764415.262    23361295.500    91674721.250  
E25  25239547.240   132634672.637    25239551.360    99045361.367  
E30  25029708.660   131531972.367    25029712.300    98221917.469  
> 2021  3 10 23 41 35.0000000  0 11       0.000000000000
G 2  21804381.300   114582801.758                                  
G 6  20799334.480   109301189.363    20799336.960    81621018.508  
G12  22250889.320   116929213.449                                  
G14  24250526.380   127437343.301    24250531.500    95164244.820  
G17  22813297.940   119884681.188                                  
G19  20861726.080   109629120.453                                  
G24  20914805.340   109907996.980    20914807.100    82074154.633  
G28  23635190.760   124203751.090                                  
E 2  23361194.960   122763898.465    23361197.160    91674335.332  
E25  25239848.860   132636257.703    25239853.000    99046545.020  
E30  25029289.760   131529771.074    25029293.400    98220273.645  
> 2021  3 10 23 41 36.0000000  0 11       0.000000000000
G 2  21803925.160   114580404.715                                  
G 6  20799198.900   109300476.969    20799201.400    81620486.523  
G12  22250421.760   116926756.457                                  
G14  24251033.440   127440007.988    24251038.580    95166234.680  
G17  22813785.320   119887242.406                                  
G19  20862084.720   109631005.043                                  
G24  20914802.380   109907981.457    20914804.140    82074143.043  
G28  23635583.020   124205812.469                                  
E 2  23361096.660   122763381.887    23361098.860    91673949.574  
E25  25240150.540   132637842.988    25240154.660    99047728.840  
E30  25028870.880   131527569.797    25028874.520    98218629.836  
> 2021  3 10 23 41 37.0000000  0 11       0.000000000000
G 2  21803469.100   114578008.109                                  
G 6  20799063.480   109299765.254    20799065.960    81619955.051  
G12  22249954.240   116924299.578                                  
G14  24251540.540   127442672.824    24251545.680    95168224.656  
G17  22814272.720   119889803.684                                  
G19  20862443.400   109632889.957                                  
G24  20914799.540   109907966.555    20914801.300    82074131.914  
G28  23635975.320   124207874.012                                  
E 2  23360998.400   122762865.527    23361000.600    91673563.980  
E25  25240452.240   132639428.500    25240456.380    99048912.824  
E30  25028452.000   131525368.563    25028455.640    98216986.055  
> 2021  3 10 23 41 38.0000000  0 11       0.000000000000
G 2  21803013.120   114575611.945                                  
G 6  20798928.160   109299054.191    20798930.660    81619424.066  
G12  22249486.740   116921842.828                                  
G14  24252047.680   127445337.797    24252052.800    95170214.730  
G17  22814760.120   119892365.020                                  
G19  20862802.140   109634775.191                                  
G24  20914796.820   109907952.293    20914798.600    82074121.262  
G28  23636367.660   124209935.711                                  
E 2  23360900.180   122762349.383    23360902.380    91673178.551  
E25  25240754.000   132641014.227    25240758.140    99050096.969  
E30  25028033.120   131523167.332    25028036.760    98215342.281  
> 2021  3 10 23 41 39.0000000  0 11       0.000000000000
G 2  21802557.240   114573216.230                                  
G 6  20798792.980   109298343.809    20798795.460    81618893.582  
G12  22249019.260   116919386.195                                  
G14  24252554.840   127448002.926    24252559.960    95172204.926  
G17  22815247.540   119894926.426                                  
G19  20863160.960   109636660.754                                  
G24  20914794.240   109907938.684    20914796.000    82074111.102  
G28  23636760.020   124211997.563                                  
E 2  23360802.000   122761833.465    23360804.220    91672793.285  
E25  25241055.800   132642600.180    25241059.920    99051281.285  
E30  25027614.240   131520966.141    25027617.880    98213698.535  
> 2021  3 10 23 41 40.0000000  0 11       0.000000000000
G 2  21802101.420   114570820.949                                  
G 6  20798657.920   109297634.082    20798660.420    81618363.594  
G12  22248551.800   116916929.676                                  
G14  24253062.020   127450668.199    24253067.140    95174195.227  
G17  22815734.980   119897487.883                                  
G19  20863519.820   109638546.637                                  
G24  20914791.780   109907925.730    20914793.540    82074101.426  
G28  23637152.400   124214059.566                                  
E 2  23360703.860   122761317.766    23360706.080    91672408.188  
E25  25241357.640   132644186.348    25241361.760    99052465.762  
E30  25027195.380   131518764.961    25027199.000    98212054.797  
> 2021  3 10 23 41 41.0000000  0 11       0.000000000000
G 2  21801645.700   114568426.113                                  
G 6  20798523.000   109296925.031    20798525.480    81617834.105  
G12  22248084.360   116914473.285                                  
G14  24253569.240   127453333.613    24253574.360    95176185.629  
G17  22816222.420   119900049.398                                  
G19  20863878.760   109640432.844                                  
G24  20914789.440   109907913.414    20914791.200    82074092.230  
G28  23637544.820   124216121.727                                  
E 2  23360605.780   122760802.293    23360607.980    91672023.254  
E25  25241659.520   132645772.738    25241663.660    99053650.402  
E30  25026776.520   131516563.809    25026780.140    98210411.082  
> 2021  3 10 23 41 42.0000000  0 11       0.000000000000
G 2  21801190.060   114566031.727                                  
G 6  20798388.200   109296216.652    20798390.680    81617305.125  
G12  22247616.940   116912017.016                                  
G14  24254076.480   127455999.172    24254081.600    95178176.145  
G17  22816709.860   119902610.980                                  
G19  20864237.760   109642319.367                                  
G24  20914787.200   109907901.727    20914788.960    82074083.500  
G28  23637937.260   124218184.035                                  
E 2  23360507.720   122760287.043    23360509.940    91671638.492  
E25  25241961.440   132647359.355    25241965.580    99054835.211  
E30  25026357.660   131514362.688    25026361.280    98208767.387  
> 2021  3 10 23 41 43.0000000  0 11       0.000000000000
G 2  21800734.500   114563637.773                                  
G 6  20798253.520   109295508.938    20798256.000    81616776.633  
G12  22247149.560   116909560.859                                  
G14  24254583.740   127458664.883    24254588.880    95180166.770  
G17  22817197.340   119905172.621                                  
G19  20864596.820   109644206.219                                  
G24  20914785.100   109907890.676    20914786.860    82074075.250  
G28  23638329.740   124220246.504                                  
E 2  23360409.720   122759772.004    23360411.940    91671253.883  
E25  25242263.400   132648946.184    25242267.540    99056020.184  
E30  25025938.800   131512161.582    25025942.420    98207123.707  
> 2021  3 10 23 41 44.0000000  0 11       0.000000000000
G 2  21800279.040   114561244.270                                  
G 6  20798118.980   109294801.898    20798121.460    81616248.652  
G12  22246682.180   116907104.840                                  
G14  24255091.040   127461330.738    24255096.160    95182157.508  
G17  22817684.800   119907734.313                                  
G19  20864955.920   109646093.391                                  
G24  20914783.120   109907880.281    20914784.880    82074067.488  
G28  23638722.240   124222309.129                                  
E 2  23360311.760   122759257.188    23360313.960    91670869.441  
E25  25242565.420   132650533.242    25242569.540    99057205.320  
E30  25025519.940   131509960.508    25025523.580    98205480.047  
> 2021  3 10 23 41 45.0000000  0 11       0.000000000000
G 2  21799823.660   114558851.199                                  
G 6  20797984.560   109294095.527    20797987.040    81615721.164  
G12  22246214.840   116904648.953                                  
G14  24255598.360   127463996.738    24255603.500    95184148.348  
G17  22818172.300   119910296.082                                  
G19  20865315.100   109647980.883                                  
G24  20914781.260   109907870.520    20914783.040    82074060.199  
G28  23639114.780   124224371.914                                  
E 2  23360213.840   122758742.605    23360216.040    91670485.176  
E25  25242867.460   132652120.520    25242871.600    99058390.625  
E30  25025101.100   131507759.461    25025104.740    98203836.410  
> 2021  3 10 23 41 46.0000000  0 11       0.000000000000
G 2  21799368.360   114556458.578                                  
G 6  20797850.260   109293389.824    20797852.760    81615194.184  
G12  22245747.520   116902193.176                                  
G14  24256105.700   127466662.879    24256110.840    95186139.297  
G17  22818659.800   119912857.895                                  
G19  20865674.340   109649868.699                                  
G24  20914779.540   109907861.410    20914781.300    82074053.395  
G28  23639507.340   124226434.852                                  
E 2  23360115.960   122758228.227    23360118.160    91670101.063  
E25  25243169.560   132653708.012    25243173.680    99059576.090  
E30  25024682.260   131505558.430    25024685.900    98202192.781  
> 2021  3 10 23 41 47.0000000  0 11       0.000000000000
G 2  21798913.140   114554066.398                                  
G 6  20797716.100   109292684.785    20797718.580    81614667.691  
G12  22245280.240   116899737.527                                  
G14  24256613.080   127469329.176    24256618.220    95188130.363  
G17  22819147.300   119915419.781                                  
G19  20866033.640   109651756.840                                  
G24  20914777.920   109907852.938    20914779.680    82074047.066  
G28  23639899.940   124228497.949                                  
E 2  23360018.120   122757714.082    23360020.320    91669717.125  
E25  25243471.700   132655295.738    25243475.820    99060761.730  
E30  25024263.420   131503357.426    25024267.060    98200549.176  
> 2021  3 10 23 41 48.0000000  0 11       0.000000000000
G 2  21798458.000   114551674.664                                  
G 6  20797582.060   109291980.430    20797584.560    81614141.711  
G12  22244812.960   116897281.996                                  
G14  24257120.500   127471995.625    24257125.640    95190121.539  
G17  22819634.820   119917981.723                                  
G19  20866393.020   109653645.301                                  
G24  20914776.440   109907845.117    20914778.200    82074041.230  
G28  23640292.560   124230561.172                                  
E 2  23359920.320   122757200.152    23359922.540    91669333.348  
E25  25243773.880   132656883.680    25243778.000    99061947.527  
E30  25023844.600   131501156.449    25023848.220    98198905.590  
> 2021  3 10 23 41 49.0000000  0 11       0.000000000000
G 2  21798002.960   114549283.367                                  
G 6  20797448.160   109291276.734    20797450.640    81613616.223  
G12  22244345.720   116894826.594                                  
G14  24257627.940   127474662.199    24257633.060    95192112.813  
G17  22820122.360   119920543.719                                  
G19  20866752.440   109655534.078                                  
G24  20914775.060   109907837.938    20914776.840    82074035.867  
G28  23640685.200   124232624.543                                  
E 2  23359822.560   122756686.457    23359824.780    91668949.738  
E25  25244076.100   132658471.844    25244080.220    99063133.496  
E30  25023425.760   131498955.500    25023429.400    98197262.023  
> 2021  3 10 23 41 50.0000000  0 11       0.000000000000
G 2  21797547.980   114546892.520                                  
G 6  20797314.380   109290573.727    20797316.860    81613091.250  
G12  22243878.480   116892371.309                                  
G14  24258135.400   127477328.934    24258140.520    95194104.203  
G17  22820609.900   119923105.777                                  
G19  20867111.920   109657423.184                                  
G24  20914773.820   109907831.414    20914775.600    82074030.996  
G28  23641077.880   124234688.086                                  
E 2  23359724.860   122756172.973    23359727.060    91668566.297  
E25  25244378.360   132660060.227    25244382.480    99064319.625  
E30  25023006.940   131496754.570    25023010.580    98195618.473  
> 2021  3 10 23 41 51.0000000  0 11       0.000000000000
G 2  21797093.100   114544502.117                                  
G 6  20797180.720   109289871.367    20797183.220    81612566.766  
G12  22243411.280   116889916.152                                  
G14  24258642.880   127479995.805    24258648.020    95196095.699  
G17  22821097.460   119925667.891                                  
G19  20867471.460   109659312.605                                  
G24  20914772.700   109907825.508    20914774.460    82074026.586  
G28  23641470.580   124236751.762                                  
E 2  23359627.180   122755659.707    23359629.400    91668183.012  
E25  25244680.660   132661648.832    25244684.780    99065505.918  
E30  25022588.120   131494553.664    25022591.760    98193974.941  
> 2021  3 10 23 41 52.0000000  0 11       0.000000000000
G 2  21796638.320   114542112.148                                  
G 6  20797047.200   109289169.691    20797049.680    81612042.785  
G12  22242944.100   116887461.109                                  
G14  24259150.400   127482662.824    24259155.540    95198087.305  
G17  22821585.020   119928230.070                                  
G19  20867831.080   109661202.352                                  
G24  20914771.700   109907820.254    20914773.460    82074022.660  
G28  23641863.320   124238815.613                                  
E 2  23359529.560   122755146.668    23359531.780    91667799.898  
E25  25244983.000   132663237.656    25244987.120    99066692.379  
E30  25022169.320   131492352.789    25022172.940    98192331.430  
> 2021  3 10 23 41 53.0000000  0 11       0.000000000000
G 2  21796183.600   114539722.637                                  
G 6  20796913.800   109288468.676    20796916.280    81611519.301  
G12  22242476.960   116885006.195                                  
G14  24259657.940   127485329.984    24259663.080    95200079.012  
G17  22822072.600   119930792.305                                  
G19  20868190.740   109663092.422                                  
G24  20914770.820   109907815.641    20914772.580    82074019.215  
G28  23642256.100   124240879.613                                  
E 2  23359431.980   122754633.844    23359434.180    91667416.945  
E25  25245285.380   132664826.711    25245289.520    99067879.012  
E30  25021750.500   131490151.930    25021754.140    98190687.934  
> 2021  3 10 23 41 54.0000000  0 11       0.000000000000
G 2  21795728.980   114537333.566                                  
G 6  20796780.540   109287768.340    20796783.020    81610996.320  
G12  22242009.820   116882551.402                                  
G14  24260165.520   127487997.305    24260170.660    95202070.840  
G17  22822560.200   119933354.594                                  
G19  20868550.460   109664982.809                                  
G24  20914770.060   109907811.660    20914771.840    82074016.242  
G28  23642648.880   124242943.770                                  
E 2  23359334.420   122754121.250    23359336.640    91667034.164  
E25  25245587.820   132666415.977    25245591.940    99069065.797  
E30  25021331.700   131487951.098    25021335.340    98189044.457  
> 2021  3 10 23 41 55.0000000  0 11       0.000000000000
G 2  21795274.440   114534944.934                                  
G 6  20796647.380   109287068.660    20796649.880    81610473.836  
G12  22241542.700   116880096.734                                  
G14  24260673.120   127490664.758    24260678.260    95204062.770  
G17  22823047.800   119935916.949                                  
G19  20868910.260   109666873.520                                  
G24  20914769.440   109907808.332    20914771.200    82074013.758  
G28  23643041.720   124245008.074                                  
E 2  23359236.920   122753608.879    23359239.140    91666651.551  
E25  25245890.280   132668005.465    25245894.420    99070252.754  
E30  25020912.900   131485750.293    25020916.540    98187401.000  
> 2021  3 10 23 41 56.0000000  0 11       0.000000000000
G 2  21794819.980   114532556.738                                  
G 6  20796514.360   109286369.645    20796516.860    81609951.844  
G12  22241075.620   116877642.180                                  
G14  24261180.740   127493332.359    24261185.880    95206054.809  
G17  22823535.400   119938479.359                                  
G19  20869270.100   109668764.547                                  
G24  20914768.920   109907805.648    20914770.680    82074011.754  
G28  23643434.560   124247072.527                                  
E 2  23359139.460   122753096.707    23359141.680    91666269.086  
E25  25246192.800   132669595.164    25246196.920    99071439.867  
E30  25020494.100   131483549.508    25020497.740    98185757.555  
> 2021  3 10 23 41 57.0000000  0 11       0.000000000000
G 2  21794365.600   114530168.992                                  
G 6  20796381.480   109285671.313    20796383.960    81609430.359  
G12  22240608.560   116875187.746                                  
G14  24261688.400   127496000.113    24261693.540    95208046.961  
G17  22824023.020   119941041.832                                  
G19  20869630.020   109670655.898                                  
G24  20914768.540   109907803.625    20914770.300    82074010.242  
G28  23643827.460   124249137.152                                  
E 2  23359042.060   122752584.777    23359044.260    91665886.801  
E25  25246495.360   132671185.102    25246499.480    99072627.156  
E30  25020075.320   131481348.750    25020078.940    98184114.133  
> 2021  3 10 23 41 58.0000000  0 11       0.000000000000
G 2  21793911.320   114527781.688                                  
G 6  20796248.720   109284973.645    20796251.200    81608909.375  
G12  22240141.520   116872733.441                                  
G14  24262196.080   127498668.000    24262201.220    95210039.215  
G17  22824510.660   119943604.367                                  
G19  20869990.000   109672547.570                                  
G24  20914768.280   109907802.234    20914770.040    82074009.203  
G28  23644220.360   124251201.922                                  
E 2  23358944.680   122752073.066    23358946.880    91665504.676  
E25  25246797.960   132672775.254    25246802.080    99073814.609  
E30  25019656.540   131479148.020    25019660.160    98182470.730  
> 2021  3 10 23 41 59.0000000  0 11       0.000000000000
G 2  21793457.120   114525394.832                                  
G 6  20796116.080   109284276.648    20796118.580    81608388.891  
G12  22239674.500   116870279.270                                  
G14  24262703.800   127501336.031    24262708.940    95212031.574  
G17  22824998.300   119946166.961                                  
G19  20870350.040   109674439.570                                  
G24  20914768.140   109907801.488    20914769.900    82074008.645  
G28  23644613.300   124253266.855                                  
E 2  23358847.340   122751561.586    23358849.560    91665122.727  
E25  25247100.580   132674365.625    25247104.720    99075002.223  
E30  25019237.760   131476947.320    25019241.380    98180827.352  
> 2021  3 10 23 42  0.0000000  0 11       0.000000000000
G 2  21793002.980   114523008.414                                  
G 6  20795983.580   109283580.324    20795986.060    81607868.910  
G12  22239207.520   116867825.215                                  
G14  24263211.540   127504004.223    24263216.680    95214024.055  
G17  22825485.960   119948729.609                                  
G19  20870710.120   109676331.879                                  
G24  20914768.120   109907801.391    20914769.880    82074008.574  
G28  23645006.280   124255331.930                                  
E 2  23358750.060   122751050.316    23358752.260    91664740.934  
E25  25247403.280   132675956.223    25247407.400    99076190.008  
E30  25018818.980   131474746.637    25018822.600    98179183.984  
> 2021  3 10 23 42  1.0000000  0 11       0.000000000000
G 2  21792548.960   114520622.441                                  
G 6  20795851.200   109282884.672    20795853.680    81607349.430  
G12  22238740.540   116865371.277                                  
G14  24263719.300   127506672.555    24263724.440    95216016.637  
G17  22825973.620   119951292.320                                  
G19  20871070.280   109678224.520                                  
G24  20914768.220   109907801.914    20914769.980    82074008.965  
G28  23645399.280   124257397.172                                  
E 2  23358652.800   122750539.273    23358655.020    91664359.313  
E25  25247706.000   132677547.039    25247710.120    99077377.953  
E30  25018400.220   131472545.980    25018403.840    98177540.637  
> 2021  3 10 23 42  2.0000000  0 11       0.000000000000
G 2  21792095.000   114518236.914                                  
G 6  20795718.940   109282189.684    20795721.440    81606830.445  
G12  22238273.600   116862917.473                                  
G14  24264227.100   127509341.031    24264232.240    95218009.328  
G17  22826461.300   119953855.094                                  
G19  20871430.500   109680117.484                                  
G24  20914768.440   109907803.074    20914770.200    82074009.832  
G28  23645792.320   124259462.566                                  
E 2  23358555.600   122750028.445    23358557.820    91663977.852  
E25  25248008.760   132679138.074    25248012.900    99078566.066  
E30  25017981.440   131470345.348    25017985.080    98175897.309  
> 2021  3 10 23 42  3.0000000  0 11       0.000000000000
G 2  21791641.140   114515851.828                                  
G 6  20795586.820   109281495.363    20795589.300    81606311.957  
G12  22237806.680   116860463.789                                  
G14  24264734.920   127512009.652    24264740.060    95220002.133  
G17  22826949.000   119956417.926                                  
G19  20871790.780   109682010.762                                  
G24  20914768.780   109907804.906    20914770.540    82074011.199  
G28  23646185.380   124261528.113                                  
E 2  23358458.440   122749517.840    23358460.660    91663596.555  
E25  25248311.560   132680729.324    25248315.700    99079754.336  
E30  25017562.680   131468144.742    25017566.300    98174254.000  
> 2021  3 10 23 42  4.0000000  0 11       0.000000000000
G 2  21791187.360   114513467.188                                  
G 6  20795454.820   109280801.715    20795457.320    81605793.973  
G12  22237339.780   116858010.230                                  
G14  24265242.780   127514678.414    24265247.900    95221995.039  
G17  22827436.700   119958980.809                                  
G19  20872151.120   109683904.363                                  
G24  20914769.260   109907807.395    20914771.020    82074013.059  
G28  23646578.460   124263593.813                                  
E 2  23358361.320   122749007.465    23358363.540    91663215.430  
E25  25248614.420   132682320.805    25248618.540    99080942.777  
E30  25017143.920   131465944.156    25017147.560    98172610.707  
> 2021  3 10 23 42  5.0000000  0 11       0.000000000000
G 2  21790733.660   114511082.996                                  
G 6  20795322.960   109280108.730    20795325.440    81605276.488  
G12  22236872.900   116855556.789                                  
G14  24265750.660   127517347.332    24265755.780    95223988.059  
G17  22827924.420   119961543.758                                  
G19  20872511.520   109685798.285                                  
G24  20914769.860   109907810.520    20914771.620    82074015.391  
G28  23646971.580   124265659.668                                  
E 2  23358264.240   122748497.309    23358266.460    91662834.469  
E25  25248917.300   132683912.504    25248921.440    99082131.383  
E30  25016725.180   131463743.598    25016728.800    98170967.434  
> 2021  3 10 23 42  6.0000000  0 11       0.000000000000
G 2  21790280.040   114508699.234                                  
G 6  20795191.220   109279416.434    20795193.700    81604759.512  
G12  22236406.060   116853103.477                                  
G14  24266258.560   127520016.402    24266263.700    95225981.195  
G17  22828412.140   119964106.773                                  
G19  20872871.980   109687692.523                                  
G24  20914770.560   109907814.289    20914772.340    82074018.207  
G28  23647364.740   124267725.684                                  
E 2  23358167.200   122747987.367    23358169.420    91662453.668  
E25  25249220.240   132685504.426    25249224.380    99083320.156  
E30  25016306.420   131461543.070    25016310.060    98169324.184  
> 2021  3 10 23 42  7.0000000  0 11       0.000000000000
G 2  21789826.520   114506315.934                                  
G 6  20795059.600   109278724.801    20795062.080    81604243.035  
G12  22235939.240   116850650.281                                  
G14  24266766.500   127522685.609    24266771.620    95227974.434  
G17  22828899.880   119966669.836                                  
G19  20873232.500   109689587.086                                  
G24  20914771.400   109907818.680    20914773.160    82074021.488  
G28  23647757.920   124269791.859                                  
E 2  23358070.200   122747477.648    23358072.420    91662073.035  
E25  25249523.220   132687096.586    25249527.360    99084509.105  
E30  25015887.680   131459342.578    25015891.320    98167680.961  
> 2021  3 10 23 42  8.0000000  0 11       0.000000000000
G 2  21789373.060   114503933.063                                  
G 6  20794928.100   109278033.898    20794930.600    81603727.039  
G12  22235472.420   116848197.195                                  
G14  24267274.460   127525354.820    24267279.640    95229967.508  
G17  22829387.620   119969232.977                                  
G19  20873593.080   109691481.965                                  
G24  20914772.340   109907823.793    20914774.120    82074025.242  
G28  23648151.140   124271858.066                                  
E 2  23357973.260   122746968.168    23357975.460    91661692.578  
E25  25249826.220   132688688.941    25249830.360    99085698.211  
E30  25015468.940   131457142.063    25015472.580    98166037.715  
> 2021  3 10 23 42  9.0000000  0 11       0.000000000000
G 2  21788919.700   114501550.648                                  
G 6  20794796.740   109277343.609    20794799.240    81603211.563  
G12  22235005.640   116845744.254                                  
G14  24267782.440   127528024.320    24267787.620    95231960.965  
G17  22829875.360   119971796.168                                  
G19  20873953.740   109693377.168                                  
G24  20914773.420   109907829.465    20914775.200    82074029.477  
G28  23648544.380   124273924.563                                  
E 2  23357876.340   122746458.898    23357878.560    91661312.281  
E25  25250129.280   132690281.535    25250133.420    99086887.484  
E30  25015050.220   131454941.621    25015053.840    98164394.527  
> 2021  3 10 23 42 10.0000000  0 11       0.000000000000
G 2  21788466.420   114499168.680                                  
G 6  20794665.500   109276653.984    20794668.000    81602696.582  
G12  22234538.880   116843291.438                                  
G14  24268290.460   127530693.965    24268295.640    95233954.527  
G17  22830363.140   119974359.414                                  
G19  20874314.440   109695272.699                                  
G24  20914774.620   109907835.773    20914776.400    82074034.191  
G28  23648937.640   124275991.199                                  
E 2  23357779.480   122745949.852    23357781.680    91660932.148  
E25  25250432.400   132691874.348    25250436.520    99088076.922  
E30  25014631.480   131452741.191    25014635.120    98162751.348  
> 2021  3 10 23 42 11.0000000  0 11       0.000000000000
G 2  21788013.240   114496787.152                                  
G 6  20794534.400   109275965.031    20794536.900    81602182.105  
G12  22234072.160   116840838.742                                  
G14  24268798.500   127533363.754    24268803.680    95235948.203  
G17  22830850.920   119976922.727                                  
G19  20874675.200   109697168.543                                  
G24  20914775.940   109907842.758    20914777.720    82074039.406  
G28  23649330.940   124278057.996                                  
E 2  23357682.640   122745441.031    23357684.860    91660552.184  
E25  25250735.540   132693467.383    25250739.660    99089266.527  
E30  25014212.760   131450540.793    25014216.380    98161108.195  
> 2021  3 10 23 42 12.0000000  0 11       0.000000000000
G 2  21787560.120   114494406.082                                  
G 6  20794403.420   109275276.750    20794405.920    81601668.129  
G12  22233605.440   116838386.172                                  
G14  24269306.580   127536033.695    24269311.760    95237941.988  
G17  22831338.720   119979486.098                                  
G19  20875036.020   109699064.699                                  
G24  20914777.400   109907850.398    20914779.180    82074045.109  
G28  23649724.260   124280124.949                                  
E 2  23357585.860   122744932.438    23357588.080    91660172.391  
E25  25251038.720   132695060.645    25251042.860    99090456.297  
E30  25013794.040   131448340.422    25013797.660    98159465.063  
> 2021  3 10 23 42 13.0000000  0 11       0.000000000000
G 2  21787107.100   114492025.445                                  
G 6  20794272.560   109274589.141    20794275.060    81601154.656  
G12  22233138.760   116835933.727                                  
G14  24269814.680   127538703.773    24269819.860    95239935.879  
G17  22831826.520   119982049.520                                  
G19  20875396.920   109700961.180                                  
G24  20914778.980   109907858.680    20914780.760    82074051.293  
G28  23650117.620   124282192.059                                  
E 2  23357489.120   122744424.059    23357491.340    91659792.758  
E25  25251341.940   132696654.117    25251346.080    99091646.230  
E30  25013375.340   131446140.078    25013378.960    98157821.949  
> 2021  3 10 23 42 14.0000000  0 11       0.000000000000
G 2  21786654.160   114489645.254                                  
G 6  20794141.840   109273902.195    20794144.340    81600641.680  
G12  22232672.080   116833481.406                                  
G14  24270322.800   127541374.004    24270327.980    95241929.879  
G17  22832314.320   119984613.012                                  
G19  20875757.860   109702857.980                                  
G24  20914780.660   109907867.609    20914782.440    82074057.961  
G28  23650511.020   124284259.328                                  
E 2  23357392.420   122743915.910    23357394.640    91659413.293  
E25  25251645.220   132698247.820    25251649.360    99092836.332  
E30  25012956.620   131443939.746    25012960.240    98156178.848  
> 2021  3 10 23 42 15.0000000  0 11       0.000000000000
G 2  21786201.320   114487265.508                                  
G 6  20794011.240   109273215.926    20794013.740    81600129.203  
G12  22232205.440   116831029.211                                  
G14  24270830.960   127544044.379    24270836.140    95243923.992  
G17  22832802.160   119987176.566                                  
G19  20876118.880   109704755.109                                  
G24  20914782.480   109907877.141    20914784.260    82074065.082  
G28  23650904.420   124286326.750                                  
E 2  23357295.760   122743407.980    23357297.980    91659033.996  
E25  25251948.540   132699841.742    25251952.660    99094026.598  
E30  25012537.920   131441739.449    25012541.540    98154535.770  
> 2021  3 10 23 42 16.0000000  0 11       0.000000000000
G 2  21785748.540   114484886.215                                  
G 6  20793880.780   109272530.328    20793883.280    81599617.230  
G12  22231738.840   116828577.141                                  
G14  24271339.140   127546714.902    24271344.320    95245918.211  
G17  22833289.980   119989740.172                                  
G19  20876479.940   109706652.555                                  
G24  20914784.420   109907887.301    20914786.200    82074072.668  
G28  23651297.880   124288394.344                                  
E 2  23357199.140   122742900.250    23357201.360    91658654.852  
E25  25252251.880   132701435.871    25252256.020    99095217.023  
E30  25012119.220   131439539.176    25012122.840    98152892.711  
> 2021  3 10 23 42 17.0000000  0 11       0.000000000000
G 2  21785295.860   114482507.363                                  
G 6  20793750.440   109271845.398    20793752.940    81599105.762  
G12  22231272.240   116826125.188                                  
G14  24271847.340   127549385.566    24271852.520    95247912.539  
G17  22833777.840   119992303.836                                  
G19  20876841.080   109708550.320                                  
G24  20914786.460   109907898.117    20914788.240    82074080.746  
G28  23651691.340   124290462.078                                  
E 2  23357102.580   122742392.766    23357104.780    91658275.891  
E25  25252555.280   132703030.230    25252559.420    99096407.617  
E30  25011700.520   131437338.914    25011704.140    98151249.664  
> 2021  3 10 23 42 18.0000000  0 11       0.000000000000
G 2  21784843.260   114480128.949                                  
G 6  20793620.220   109271161.133    20793622.720    81598594.781  
G12  22230805.660   116823673.367                                  
G14  24272355.580   127552056.375    24272360.760    95249906.973  
G17  22834265.700   119994867.547                                  
G19  20877202.260   109710448.398                                  
G24  20914788.640   109907909.574    20914790.420    82074089.301  
G28  23652084.860   124292529.953                                  
E 2  23357006.040   122741885.496    23357008.260    91657897.090  
E25  25252858.720   132704624.805    25252862.860    99097598.375  
E30  25011281.840   131435138.691    25011285.460    98149606.645  
> 2021  3 10 23 42 19.0000000  0 11       0.000000000000
G 2  21784390.740   114477750.992                                  
G 6  20793490.140   109270477.543    20793492.640    81598084.313  
G12  22230339.120   116821221.656                                  
G14  24272863.840   127554727.336    24272869.040    95251901.520  
G17  22834753.560   119997431.328                                  
G19  20877563.520   109712346.801                                  
G24  20914790.940   109907921.688    20914792.720    82074098.348  
G28  23652478.380   124294597.996                                  
E 2  23356909.560   122741378.453    23356911.780    91657518.457  
E25  25253162.200   132706219.605    25253166.340    99098789.305  
E30  25010863.160   131432938.488    25010866.780    98147963.641  
> 2021  3 10 23 42 20.0000000  0 11       0.000000000000
G 2  21783938.320   114475373.473                                  
G 6  20793360.180   109269794.629    20793362.680    81597574.344  
G12  22229872.600   116818770.070                                  
G14  24273372.140   127557398.430    24273377.320    95253896.168  
G17  22835241.440   119999995.168                                  
G19  20877924.820   109714245.531                                  
G24  20914793.380   109907934.453    20914795.160    82074107.879  
G28  23652871.940   124296666.191                                  
E 2  23356813.120   122740871.625    23356815.320    91657139.984  
E25  25253465.720   132707814.629    25253469.860    99099980.395  
E30  25010444.480   131430738.305    25010448.100    98146320.648  
> 2021  3 10 23 42 21.0000000  0 11       0.000000000000
G 2  21783485.980   114472996.398                                  
G 6  20793230.360   109269112.371    20793232.860    81597064.867  
G12  22229406.100   116816318.613                                  
G14  24273880.460   127560069.680    24273885.640    95255890.930  
G17  22835729.340   120002559.059                                  
G19  20878286.200   109716144.570                                  
G24  20914795.920   109907947.852    20914797.700    82074117.887  
G28  23653265.540   124298734.539                                  
E 2  23356716.720   122740365.027    23356718.920    91656761.688  
E25  25253769.300   132709409.875    25253773.420    99101171.652  
E30  25010025.800   131428538.160    25010029.420    98144677.691  
> 2021  3 10 23 42 22.0000000  0 11       0.000000000000
G 2  21783033.720   114470619.770                                  
G 6  20793100.660   109268430.789    20793103.160    81596555.898  
G12  22228939.620   116813867.285                                  
G14  24274388.800   127562741.059    24274393.980    95257885.797  
G17  22836217.240   120005123.004                                  
G19  20878647.640   109718043.926                                  
G24  20914798.600   109907961.879    20914800.380    82074128.363  
G28  23653659.160   124300803.031                                  
E 2  23356620.360   122739858.652    23356622.560    91656383.547  
E25  25254072.900   132711005.332    25254077.020    99102363.066  
E30  25009607.120   131426338.035    25009610.740    98143034.742  
> 2021  3 10 23 42 23.0000000  0 11       0.000000000000
G 2  21782581.540   114468243.590                                  
G 6  20792971.080   109267749.871    20792973.580    81596047.422  
G12  22228473.180   116811416.074                                  
G14  24274897.180   127565412.594    24274902.360    95259880.777  
G17  22836705.160   120007687.012                                  
G19  20879009.140   109719943.609                                  
G24  20914801.380   109907976.559    20914803.160    82074139.328  
G28  23654052.820   124302871.684                                  
E 2  23356524.040   122739352.504    23356526.240    91656005.578  
E25  25254376.560   132712601.020    25254380.680    99103554.648  
E30  25009188.460   131424137.934    25009192.080    98141391.805  
> 2021  3 10 23 42 24.0000000  0 11       0.000000000000
G 2  21782129.460   114465867.852                                  
G 6  20792841.640   109267069.625    20792844.120    81595539.453  
G12  22228006.760   116808964.988                                  
G14  24275405.580   127568084.277    24275410.760    95261875.867  
G17  22837193.080   120010251.074                                  
G19  20879370.700   109721843.605                                  
G24  20914804.300   109907991.867    20914806.080    82074150.766  
G28  23654446.500   124304940.496                                  
E 2  23356427.760   122738846.578    23356429.980    91655627.777  
E25  25254680.240   132714196.941    25254684.380    99104746.410  
E30  25008769.800   131421937.875    25008773.420    98139748.906  
> 2021  3 10 23 42 25.0000000  0 11       0.000000000000
G 2  21781677.460   114463492.555                                  
G 6  20792712.320   109266390.051    20792714.800    81595031.980  
G12  22227540.340   116806514.031                                  
G14  24275914.020   127570756.090    24275919.200    95263871.055  
G17  22837681.020   120012815.191                                  
G19  20879732.320   109723743.918                                  
G24  20914807.340   109908007.809    20914809.100    82074162.676  
G28  23654840.200   124307009.465                                  
E 2  23356331.540   122738340.863    23356333.740    91655250.133  
E25  25254983.980   132715793.074    25254988.100    99105938.324  
E30  25008351.160   131419737.832    25008354.760    98138106.016  
> 2021  3 10 23 42 26.0000000  0 11       0.000000000000
G 2  21781225.540   114461117.707                                  
G 6  20792583.120   109265711.148    20792585.620    81594525.016  
G12  22227073.980   116804063.199                                  
G14  24276422.480   127573428.059    24276427.660    95265866.359  
G17  22838168.960   120015379.367                                  
G19  20880093.980   109725644.551                                  
G24  20914810.480   109908024.387    20914812.260    82074175.059  
G28  23655233.940   124309078.582                                  
E 2  23356235.340   122737835.383    23356237.560    91654872.664  
E25  25255287.760   132717389.426    25255291.880    99107130.402  
E30  25007932.500   131417537.820    25007936.120    98136463.152  
> 2021  3 10 23 42 27.0000000  0 11       0.000000000000
G 2  21780773.700   114458743.305                                  
G 6  20792454.060   109265032.922    20792456.560    81594018.547  
G12  22226607.620   116801612.484                                  
G14  24276930.960   127576100.180    24276936.140    95267861.777  
G17  22838656.920   120017943.602                                  
G19  20880455.740   109727545.512                                  
G24  20914813.760   109908041.617    20914815.540    82074187.930  
G28  23655627.720   124311147.863                                  
E 2  23356139.200   122737330.137    23356141.400    91654495.367  
E25  25255591.580   132718986.004    25255595.700    99108322.652  
E30  25007513.860   131415337.832    25007517.480    98134820.305  
> 2021  3 10 23 42 28.0000000  0 11       0.000000000000
G 2  21780321.960   114456369.355                                  
G 6  20792325.120   109264355.352    20792327.620    81593512.574  
G12  22226141.280   116799161.898                                  
G14  24277439.480   127578772.438    24277444.660    95269857.297  
G17  22839144.880   120020507.898                                  
G19  20880817.540   109729446.785                                  
G24  20914817.180   109908059.504    20914818.940    82074201.289  
G28  23656021.520   124313217.297                                  
E 2  23356043.100   122736825.094    23356045.300    91654118.227  
E25  25255895.440   132720582.805    25255899.560    99109515.070  
E30  25007095.220   131413137.863    25007098.840    98133177.473  
> 2021  3 10 23 42 29.0000000  0 11       0.000000000000
G 2  21779870.280   114453995.848                                  
G 6  20792196.320   109263678.465    20792198.800    81593007.113  
G12  22225674.980   116796711.438                                  
G14  24277948.020   127581444.848    24277953.200    95271852.930  
G17  22839632.860   120023072.250                                  
G19  20881179.400   109731348.391                                  
G24  20914820.700   109908078.035    20914822.460    82074215.133  
G28  23656415.360   124315286.883                                  
E 2  23355947.020   122736320.285    23355949.240    91653741.258  
E25  25256199.340   132722179.828    25256203.460    99110707.652  
E30  25006676.580   131410937.934    25006680.200    98131534.668  
> 2021  3 10 23 42 30.0000000  0 11       0.000000000000
G 2  21779418.700   114451622.797                                  
G 6  20792067.640   109263002.242    20792070.120    81592502.145  
G12  22225208.700   116794261.102                                  
G14  24278456.600   127584117.398    24278461.780    95273848.672  
G17  22840120.860   120025636.652                                  
G19  20881541.320   109733250.297                                  
G24  20914824.340   109908097.219    20914826.120    82074229.461  
G28  23656809.220   124317356.621                                  
E 2  23355851.020   122735815.699    23355853.220    91653364.457  
E25  25256503.280   132723777.063    25256507.420    99111900.391  
E30  25006257.960   131408738.016    25006261.580    98129891.871  
> 2021  3 10 23 42 31.0000000  0 11       0.000000000000
G 2  21778967.220   114449250.184                                  
G 6  20791939.080   109262326.691    20791941.560    81591997.680  
G12  22224742.420   116791810.875                                  
G14  24278965.200   127586790.094    24278970.360    95275844.516  
G17  22840608.860   120028201.109                                  
G19  20881903.300   109735152.531                                  
G24  20914828.120   109908117.063    20914829.900    82074244.285  
G28  23657203.100   124319426.523                                  
E 2  23355755.040   122735311.324    23355757.240    91652987.816  
E25  25256807.280   132725374.527    25256811.400    99113093.305  
E30  25005839.320   131406538.125    25005842.940    98128249.094  
> 2021  3 10 23 42 32.0000000  0 11       0.000000000000
G 2  21778515.800   114446878.020                                  
G 6  20791810.660   109261651.813    20791813.140    81591493.715  
G12  22224276.180   116789360.777                                  
G14  24279473.820   127589462.930    24279479.000    95277840.469  
G17  22841096.880   120030765.637                                  
G19  20882265.340   109737055.094                                  
G24  20914832.020   109908137.531    20914833.780    82074259.570  
G28  23657597.020   124321496.570                                  
E 2  23355659.100   122734807.184    23355661.300    91652611.348  
E25  25257111.300   132726972.207    25257115.420    99114286.375  
E30  25005420.700   131404338.262    25005424.320    98126606.340  
> 2021  3 10 23 42 33.0000000  0 11       0.000000000000
G 2  21778064.480   114444506.301                                  
G 6  20791682.360   109260977.598    20791684.840    81590990.250  
G12  22223809.980   116786910.805                                  
G14  24279982.460   127592135.918    24279987.640    95279836.535  
G17  22841584.900   120033330.199                                  
G19  20882627.440   109738957.961                                  
G24  20914836.040   109908158.645    20914837.800    82074275.344  
G28  23657990.960   124323566.781                                  
E 2  23355563.200   122734303.262    23355565.400    91652235.039  
E25  25257415.380   132728570.113    25257419.500    99115479.613  
E30  25005002.100   131402138.426    25005005.700    98124963.609  
> 2021  3 10 23 42 34.0000000  0 11       0.000000000000
G 2  21777613.240   114442135.027                                  
G 6  20791554.180   109260304.059    20791556.680    81590487.281  
G12  22223343.780   116784460.969                                  
G14  24280491.140   127594809.047    24280496.320    95281832.707  
G17  22842072.920   120035894.840                                  
G19  20882989.620   109740861.145                                  
G24  20914840.180   109908180.406    20914841.940    82074291.594  
G28  23658384.940   124325637.141                                  
E 2  23355467.360   122733799.563    23355469.560    91651858.902  
E25  25257719.480   132730168.238    25257723.620    99116673.020  
E30  25004583.480   131399938.613    25004587.100    98123320.895  
> 2021  3 10 23 42 35.0000000  0 11       0.000000000000
G 2  21777162.100   114439764.203                                  
G 6  20791426.140   109259631.184    20791428.620    81589984.820  
G12  22222877.620   116782011.254                                  
G14  24280999.860   127597482.320    24281005.020    95283828.984  
G17  22842560.980   120038459.535                                  
G19  20883351.840   109742764.645                                  
G24  20914844.440   109908202.805    20914846.200    82074308.328  
G28  23658778.940   124327707.652                                  
E 2  23355371.540   122733296.086    23355373.760    91651482.930  
E25  25258023.640   132731766.582    25258027.780    99117866.590  
E30  25004164.880   131397738.832    25004168.500    98121678.199  
> 2021  3 10 23 42 36.0000000  0 11       0.000000000000
G 2  21776711.020   114437393.828                                  
G 6  20791298.220   109258958.996    20791300.720    81589482.863  
G12  22222411.480   116779561.629                                  
G14  24281508.600   127600155.742    24281513.760    95285825.371  
G17  22843049.020   120041024.277                                  
G19  20883714.120   109744668.477                                  
G24  20914848.820   109908225.832    20914850.580    82074325.527  
G28  23659172.980   124329778.332                                  
E 2  23355275.780   122732792.840    23355277.980    91651107.125  
E25  25258327.840   132733365.152    25258331.960    99119060.324  
E30  25003746.280   131395539.074    25003749.900    98120035.523  
> 2021  3 10 23 42 37.0000000  0 11       0.000000000000
G 2  21776260.040   114435023.906                                  
G 6  20791170.440   109258287.469    20791172.920    81588981.402  
G12  22221945.360   116777112.156                                  
G14  24282017.360   127602829.301    24282022.520    95287821.867  
G17  22843537.100   120043589.074                                  
G19  20884076.480   109746572.617                                  
G24  20914853.340   109908249.539    20914855.100    82074343.234  
G28  23659567.060   124331849.160                                  
E 2  23355180.060   122732289.813    23355182.260    91650731.488  
E25  25258632.080   132734963.945    25258636.200    99120254.227  
E30  25003327.680   131393339.344    25003331.300    98118392.867  
> 2021  3 10 23 42 38.0000000  0 11       0.000000000000
G 2  21775809.140   114432654.422                                  
G 6  20791042.780   109257616.609    20791045.260    81588480.438  
G12  22221479.260   116774662.801                                  
G14  24282526.140   127605503.012    24282531.320    95289818.469  
G17  22844025.180   120046153.938                                  
G19  20884438.880   109748477.082                                  
G24  20914857.960   109908273.895    20914859.740    82074361.422  
G28  23659961.140   124333920.141                                  
E 2  23355084.380   122731787.012    23355086.580    91650356.023  
E25  25258936.360   132736562.957    25258940.500    99121448.293  
E30  25002909.100   131391139.641    25002912.700    98116750.234  
> 2021  3 10 23 42 39.0000000  0 11       0.000000000000
G 2  21775358.340   114430285.387                                  
G 6  20790915.240   109256946.422    20790917.720    81587979.977  
G12  22221013.180   116772213.594                                  
G14  24283034.960   127608176.863    24283040.140    95291815.180  
G17  22844513.260   120048718.855                                  
G19  20884801.340   109750381.855                                  
G24  20914862.720   109908298.867    20914864.480    82074380.078  
G28  23660355.280   124335991.273                                  
E 2  23354988.740   122731284.430    23354990.940    91649980.719  
E25  25259240.680   132738162.188    25259244.820    99122642.523  
E30  25002490.500   131388939.961    25002494.120    98115107.617  
> 2021  3 10 23 42 40.0000000  0 11       0.000000000000
G 2  21774907.600   114427916.801                                  
G 6  20790787.840   109256276.898    20790790.320    81587480.016  
G12  22220547.140   116769764.488                                  
G14  24283543.800   127610850.867    24283548.980    95293812.004  
G17  22845001.360   120051283.840                                  
G19  20885163.880   109752286.953                                  
G24  20914867.600   109908324.492    20914869.360    82074399.215  
G28  23660749.420   124338062.566                                  
E 2  23354893.140   122730782.066    23354895.340    91649605.578  
E25  25259545.060   132739761.641    25259549.180    99123836.922  
E30  25002071.920   131386740.305    25002075.540    98113465.016  
> 2021  3 10 23 42 41.0000000  0 11       0.000000000000
G 2  21774456.960   114425548.660                                  
G 6  20790660.560   109255608.055    20790663.040    81586980.559  
G12  22220081.120   116767315.523                                  
G14  24284052.680   127613525.008    24284057.840    95295808.930  
G17  22845489.480   120053848.875                                  
G19  20885526.460   109754192.367                                  
G24  20914872.600   109908350.750    20914874.360    82074418.828  
G28  23661143.620   124340134.016                                  
E 2  23354797.580   122730279.930    23354799.800    91649230.605  
E25  25259849.460   132741361.313    25259853.600    99125031.480  
E30  25001653.340   131384540.684    25001656.960    98111822.441  
> 2021  3 10 23 42 42.0000000  0 11       0.000000000000
G 2  21774006.400   114423180.965                                  
G 6  20790533.420   109254939.879    20790535.900    81586481.602  
G12  22219615.120   116764866.688                                  
G14  24284561.580   127616199.293    24284566.740    95297805.965  
G17  22845977.600   120056413.977                                  
G19  20885889.120   109756098.102                                  
G24  20914877.720   109908377.660    20914879.480    82074438.930  
G28  23661537.820   124342205.605                                  
E 2  23354702.080   122729778.023    23354704.280    91648855.805  
E25  25260153.920   132742961.215    25260158.040    99126226.211  
E30  25001234.780   131382341.078    25001238.400    98110179.883  
> 2021  3 10 23 42 43.0000000  0 11       0.000000000000
G 2  21773555.940   114420813.719                                  
G 6  20790406.400   109254272.371    20790408.860    81585983.141  
G12  22219149.140   116762417.973                                  
G14  24285070.520   127618873.738    24285075.680    95299803.117  
G17  22846465.720   120058979.125                                  
G19  20886251.820   109758004.152                                  
G24  20914882.960   109908405.230    20914884.720    82074459.520  
G28  23661932.060   124344277.359                                  
E 2  23354606.600   122729276.324    23354608.820    91648481.160  
E25  25260458.400   132744561.332    25260462.540    99127421.105  
E30  25000816.220   131380141.504    25000819.820    98108537.344  
> 2021  3 10 23 42 44.0000000  0 11       0.000000000000
G 2  21773105.540   114418446.914                                  
G 6  20790279.500   109253605.535    20790281.980    81585485.184  
G12  22218683.180   116759969.383                                  
G14  24285579.480   127621548.324    24285584.640    95301800.379  
G17  22846953.860   120061544.336                                  
G19  20886614.600   109759910.527                                  
G24  20914888.320   109908433.430    20914890.080    82074480.582  
G28  23662326.340   124346349.270                                  
E 2  23354511.180   122728774.859    23354513.380    91648106.688  
E25  25260762.940   132746161.672    25260767.060    99128616.160  
E30  25000397.660   131377941.957    25000401.260    98106894.824  
> 2021  3 10 23 42 45.0000000  0 11       0.000000000000
G 2  21772655.240   114416080.559                                  
G 6  20790152.720   109252939.375    20790155.200    81584987.730  
G12  22218217.260   116757520.914                                  
G14  24286088.460   127624223.047    24286093.620    95303797.738  
G17  22847442.020   120064109.605                                  
G19  20886977.420   109761817.211                                  
G24  20914893.820   109908462.254    20914895.560    82074502.109  
G28  23662720.640   124348421.340                                  
E 2  23354415.800   122728273.613    23354418.000    91647732.383  
E25  25261067.520   132747762.230    25261071.640    99129811.383  
E30  24999979.100   131375742.430    24999982.700    98105252.320  
> 2021  3 10 23 42 46.0000000  0 11       0.000000000000
G 2  21772205.020   114413714.652                                  
G 6  20790026.080   109252273.883    20790028.560    81584490.773  
G12  22217751.360   116755072.578                                  
G14  24286597.460   127626897.910    24286602.620    95305795.203  
G17  22847930.180   120066674.922                                  
G19  20887340.320   109763724.211                                  
G24  20914899.420   109908491.719    20914901.180    82074524.113  
G28  23663114.960   124350493.551                                  
E 2  23354320.460   122727772.598    23354322.660    91647358.246  
E25  25261372.140   132749363.008    25261376.260    99131006.770  
E30  24999560.540   131373542.930    24999564.160    98103609.840  
> 2021  3 10 23 42 47.0000000  0 11       0.000000000000
G 2  21771754.900   114411349.203                                  
G 6  20789899.580   109251609.063    20789902.060    81583994.320  
G12  22217285.480   116752624.367                                  
G14  24287106.500   127629572.930    24287111.660    95307792.785  
G17  22848418.360   120069240.309                                  
G19  20887703.260   109765631.539                                  
G24  20914905.140   109908521.824    20914906.900    82074546.602  
G28  23663509.340   124352565.945                                  
E 2  23354225.160   122727271.805    23354227.360    91646984.277  
E25  25261676.800   132750964.016    25261680.920    99132202.328  
E30  24999142.000   131371343.469    24999145.620    98101967.387  
> 2021  3 10 23 42 48.0000000  0 11       0.000000000000
G 2  21771304.840   114408984.195                                  
G 6  20789773.200   109250944.906    20789775.660    81583498.367  
G12  22216819.620   116750176.281                                  
G14  24287615.580   127632248.086    24287620.740    95309790.473  
G17  22848906.560   120071805.734                                  
G19  20888066.280   109767539.176                                  
G24  20914911.000   109908552.582    20914912.760    82074569.574  
G28  23663903.720   124354638.461                                  
E 2  23354129.900   122726771.230    23354132.120    91646610.473  
E25  25261981.500   132752565.238    25261985.620    99133398.047  
E30  24998723.460   131369144.031    24998727.080    98100324.945  
> 2021  3 10 23 42 49.0000000  0 11       0.000000000000
G 2  21770854.880   114406619.629                                  
G 6  20789646.940   109250281.426    20789649.400    81583002.914  
G12  22216353.780   116747728.320                                  
G14  24288124.660   127634923.398    24288129.820    95311788.273  
G17  22849394.740   120074371.223                                  
G19  20888429.340   109769447.133                                  
G24  20914916.980   109908583.996    20914918.740    82074593.035  
G28  23664298.140   124356711.145                                  
E 2  23354034.700   122726270.883    23354036.900    91646236.836  
E25  25262286.240   132754166.684    25262290.380    99134593.930  
E30  24998304.920   131366944.613    24998308.540    98098682.527  
> 2021  3 10 23 42 50.0000000  0 11       0.000000000000
G 2  21770405.000   114404255.516                                  
G 6  20789520.800   109249618.617    20789523.280    81582507.965  
G12  22215887.980   116745280.492                                  
G14  24288633.780   127637598.855    24288638.940    95313786.180  
G17  22849882.960   120076936.773                                  
G19  20888792.480   109771355.406                                  
G24  20914923.080   109908616.020    20914924.820    82074616.953  
G28  23664692.580   124358783.980                                  
E 2  23353939.520   122725770.762    23353941.720    91645863.371  
E25  25262591.040   132755768.359    25262595.160    99135789.984  
E30  24997886.400   131364745.219    24997890.000    98097040.121  
> 2021  3 10 23 42 51.0000000  0 11       0.000000000000
G 2  21769955.220   114401891.852                                  
G 6  20789394.800   109248956.484    20789397.280    81582013.520  
G12  22215422.200   116742832.785                                  
G14  24289142.940   127640274.457    24289148.100    95315784.199  
G17  22850371.180   120079502.383                                  
G19  20889155.680   109773264.000                                  
G24  20914929.300   109908648.695    20914931.040    82074641.359  
G28  23665087.060   124360856.965                                  
E 2  23353844.400   122725270.859    23353846.600    91645490.066  
E25  25262895.860   132757370.254    25262900.000    99136986.207  
E30  24997467.860   131362545.855    24997471.480    98095397.738  
> 2021  3 10 23 42 52.0000000  0 11       0.000000000000
G 2  21769505.500   114399528.633                                  
G 6  20789268.940   109248295.012    20789271.400    81581519.566  
G12  22214956.440   116740385.199                                  
G14  24289652.120   127642950.203    24289657.280    95317782.324  
G17  22850859.400   120082068.047                                  
G19  20889518.920   109775172.902                                  
G24  20914935.640   109908682.023    20914937.380    82074666.250  
G28  23665481.560   124362930.105                                  
E 2  23353749.300   122724771.188    23353751.520    91645116.934  
E25  25263200.740   132758972.367    25263204.860    99138182.586  
E30  24997049.340   131360346.512    24997052.960    98093755.375  
> 2021  3 10 23 42 53.0000000  0 11       0.000000000000
G 2  21769055.880   114397165.859                                  
G 6  20789143.180   109247634.215    20789145.660    81581026.117  
G12  22214490.700   116737937.738                                  
G14  24290161.320   127645626.094    24290166.480    95319780.559  
G17  22851347.640   120084633.770                                  
G19  20889882.240   109777082.125                                  
G24  20914942.100   109908716.000    20914943.840    82074691.629  
G28  23665876.100   124365003.402                                  
E 2  23353654.260   122724271.727    23353656.480    91644743.961  
E25  25263505.640   132760574.695    25263509.780    99139379.129  
E30  24996630.840   131358147.207    24996634.440    98092113.035  
> 2021  3 10 23 42 54.0000000  0 11       0.000000000000
G 2  21768606.360   114394803.547                                  
G 6  20789017.580   109246974.094    20789020.040    81580533.176  
G12  22214024.980   116735490.406                                  
G14  24290670.560   127648302.125    24290675.720    95321778.898  
G17  22851835.900   120087199.547                                  
G19  20890245.620   109778991.664                                  
G24  20914948.700   109908750.656    20914950.440    82074717.512  
G28  23666270.660   124367076.852                                  
E 2  23353559.260   122723772.512    23353561.480    91644371.168  
E25  25263810.600   132762177.250    25263814.740    99140575.844  
E30  24996212.320   131355947.930    24996215.940    98090470.719  
> 2021  3 10 23 42 55.0000000  0 11       0.000000000000
G 2  21768156.900   114392441.672                                  
G 6  20788892.080   109246314.641    20788894.540    81580040.730  
G12  22213559.300   116733043.195                                  
G14  24291179.820   127650978.305    24291184.980    95323777.344  
G17  22852324.160   120089765.383                                  
G19  20890609.040   109780901.512                                  
G24  20914955.400   109908785.938    20914957.160    82074743.859  
G28  23666665.260   124369150.457                                  
E 2  23353464.300   122723273.504    23353466.520    91643998.535  
E25  25264115.600   132763780.023    25264119.740    99141772.719  
E30  24995793.820   131353748.668    24995797.420    98088828.414  
> 2021  3 10 23 42 56.0000000  0 11       0.000000000000
G 2  21767707.540   114390080.242                                  
G 6  20788766.720   109245655.859    20788769.180    81579548.789  
G12  22213093.640   116730596.109                                  
G14  24291689.100   127653654.625    24291694.260    95325775.898  
G17  22852812.440   120092331.277                                  
G19  20890972.540   109782811.688                                  
G24  20914962.240   109908821.855    20914963.980    82074770.684  
G28  23667059.880   124371224.223                                  
E 2  23353369.400   122722774.711    23353371.600    91643626.059  
E25  25264420.640   132765383.023    25264424.780    99142969.762  
E30  24995375.320   131351549.438    24995378.920    98087186.133  
> 2021  3 10 23 42 57.0000000  0 11       0.000000000000
G 2  21767258.260   114387719.266                                  
G 6  20788641.480   109244997.746    20788643.940    81579057.344  
G12  22212628.000   116728149.148                                  
G14  24292198.420   127656331.098    24292203.580    95327774.566  
G17  22853300.720   120094897.223                                  
G19  20891336.100   109784722.184                                  
G24  20914969.200   109908858.414    20914970.940    82074797.988  
G28  23667454.540   124373298.141                                  
E 2  23353274.520   122722276.156    23353276.720    91643253.762  
E25  25264725.720   132766986.246    25264729.860    99144166.977  
E30  24994956.820   131349350.234    24994960.440    98085543.871  
> 2021  3 10 23 42 58.0000000  0 11       0.000000000000
G 2  21766809.060   114385358.730                                  
G 6  20788516.380   109244340.309    20788518.840    81578566.402  
G12  22212162.380   116725702.313                                  
G14  24292707.760   127659007.711    24292712.920    95329773.340  
G17  22853789.020   120097463.238                                  
G19  20891699.720   109786633.000                                  
G24  20914976.280   109908895.605    20914978.020    82074825.766  
G28  23667849.220   124375372.223                                  
E 2  23353179.700   122721777.828    23353181.900    91642881.633  
E25  25265030.860   132768589.691    25265034.980    99145364.352  
E30  24994538.340   131347151.063    24994541.940    98083901.633  
> 2021  3 10 23 42 59.0000000  0 11       0.000000000000
G 2  21766359.960   114382998.656                                  
G 6  20788391.400   109243683.535    20788393.860    81578075.961  
G12  22211696.780   116723255.602                                  
G14  24293217.140   127661684.477    24293222.280    95331772.223  
G17  22854277.320   120100029.297                                  
G19  20892063.380   109788544.125                                  
G24  20914983.480   109908933.457    20914985.220    82074854.035  
G28  23668243.940   124377446.457                                  
E 2  23353084.900   122721279.707    23353087.100    91642509.660  
E25  25265336.020   132770193.352    25265340.160    99146561.891  
E30  24994119.840   131344951.910    24994123.460    98082259.410  
> 2021  3 10 23 43  0.0000000  0 11       0.000000000000
G 2  21765910.940   114380639.027                                  
G 6  20788266.540   109243027.445    20788269.000    81577586.027  
G12  22211231.200   116720809.008                                  
G14  24293726.540   127664361.379    24293731.680    95333771.215  
G17  22854765.640   120102595.414                                  
G19  20892427.120   109790455.566                                  
G24  20914990.800   109908971.965    20914992.540    82074882.793  
G28  23668638.680   124379520.836                                  
E 2  23352990.160   122720781.824    23352992.360    91642137.863  
E25  25265641.240   132771797.234    25265645.360    99147759.594  
E30  24993701.360   131342752.789    24993704.980    98080617.211  
> 2021  3 10 23 43  1.0000000  0 11       0.000000000000
G 2  21765462.000   114378279.844                                  
G 6  20788141.820   109242372.012    20788144.280    81577096.582  
G12  22210765.660   116718362.543                                  
G14  24294235.960   127667038.426    24294241.120    95335770.309  
G17  22855253.960   120105161.590                                  
G19  20892790.920   109792367.340                                  
G24  20914998.260   109909011.125    20915000.000    82074912.039  
G28  23669033.460   124381595.387                                  
E 2  23352895.460   122720284.160    23352897.660    91641766.230  
E25  25265946.480   132773401.340    25265950.620    99148957.465  
E30  24993282.900   131340553.695    24993286.500    98078975.031  
> 2021  3 10 23 43  3.0000000  0 11       0.000000000000
G 2  21764564.380   114373562.820                                  
G 6  20787892.760   109241063.176    20787895.220    81576119.203  
G12  22209834.640   116713469.988                                  
G14  24295254.900   127672392.957    24295260.040    95339768.820  
G17  22856230.660   120110294.102                                  
G19  20893518.700   109796191.820                                  
G24  20915013.520   109909091.352    20915015.260    82074971.949  
G28  23669823.100   124385744.938                                  
E 2  23352706.180   122719289.516    23352708.380    91641023.477  
E25  25266557.120   132776610.219    25266561.240    99151353.703  
E30  24992445.960   131336155.586    24992449.580    98075690.730  
> 2021  3 10 23 43  4.0000000  0 11       0.000000000000
G 2  21764115.680   114371204.992                                  
G 6  20787768.420   109240409.762    20787770.880    81575631.266  
G12  22209369.160   116711023.926                                  
G14  24295764.420   127675070.355    24295769.580    95341768.125  
G17  22856719.000   120112860.449                                  
G19  20893882.680   109798104.527                                  
G24  20915021.340   109909132.418    20915023.080    82075002.613  
G28  23670217.960   124387819.918                                  
E 2  23352611.600   122718792.527    23352613.820    91640652.352  
E25  25266862.500   132778214.992    25266866.620    99152552.070  
E30  24992027.500   131333956.594    24992031.100    98074048.641  
> 2021  3 10 23 43  5.0000000  0 11       0.000000000000
G 2  21763667.100   114368847.598                                  
G 6  20787644.200   109239757.012    20787646.660    81575143.820  
G12  22208903.700   116708577.965                                  
G14  24296273.960   127677747.988    24296279.120    95343767.652  
G17  22857207.380   120115426.844                                  
G19  20894246.700   109800017.551                                  
G24  20915029.280   109909174.102    20915031.020    82075033.742  
G28  23670612.860   124389895.078                                  
E 2  23352517.080   122718295.762    23352519.280    91640281.391  
E25  25267167.900   132779819.977    25267172.040    99153750.598  
E30  24991609.040   131331757.605    24991612.660    98072406.539  
> 2021  3 10 23 43  6.0000000  0 11       0.000000000000
G 2  21763218.580   114366490.660                                  
G 6  20787520.120   109239104.957    20787522.580    81574656.895  
G12  22208438.280   116706132.141                                  
G14  24296783.520   127680425.773    24296788.680    95345767.297  
G17  22857695.760   120117993.309                                  
G19  20894610.800   109801930.895                                  
G24  20915037.340   109909216.441    20915039.080    82075065.359  
G28  23671007.780   124391970.406                                  
E 2  23352422.580   122717799.191    23352424.800    91639910.574  
E25  25267473.380   132781425.203    25267477.500    99154949.305  
E30  24991190.600   131329558.664    24991194.200    98070764.480  
> 2021  3 10 23 43  7.0000000  0 11       0.000000000000
G 2  21762770.160   114364134.172                                  
G 6  20787396.160   109238453.563    20787398.620    81574170.465  
G12  22207972.880   116703686.426                                  
G14  24297293.120   127683103.707    24297298.280    95347767.051  
G17  22858184.160   120120559.820                                  
G19  20894974.960   109803844.559                                  
G24  20915045.500   109909259.406    20915047.240    82075097.441  
G28  23671402.720   124394045.887                                  
E 2  23352328.140   122717302.852    23352330.340    91639539.926  
E25  25267778.880   132783030.656    25267783.020    99156148.184  
E30  24990772.160   131327359.738    24990775.760    98069122.426  
> 2021  3 10 23 43  8.0000000  0 11       0.000000000000
G 2  21762321.820   114361778.121                                  
G 6  20787272.340   109237802.820    20787274.800    81573684.523  
G12  22207507.500   116701240.844                                  
G14  24297802.740   127685781.754    24297807.900    95349766.891  
G17  22858672.560   120123126.371                                  
G19  20895339.180   109805758.523                                  
G24  20915053.800   109909303.031    20915055.540    82075130.020  
G28  23671797.700   124396121.500                                  
E 2  23352233.740   122716806.809    23352235.940    91639169.504  
E25  25268084.420   132784636.273    25268088.560    99157347.184  
E30  24990353.720   131325160.805    24990357.320    98067480.363  
> 2021  3 10 23 43  9.0000000  0 11       0.000000000000
G 2  21761873.560   114359422.531                                  
G 6  20787148.640   109237152.777    20787151.100    81573199.102  
G12  22207042.140   116698795.379                                  
G14  24298312.380   127688459.969    24298317.540    95351766.859  
G17  22859160.960   120125692.992                                  
G19  20895703.460   109807672.813                                  
G24  20915062.240   109909347.297    20915063.980    82075163.078  
G28  23672192.720   124398197.293                                  
E 2  23352139.380   122716310.938    23352141.580    91638799.211  
E25  25268390.020   132786242.160    25268394.140    99158546.383  
E30  24989935.280   131322961.926    24989938.880    98065838.344  
> 2021  3 10 23 43 10.0000000  0 11       0.000000000000
G 2  21761425.380   114357067.387                                  
G 6  20787025.060   109236503.387    20787027.520    81572714.168  
G12  22206576.800   116696350.047                                  
G14  24298822.060   127691138.324    24298827.220    95353766.926  
G17  22859649.380   120128259.664                                  
G19  20896067.800   109809587.406                                  
G24  20915070.780   109909392.215    20915072.520    82075196.617  
G28  23672587.760   124400273.234                                  
E 2  23352045.060   122715815.293    23352047.280    91638429.082  
E25  25268695.640   132787848.254    25268699.780    99159745.734  
E30  24989516.860   131320763.070    24989520.460    98064196.336  
> 2021  3 10 23 43 11.0000000  0 11       0.000000000000
G 2  21760977.300   114354712.688                                  
G 6  20786901.620   109235854.684    20786904.080    81572229.746  
G12  22206111.500   116693904.844                                  
G14  24299331.760   127693816.820    24299336.920    95355767.102  
G17  22860137.820   120130826.391                                  
G19  20896432.200   109811502.324                                  
G24  20915079.440   109909437.777    20915081.200    82075230.641  
G28  23672982.820   124402349.340                                  
E 2  23351950.780   122715319.867    23351953.000    91638059.125  
E25  25269001.320   132789454.582    25269005.460    99160945.266  
E30  24989098.420   131318564.246    24989102.040    98062554.359  
> 2021  3 10 23 43 12.0000000  0 11       0.000000000000
G 2  21760529.300   114352358.445                                  
G 6  20786778.300   109235206.641    20786780.760    81571745.816  
G12  22205646.220   116691459.758                                  
G14  24299841.480   127696495.465    24299846.660    95357767.387  
G17  22860626.260   120133393.180                                  
G19  20896796.640   109813417.551                                  
G24  20915088.240   109909483.988    20915089.980    82075265.148  
G28  23673377.920   124404425.594                                  
E 2  23351856.560   122714824.680    23351858.760    91637689.340  
E25  25269307.040   132791061.129    25269311.160    99162144.957  
E30  24988680.020   131316365.449    24988683.620    98060912.402  
> 2021  3 10 23 43 13.0000000  0 11       0.000000000000
G 2  21760081.400   114350004.652                                  
G 6  20786655.100   109234559.273    20786657.560    81571262.395  
G12  22205180.960   116689014.809                                  
G14  24300351.240   127699174.250    24300356.420    95359767.777  
G17  22861114.720   120135960.020                                  
G19  20897161.160   109815333.102                                  
G24  20915097.160   109909530.844    20915098.900    82075300.141  
G28  23673773.060   124406502.012                                  
E 2  23351762.360   122714329.711    23351764.580    91637319.723  
E25  25269612.800   132792667.895    25269616.920    99163344.816  
E30  24988261.600   131314166.688    24988265.200    98059270.469  
> 2021  3 10 23 43 14.0000000  0 11       0.000000000000
G 2  21759633.560   114347651.301                                  
G 6  20786532.040   109233912.566    20786534.500    81570779.465  
G12  22204715.720   116686569.973                                  
G14  24300861.020   127701853.191    24300866.200    95361768.285  
G17  22861603.180   120138526.918                                  
G19  20897525.740   109817248.957                                  
G24  20915106.200   109909578.332    20915107.940    82075335.602  
G28  23674168.220   124408578.574                                  
E 2  23351668.220   122713834.969    23351670.420    91636950.270  
E25  25269918.600   132794274.887    25269922.720    99164544.840  
E30  24987843.200   131311967.941    24987846.800    98057628.551  
> 2021  3 10 23 43 15.0000000  0 11       0.000000000000
G 2  21759185.820   114345298.398                                  
G 6  20786409.100   109233266.539    20786411.560    81570297.043  
G12  22204250.500   116684125.266                                  
G14  24301370.840   127704532.266    24301376.000    95363768.891  
G17  22862091.660   120141093.867                                  
G19  20897890.380   109819165.137                                  
G24  20915115.360   109909626.461    20915117.100    82075371.539  
G28  23674563.400   124410655.297                                  
E 2  23351574.120   122713340.453    23351576.320    91636580.988  
E25  25270224.440   132795882.094    25270228.580    99165745.027  
E30  24987424.800   131309769.227    24987428.400    98055986.652  
> 2021  3 10 23 43 16.0000000  0 11       0.000000000000
G 2  21758738.160   114342945.945                                  
G 6  20786286.300   109232621.188    20786288.760    81569815.125  
G12  22203785.320   116681680.684                                  
G14  24301880.680   127707211.492    24301885.840    95365769.609  
G17  22862580.140   120143660.875                                  
G19  20898255.080   109821081.629                                  
G24  20915124.640   109909675.242    20915126.380    82075407.973  
G28  23674958.620   124412732.180                                  
E 2  23351480.060   122712846.160    23351482.260    91636211.875  
E25  25270530.320   132797489.531    25270534.460    99166945.387  
E30  24987006.400   131307570.539    24987010.000    98054344.777  
> 2021  3 10 23 43 17.0000000  0 11       0.000000000000
G 2  21758290.600   114340593.953                                  
G 6  20786163.620   109231976.504    20786166.080    81569333.703  
G12  22203320.160   116679236.234                                  
G14  24302390.540   127709890.867    24302395.720    95367770.441  
G17  22863068.640   120146227.934                                  
G19  20898619.840   109822998.445                                  
G24  20915134.040   109909724.699    20915135.800    82075444.902  
G28  23675353.860   124414809.215                                  
E 2  23351386.040   122712352.090    23351388.240    91635842.926  
E25  25270836.240   132799097.184    25270840.380    99168145.906  
E30  24986588.000   131305371.883    24986591.600    98052702.926  
> 2021  3 10 23 43 18.0000000  0 11       0.000000000000
G 2  21757843.100   114338242.402                                  
G 6  20786041.060   109231332.496    20786043.520    81568852.793  
G12  22202855.020   116676791.898                                  
G14  24302900.440   127712570.391    24302905.620    95369771.383  
G17  22863557.140   120148795.059                                  
G19  20898984.640   109824915.566                                  
G24  20915143.580   109909774.777    20915145.320    82075482.297  
G28  23675749.140   124416886.410                                  
E 2  23351292.060   122711858.234    23351294.260    91635474.141  
E25  25271142.220   132800705.059    25271146.360    99169346.590  
E30  24986169.620   131303173.250    24986173.220    98051061.090  
> 2021  3 10 23 43 19.0000000  0 11       0.000000000000
G 2  21757395.700   114335891.309                                  
G 6  20785918.640   109230689.164    20785921.100    81568372.383  
G12  22202389.900   116674347.703                                  
G14  24303410.360   127715250.047    24303415.540    95371772.426  
G17  22864045.660   120151362.227                                  
G19  20899349.520   109826833.004                                  
G24  20915153.240   109909825.508    20915154.980    82075520.180  
G28  23676144.440   124418963.754                                  
E 2  23351198.120   122711364.621    23351200.340    91635105.531  
E25  25271448.220   132802313.160    25271452.360    99170547.445  
E30  24985751.240   131300974.645    24985754.840    98049419.273  
> 2021  3 10 23 43 20.0000000  0 11       0.000000000000
G 2  21756948.400   114333540.664                                  
G 6  20785796.360   109230046.504    20785798.800    81567892.477  
G12  22201924.800   116671903.641                                  
G14  24303920.320   127717929.859    24303925.480    95373773.582  
G17  22864534.180   120153929.473                                  
G19  20899714.460   109828750.770                                  
G24  20915163.000   109909876.867    20915164.740    82075558.535  
G28  23676539.780   124421041.266                                  
E 2  23351104.240   122710871.223    23351106.440    91634737.082  
E25  25271754.280   132803921.477    25271758.420    99171748.461  
E30  24985332.860   131298776.059    24985336.460    98047777.473  
> 2021  3 10 23 43 21.0000000  0 11       0.000000000000
G 2  21756501.160   114331190.465                                  
G 6  20785674.180   109229404.508    20785676.640    81567413.063  
G12  22201459.740   116669459.711                                  
G14  24304430.300   127720609.820    24304435.460    95375774.852  
G17  22865022.720   120156496.770                                  
G19  20900079.460   109830668.844                                  
G24  20915172.900   109909928.867    20915174.640    82075597.363  
G28  23676935.140   124423118.934                                  
E 2  23351010.400   122710378.066    23351012.600    91634368.816  
E25  25272060.380   132805530.020    25272064.520    99172949.645  
E30  24984914.480   131296577.512    24984918.100    98046135.699  
> 2021  3 10 23 43 22.0000000  0 11       0.000000000000
G 2  21756054.020   114328840.719                                  
G 6  20785552.140   109228763.188    20785554.600    81566934.156  
G12  22200994.700   116667015.895                                  
G14  24304940.300   127723289.914    24304945.480    95377776.219  
G17  22865511.280   120159064.109                                  
G19  20900444.520   109832587.227                                  
G24  20915182.920   109909981.516    20915184.660    82075636.680  
G28  23677330.540   124425196.742                                  
E 2  23350916.580   122709885.113    23350918.800    91634000.703  
E25  25272366.520   132807138.777    25272370.640    99174150.988  
E30  24984496.120   131294378.988    24984499.720    98044493.949  
> 2021  3 10 23 43 23.0000000  0 11       0.000000000000
G 2  21755606.960   114326491.430                                  
G 6  20785430.220   109228122.531    20785432.680    81566455.742  
G12  22200529.680   116664572.207                                  
G14  24305450.340   127725970.148    24305455.500    95379777.691  
G17  22865999.840   120161631.520                                  
G19  20900809.620   109834505.930                                  
G24  20915193.060   109910034.801    20915194.800    82075676.469  
G28  23677725.960   124427274.715                                  
E 2  23350822.820   122709392.387    23350825.040    91633632.758  
E25  25272672.700   132808747.762    25272676.820    99175352.504  
E30  24984077.760   131292180.488    24984081.360    98042852.211  
> 2021  3 10 23 43 24.0000000  0 11       0.000000000000
G 2  21755160.000   114324142.582                                  
G 6  20785308.440   109227482.547    20785310.900    81565977.840  
G12  22200064.680   116662128.645                                  
G14  24305960.400   127728650.531    24305965.560    95381779.277  
G17  22866488.400   120164198.973                                  
G19  20901174.800   109836424.938                                  
G24  20915203.320   109910088.711    20915205.060    82075716.730  
G28  23678121.420   124429352.824                                  
E 2  23350729.100   122708899.898    23350731.320    91633264.992  
E25  25272978.920   132810356.973    25272983.060    99176554.184  
E30  24983659.400   131289982.020    24983663.000    98041210.500  
> 2021  3 10 23 43 25.0000000  0 11       0.000000000000
G 2  21754713.100   114321794.188                                  
G 6  20785186.780   109226843.242    20785189.240    81565500.438  
G12  22199599.720   116659685.211                                  
G14  24306470.480   127731331.063    24306475.660    95383780.980  
G17  22866977.000   120166766.484                                  
G19  20901540.040   109838344.270                                  
G24  20915213.700   109910143.273    20915215.440    82075757.480  
G28  23678516.900   124431431.105                                  
E 2  23350635.440   122708407.633    23350637.640    91632897.391  
E25  25273285.180   132811966.398    25273289.320    99177756.031  
E30  24983241.060   131287783.582    24983244.660    98039568.809  
> 2021  3 10 23 43 26.0000000  0 11       0.000000000000
G 2  21754266.300   114319446.234                                  
G 6  20785065.260   109226204.605    20785067.720    81565023.535  
G12  22199134.760   116657241.898                                  
G14  24306980.600   127734011.742    24306985.780    95385782.781  
G17  22867465.580   120169334.051                                  
G19  20901905.340   109840263.918                                  
G24  20915224.200   109910198.477    20915225.940    82075798.703  
G28  23678912.420   124433509.531                                  
E 2  23350541.800   122707915.586    23350544.000    91632529.953  
E25  25273591.480   132813576.047    25273595.620    99178958.039  
E30  24982822.720   131285585.172    24982826.320    98037927.141  
> 2021  3 10 23 43 27.0000000  0 11       0.000000000000
G 2  21753819.600   114317098.742                                  
G 6  20784943.860   109225566.637    20784946.320    81564547.129  
G12  22198669.840   116654798.715                                  
G14  24307490.740   127736692.555    24307495.920    95387784.688  
G17  22867954.180   120171901.668                                  
G19  20902270.700   109842183.875                                  
G24  20915234.840   109910254.332    20915236.580    82075840.414  
G28  23679307.960   124435588.125                                  
E 2  23350448.200   122707423.766    23350450.420    91632162.684  
E25  25273897.840   132815185.918    25273901.980    99180160.215  
E30  24982404.380   131283386.781    24982407.980    98036285.484  
> 2021  3 10 23 43 28.0000000  0 11       0.000000000000
G 2  21753372.960   114314751.691                                  
G 6  20784822.580   109224929.336    20784825.040    81564071.223  
G12  22198204.940   116652355.660                                  
G14  24308000.920   127739373.520    24308006.080    95389786.703  
G17  22868442.800   120174469.352                                  
G19  20902636.100   109844104.152                                  
G24  20915245.580   109910310.836    20915247.320    82075882.605  
G28  23679703.540   124437666.863                                  
E 2  23350354.660   122706932.164    23350356.860    91631795.578  
E25  25274204.220   132816796.008    25274208.360    99181362.555  
E30  24981986.040   131281188.422    24981989.640    98034643.852  
> 2021  3 10 23 43 29.0000000  0 11       0.000000000000
G 2  21752926.420   114312405.102                                  
G 6  20784701.440   109224292.715    20784703.900    81563595.824  
G12  22197740.060   116649912.727                                  
G14  24308511.120   127742054.625    24308516.280    95391788.832  
G17  22868931.420   120177037.082                                  
G19  20903001.580   109846024.738                                  
G24  20915256.460   109910367.969    20915258.200    82075925.270  
G28  23680099.140   124439745.758                                  
E 2  23350261.160   122706440.793    23350263.360    91631428.645  
E25  25274510.660   132818406.324    25274514.800    99182565.063  
E30  24981567.700   131278990.090    24981571.320    98033002.242  
> 2021  3 10 23 43 30.0000000  0 11       0.000000000000
G 2  21752479.960   114310058.957                                  
G 6  20784580.420   109223656.762    20784582.880    81563120.926  
G12  22197275.220   116647469.926                                  
G14  24309021.340   127744735.883    24309026.520    95393791.066  
G17  22869420.060   120179604.867                                  
G19  20903367.120   109847945.629                                  
G24  20915267.440   109910425.734    20915269.200    82075968.410  
G28  23680494.760   124441824.809                                  
E 2  23350167.700   122705949.648    23350169.900    91631061.883  
E25  25274817.140   132820016.855    25274821.260    99183767.730  
E30  24981149.380   131276791.793    24981152.980    98031360.660  
> 2021  3 10 23 43 31.0000000  0 11       0.000000000000
G 2  21752033.600   114307713.258                                  
G 6  20784459.520   109223021.477    20784461.980    81562646.523  
G12  22196810.380   116645027.242                                  
G14  24309531.600   127747417.281    24309536.760    95395793.410  
G17  22869908.700   120182172.699                                  
G19  20903732.720   109849866.840                                  
G24  20915278.560   109910484.152    20915280.300    82076012.031  
G28  23680890.420   124443904.016                                  
E 2  23350074.280   122705458.715    23350076.480    91630695.277  
E25  25275123.660   132821627.613    25275127.780    99184970.570  
E30  24980731.060   131274593.508    24980734.660    98029719.082  
> 2021  3 10 23 43 32.0000000  0 11       0.000000000000
G 2  21751587.300   114305368.008                                  
G 6  20784338.760   109222386.871    20784341.220    81562172.629  
G12  22196345.580   116642584.699                                  
G14  24310041.880   127750098.824    24310047.040    95397795.859  
G17  22870397.360   120184740.594                                  
G19  20904098.360   109851788.367                                  
G24  20915289.800   109910543.207    20915291.540    82076056.129  
G28  23681286.120   124445983.387                                  
E 2  23349980.900   122704968.023    23349983.100    91630328.852  
E25  25275430.200   132823238.590    25275434.340    99186173.570  
E30  24980312.760   131272395.266    24980316.360    98028077.539  
> 2021  3 10 23 43 33.0000000  0 11       0.000000000000
G 2  21751141.100   114303023.211                                  
G 6  20784218.140   109221752.930    20784220.580    81561699.234  
G12  22195880.820   116640142.277                                  
G14  24310552.180   127752780.504    24310557.360    95399798.410  
G17  22870886.020   120187308.539                                  
G19  20904464.080   109853710.203                                  
G24  20915301.160   109910602.887    20915302.900    82076100.695  
G28  23681681.840   124448062.906                                  
E 2  23349887.560   122704477.555    23349889.780    91629962.590  
E25  25275736.820   132824849.797    25275740.940    99187376.742  
E30  24979894.440   131270197.043    24979898.040    98026436.008  
> 2021  3 10 23 43 34.0000000  0 11       0.000000000000
G 2  21750695.000   114300678.871                                  
G 6  20784097.620   109221119.668    20784100.080    81561226.344  
G12  22195416.060   116637699.988                                  
G14  24311062.520   127755462.340    24311067.700    95401801.078  
G17  22871374.700   120189876.543                                  
G19  20904829.860   109855632.363                                  
G24  20915312.640   109910663.207    20915314.380    82076145.738  
G28  23682077.580   124450142.594                                  
E 2  23349794.280   122703987.313    23349796.480    91629596.500  
E25  25276043.460   132826461.219    25276047.600    99188580.078  
E30  24979476.140   131267998.852    24979479.740    98024794.504  
> 2021  3 10 23 43 35.0000000  0 11       0.000000000000
G 2  21750248.960   114298334.977                                  
G 6  20783977.240   109220487.082    20783979.700    81560753.957  
G12  22194951.340   116635257.828                                  
G14  24311572.880   127758144.324    24311578.060    95403803.859  
G17  22871863.380   120192444.598                                  
G19  20905195.680   109857554.832                                  
G24  20915324.240   109910724.164    20915325.980    82076191.258  
G28  23682473.360   124452222.422                                  
E 2  23349701.020   122703497.293    23349703.240    91629230.578  
E25  25276350.140   132828072.867    25276354.280    99189783.582  
E30  24979057.840   131265800.691    24979061.440    98023153.020  
> 2021  3 10 23 43 36.0000000  0 11       0.000000000000
G 2  21749803.020   114295991.535                                  
G 6  20783857.000   109219855.160    20783859.460    81560282.070  
G12  22194486.620   116632815.801                                  
G14  24312083.280   127760826.445    24312088.440    95405806.738  
G17  22872352.080   120195012.699                                  
G19  20905561.580   109859477.605                                  
G24  20915335.960   109910785.781    20915337.700    82076237.273  
G28  23682869.180   124454302.406                                  
E 2  23349607.820   122703007.500    23349610.020    91628864.824  
E25  25276656.880   132829684.727    25276661.000    99190987.242  
E30  24978639.560   131263602.559    24978643.160    98021511.559  
> 2021  3 10 23 43 37.0000000  0 11       0.000000000000
G 2  21749357.160   114293648.555                                  
G 6  20783736.880   109219223.914    20783739.340    81559810.684  
G12  22194021.940   116630373.883                                  
G14  24312593.700   127763508.723    24312598.860    95407809.738  
G17  22872840.780   120197580.871                                  
G19  20905927.540   109861400.711                                  
G24  20915347.820   109910848.063    20915349.560    82076283.781  
G28  23683265.020   124456382.551                                  
E 2  23349514.660   122702517.934    23349516.860    91628499.238  
E25  25276963.640   132831296.824    25276967.780    99192191.082  
E30  24978221.260   131261404.449    24978224.860    98019870.117  
> 2021  3 10 23 43 38.0000000  0 11       0.000000000000
G 2  21748911.400   114291306.012                                  
G 6  20783616.880   109218593.336    20783619.340    81559339.797  
G12  22193557.280   116627932.098                                  
G14  24313104.140   127766191.129    24313109.320    95409812.832  
G17  22873329.500   120200149.090                                  
G19  20906293.560   109863324.129                                  
G24  20915359.780   109910910.980    20915361.520    82076330.766  
G28  23683660.880   124458462.848                                  
E 2  23349421.540   122702028.590    23349423.740    91628133.820  
E25  25277270.460   132832909.137    25277274.600    99193395.082  
E30  24977802.980   131259206.367    24977806.580    98018228.691  
> 2021  3 10 23 43 39.0000000  0 11       0.000000000000
G 2  21748465.700   114288963.930                                  
G 6  20783497.020   109217963.430    20783499.460    81558869.414  
G12  22193092.660   116625490.438                                  
G14  24313614.620   127768873.691    24313619.780    95411816.043  
G17  22873818.220   120202717.363                                  
G19  20906659.620   109865247.852                                  
G24  20915371.880   109910974.531    20915373.620    82076378.223  
G28  23684056.780   124460543.297                                  
E 2  23349328.460   122701539.469    23349330.680    91627768.566  
E25  25277577.320   132834521.668    25277581.440    99194599.242  
E30  24977384.720   131257008.320    24977388.320    98016587.293  
> 2021  3 10 23 43 40.0000000  0 11       0.000000000000
G 2  21748020.120   114286622.305                                  
G 6  20783377.280   109217334.199    20783379.720    81558399.531  
G12  22192628.040   116623048.906                                  
G14  24314125.120   127771556.387    24314130.300    95413819.355  
G17  22874306.960   120205285.695                                  
G19  20907025.760   109867171.898                                  
G24  20915384.100   109911038.746    20915385.840    82076426.176  
G28  23684452.700   124462623.910                                  
E 2  23349235.440   122701050.582    23349237.640    91627403.488  
E25  25277884.200   132836134.418    25277888.340    99195803.570  
E30  24976966.440   131254810.297    24976970.040    98014945.914  
> 2021  3 10 23 43 41.0000000  0 11       0.000000000000
G 2  21747574.600   114284281.125                                  
G 6  20783257.660   109216705.648    20783260.120    81557930.160  
G12  22192163.460   116620607.500                                  
G14  24314635.640   127774239.238    24314640.820    95415822.781  
G17  22874795.700   120207854.082                                  
G19  20907391.960   109869096.254                                  
G24  20915396.440   109911103.590    20915398.180    82076474.598  
G28  23684848.660   124464704.680                                  
E 2  23349142.440   122700561.918    23349144.640    91627038.574  
E25  25278191.140   132837747.398    25278195.280    99197008.066  
E30  24976548.180   131252612.309    24976551.780    98013304.559  
> 2021  3 10 23 43 42.0000000  0 11       0.000000000000
G 2  21747129.180   114281940.398                                  
G 6  20783138.180   109216077.758    20783140.640    81557461.281  
G12  22191698.900   116618166.223                                  
G14  24315146.200   127776922.230    24315151.380    95417826.316  
G17  22875284.460   120210422.527                                  
G19  20907758.200   109871020.922                                  
G24  20915408.900   109911169.094    20915410.640    82076523.512  
G28  23685244.640   124466785.598                                  
E 2  23349049.500   122700073.473    23349051.700    91626673.828  
E25  25278498.120   132839360.602    25278502.260    99198212.730  
E30  24976129.920   131250414.348    24976133.520    98011663.223  
> 2021  3 10 23 43 43.0000000  0 11       0.000000000000
G 2  21746683.840   114279600.121                                  
G 6  20783018.820   109215450.535    20783021.280    81556992.902  
G12  22191234.360   116615725.078                                  
G14  24315656.780   127779605.375    24315661.960    95419829.961  
G17  22875773.240   120212991.020                                  
G19  20908124.520   109872945.910                                  
G24  20915421.500   109911235.242    20915423.240    82076572.910  
G28  23685640.660   124468866.676                                  
E 2  23348956.600   122699585.258    23348958.800    91626309.254  
E25  25278805.160   132840974.020    25278809.300    99199417.555  
E30  24975711.660   131248216.406    24975715.260    98010021.902  
> 2021  3 10 23 43 44.0000000  0 11       0.000000000000
G 2  21746238.580   114277260.297                                  
G 6  20782899.600   109214823.992    20782902.060    81556525.027  
G12  22190769.860   116613284.051                                  
G14  24316167.400   127782288.656    24316172.580    95421833.707  
G17  22876262.020   120215559.566                                  
G19  20908490.880   109874871.203                                  
G24  20915434.200   109911302.035    20915435.940    82076622.785  
G28  23686036.720   124470947.902                                  
E 2  23348863.720   122699097.273    23348865.940    91625944.848  
E25  25279112.220   132842587.664    25279116.360    99200622.547  
E30  24975293.420   131246018.496    24975297.020    98008380.609  
> 2021  3 10 23 43 45.0000000  0 11       0.000000000000
G 2  21745793.420   114274920.918                                  
G 6  20782780.500   109214198.117    20782782.960    81556057.656  
G12  22190305.380   116610843.164                                  
G14  24316678.040   127784972.082    24316683.220    95423837.563  
G17  22876750.800   120218128.168                                  
G19  20908857.320   109876796.816                                  
G24  20915447.040   109911369.465    20915448.780    82076673.141  
G28  23686432.780   124473029.297                                  
E 2  23348770.920   122698609.520    23348773.120    91625580.617  
E25  25279419.320   132844201.523    25279423.460    99201827.703  
E30  24974875.180   131243820.617    24974878.780    98006739.336  
> 2021  3 10 23 43 46.0000000  0 11       0.000000000000
G 2  21745348.320   114272581.996                                  
G 6  20782661.520   109213572.922    20782663.980    81555590.789  
G12  22189840.900   116608402.398                                  
G14  24317188.700   127787655.652    24317193.880    95425841.527  
G17  22877239.600   120220696.824                                  
G19  20909223.820   109878722.738                                  
G24  20915459.980   109911437.539    20915461.740    82076723.973  
G28  23686828.900   124475110.855                                  
E 2  23348678.140   122698121.980    23348680.340    91625216.547  
E25  25279726.480   132845815.613    25279730.620    99203033.027  
E30  24974456.940   131241622.766    24974460.540    98005098.086  
> 2021  3 10 23 43 47.0000000  0 11       0.000000000000
G 2  21744903.340   114270243.523                                  
G 6  20782542.680   109212948.391    20782545.140    81555124.418  
G12  22189376.460   116605961.762                                  
G14  24317699.400   127790339.367    24317704.580    95427845.602  
G17  22877728.420   120223265.539                                  
G19  20909590.360   109880648.973                                  
G24  20915473.060   109911506.250    20915474.800    82076775.285  
G28  23687225.040   124477192.555                                  
E 2  23348585.400   122697634.664    23348587.620    91624852.641  
E25  25280033.680   132847429.918    25280037.800    99204238.516  
E30  24974038.700   131239424.949    24974042.300    98003456.855  
> 2021  3 10 23 43 48.0000000  0 11       0.000000000000
G 2  21744458.420   114267905.504                                  
G 6  20782423.960   109212324.535    20782426.420    81554658.551  
G12  22188912.060   116603521.254                                  
G14  24318210.120   127793023.230    24318215.300    95429849.781  
G17  22878217.240   120225834.293                                  
G19  20909956.980   109882575.516                                  
G24  20915486.260   109911575.609    20915488.000    82076827.078  
G28  23687621.200   124479274.406                                  
E 2  23348492.720   122697147.574    23348494.920    91624488.906  
E25  25280340.900   132849044.449    25280345.040    99205444.172  
E30  24973620.480   131237227.145    24973624.080    98001815.645  
> 2021  3 10 23 43 49.0000000  0 11       0.000000000000
G 2  21744013.600   114265567.938                                  
G 6  20782305.380   109211701.348    20782307.840    81554193.188  
G12  22188447.660   116601080.871                                  
G14  24318720.880   127795707.230    24318726.060    95431854.066  
G17  22878706.060   120228403.109                                  
G19  20910323.640   109884502.379                                  
G24  20915499.580   109911645.609    20915501.320    82076879.352  
G28  23688017.380   124481356.422                                  
E 2  23348400.060   122696660.723    23348402.280    91624125.348  
E25  25280648.180   132850659.203    25280652.320    99206649.992  
E30  24973202.260   131235029.387    24973205.860    98000174.457  
> 2021  3 10 23 43 50.0000000  0 11       0.000000000000
G 2  21743568.860   114263230.824                                  
G 6  20782186.920   109211078.844    20782189.380    81553728.328  
G12  22187983.300   116598640.617                                  
G14  24319231.660   127798391.375    24319236.820    95433858.461  
G17  22879194.900   120230971.984                                  
G19  20910690.380   109886429.563                                  
G24  20915513.020   109911716.262    20915514.780    82076932.109  
G28  23688413.620   124483438.590                                  
E 2  23348307.460   122696174.094    23348309.680    91623761.957  
E25  25280955.500   132852274.172    25280959.640    99207855.977  
E30  24972784.040   131232831.645    24972787.640    97998533.289  
> 2021  3 10 23 43 51.0000000  0 11       0.000000000000
G 2  21743124.200   114260894.160                                  
G 6  20782068.580   109210457.008    20782071.040    81553263.973  
G12  22187518.960   116596200.496                                  
G14  24319742.460   127801075.676    24319747.640    95435862.969  
G17  22879683.760   120233540.906                                  
G19  20911057.160   109888357.043                                  
G24  20915526.600   109911787.539    20915528.340    82076985.336  
G28  23688809.860   124485520.910                                  
E 2  23348214.900   122695687.680    23348217.120    91623398.727  
E25  25281262.860   132853889.371    25281267.000    99209062.129  
E30  24972365.820   131230633.930    24972369.420    97996892.141  
> 2021  3 10 23 43 52.0000000  0 11       0.000000000000
G 2  21742679.640   114258557.957                                  
G 6  20781950.380   109209835.840    20781952.840    81552800.113  
G12  22187054.640   116593760.496                                  
G14  24320253.280   127803760.109    24320258.460    95437867.578  
G17  22880172.620   120236109.895                                  
G19  20911424.000   109890284.848                                  
G24  20915540.280   109911859.457    20915542.020    82077039.043  
G28  23689206.140   124487603.383                                  
E 2  23348122.380   122695201.496    23348124.600    91623035.664  
E25  25281570.260   132855504.785    25281574.400    99210268.445  
E30  24971947.620   131228436.250    24971951.220    97995251.016  
> 2021  3 10 23 43 53.0000000  0 11       0.000000000000
G 2  21742235.160   114256222.199                                  
G 6  20781832.300   109209215.348    20781834.760    81552336.758  
G12  22186590.360   116591320.625                                  
G14  24320764.140   127806444.703    24320769.320    95439872.305  
G17  22880661.480   120238678.934                                  
G19  20911790.920   109892212.961                                  
G24  20915554.080   109911932.031    20915555.840    82077093.238  
G28  23689602.460   124489686.016                                  
E 2  23348029.920   122694715.535    23348032.120    91622672.773  
E25  25281877.720   132857120.426    25281881.860    99211474.930  
E30  24971529.420   131226238.598    24971533.020    97993609.910  
> 2021  3 10 23 43 54.0000000  0 11       0.000000000000
G 2  21741790.760   114253886.898                                  
G 6  20781714.360   109208595.523    20781716.820    81551873.902  
G12  22186126.080   116588880.887                                  
G14  24321275.040   127809129.426    24321280.220    95441877.133  
G17  22881150.380   120241248.027                                  
G19  20912157.880   109894141.391                                  
G24  20915568.020   109912005.266    20915569.760    82077147.926  
G28  23689998.800   124491768.809                                  
E 2  23347937.480   122694229.824    23347939.700    91622310.066  
E25  25282185.200   132858736.289    25282189.340    99212681.582  
E30  24971111.220   131224040.977    24971114.820    97991968.832  
> 2021  3 10 23 43 55.0000000  0 11       0.000000000000
G 2  21741346.460   114251552.043                                  
G 6  20781596.540   109207976.363    20781598.980    81551411.543  
G12  22185661.840   116586441.266                                  
G14  24321785.960   127811814.293    24321791.120    95443882.063  
G17  22881639.260   120243817.172                                  
G19  20912524.920   109896070.129                                  
G24  20915582.080   109912079.148    20915583.820    82077203.098  
G28  23690395.180   124493851.754                                  
E 2  23347845.100   122693744.313    23347847.300    91621947.508  
E25  25282492.740   132860352.371    25282496.880    99213888.395  
E30  24970693.040   131221843.379    24970696.640    97990327.770  
> 2021  3 10 23 43 56.0000000  0 11       0.000000000000
G 2  21740902.240   114249217.641                                  
G 6  20781478.840   109207357.887    20781481.300    81550949.695  
G12  22185197.620   116584001.777                                  
G14  24322296.900   127814499.305    24322302.060    95445887.105  
G17  22882128.160   120246386.371                                  
G19  20912892.000   109897999.180                                  
G24  20915596.260   109912153.664    20915598.000    82077258.742  
G28  23690791.580   124495934.852                                  
E 2  23347752.740   122693259.031    23347754.960    91621585.121  
E25  25282800.300   132861968.672    25282804.440    99215095.375  
E30  24970274.860   131219645.805    24970278.460    97988686.727  
> 2021  3 10 23 43 57.0000000  0 11       0.000000000000
G 2  21740458.100   114246883.695                                  
G 6  20781361.280   109206740.086    20781363.740    81550488.352  
G12  22184733.420   116581562.418                                  
G14  24322807.860   127817184.473    24322813.040    95447892.258  
G17  22882617.080   120248955.625                                  
G19  20913259.140   109899928.543                                  
G24  20915610.560   109912228.809    20915612.300    82077314.855  
G28  23691188.000   124498018.117                                  
E 2  23347660.440   122692773.984    23347662.660    91621222.910  
E25  25283107.920   132863585.203    25283112.060    99216302.523  
E30  24969856.680   131217448.270    24969860.280    97987045.711  
> 2021  3 10 23 43 58.0000000  0 11       0.000000000000
G 2  21740014.040   114244550.203                                  
G 6  20781243.840   109206122.949    20781246.300    81550027.500  
G12  22184269.260   116579123.184                                  
G14  24323318.860   127819869.781    24323324.040    95449897.523  
G17  22883106.000   120251524.934                                  
G19  20913626.340   109901858.219                                  
G24  20915624.980   109912304.586    20915626.720    82077371.441  
G28  23691584.480   124500101.527                                  
E 2  23347568.180   122692289.152    23347570.400    91620860.863  
E25  25283415.580   132865201.953    25283419.720    99217509.836  
E30  24969438.500   131215250.758    24969442.100    97985404.711  
> 2021  3 10 23 43 59.0000000  0 11       0.000000000000
G 2  21739570.080   114242217.164                                  
G 6  20781126.540   109205506.492    20781128.980    81549567.160  
G12  22183805.100   116576684.078                                  
G14  24323829.880   127822555.223    24323835.060    95451902.883  
G17  22883594.940   120254094.293                                  
G19  20913993.620   109903788.207                                  
G24  20915639.520   109912381.027    20915641.280    82077428.523  
G28  23691980.960   124502185.094                                  
E 2  23347475.980   122691804.547    23347478.180    91620498.980  
E25  25283723.280   132866818.922    25283727.420    99218717.313  
E30  24969020.340   131213053.273    24969023.940    97983763.730  
> 2021  3 10 23 44  0.0000000  0 11       0.000000000000
G 2  21739126.180   114239884.660                                  
G 6  20781009.480   109204889.984    20781011.800    81549107.332  
G12  22183340.980   116574245.109                                  
G14  24324341.080   127825239.906    24324346.160    95453908.133  
G17  22884083.860   120256663.766                                  
G19  20914360.920   109905718.555                                  
G24  20915654.340   109912457.371    20915655.940    82077486.074  
G28  23692377.480   124504268.793                                  
E 2  23347383.800   122691320.152    23347386.000    91620137.246  
E25  25284031.020   132868436.102    25284035.160    99219924.945  
E30  24968602.160   131210855.813    24968605.760    97982122.781  
> 2021  3 10 23 44  1.0000000  0 11       0.000000000000
G 2  21738682.400   114237552.527                                  
G 6  20780892.420   109204274.875    20780894.740    81548647.992  
G12  22182876.880   116571806.266                                  
G14  24324852.180   127827925.648    24324857.240    95455913.715  
G17  22884572.820   120259233.230                                  
G19  20914728.300   109907649.168                                  
G24  20915669.120   109912535.102    20915670.740    82077544.113  
G28  23692774.020   124506352.676                                  
E 2  23347291.660   122690836.016    23347293.880    91619775.719  
E25  25284338.800   132870053.535    25284342.940    99221132.770  
E30  24968184.020   131208658.402    24968187.600    97980481.855  
> 2021  3 10 23 44  2.0000000  0 11       0.000000000000
G 2  21738238.700   114235220.844                                  
G 6  20780775.500   109203660.430    20780777.820    81548189.148  
G12  22182412.800   116569367.559                                  
G14  24325363.280   127830611.531    24325368.340    95457919.402  
G17  22885061.780   120261802.746                                  
G19  20915095.740   109909580.094                                  
G24  20915684.040   109912613.465    20915685.640    82077602.629  
G28  23693170.600   124508436.707                                  
E 2  23347199.580   122690352.102    23347201.800    91619414.352  
E25  25284646.620   132871671.164    25284650.760    99222340.738  
E30  24967765.860   131206461.016    24967769.460    97978840.953  
> 2021  3 10 23 44  3.0000000  0 11       0.000000000000
G 2  21737795.080   114232889.621                                  
G 6  20780658.700   109203046.660    20780661.020    81547730.813  
G12  22181948.760   116566928.977                                  
G14  24325874.420   127833297.559    24325879.480    95459925.195  
G17  22885550.760   120264372.324                                  
G19  20915463.240   109911511.332                                  
G24  20915699.080   109912692.496    20915700.680    82077661.641  
G28  23693567.220   124510520.891                                  
E 2  23347107.540   122689868.414    23347109.740    91619053.156  
E25  25284954.500   132873289.035    25284958.640    99223548.887  
E30  24967347.720   131204263.656    24967351.300    97977200.066  
> 2021  3 10 23 44  4.0000000  0 11       0.000000000000
G 2  21737351.540   114230558.844                                  
G 6  20780542.040   109202433.563    20780544.360    81547272.973  
G12  22181484.740   116564490.520                                  
G14  24326385.580   127835983.734    24326390.640    95461931.102  
G17  22886039.740   120266941.949                                  
G19  20915830.800   109913442.879                                  
G24  20915714.240   109912772.148    20915715.840    82077721.117  
G28  23693963.840   124512605.238                                  
E 2  23347015.540   122689384.953    23347017.740    91618692.133  
E25  25285262.400   132874907.121    25285266.540    99224757.199  
E30  24966929.580   131202066.328    24966933.160    97975559.207  
> 2021  3 10 23 44  5.0000000  0 11       0.000000000000
G 2  21736908.100   114228228.523                                  
G 6  20780425.500   109201821.137    20780427.820    81546815.641  
G12  22181020.740   116562052.188                                  
G14  24326896.760   127838670.051    24326901.840    95463937.113  
G17  22886528.740   120269511.637                                  
G19  20916198.440   109915374.742                                  
G24  20915729.500   109912852.426    20915731.120    82077781.059  
G28  23694360.520   124514689.738                                  
E 2  23346923.580   122688901.715    23346925.780    91618331.270  
E25  25285570.360   132876525.430    25285574.500    99225965.676  
E30  24966511.440   131199869.023    24966515.040    97973918.363  
> 2021  3 10 23 44  6.0000000  0 11       0.000000000000
G 2  21736464.740   114225898.656                                  
G 6  20780309.080   109201209.387    20780311.400    81546358.813  
G12  22180556.760   116559613.977                                  
G14  24327407.980   127841356.523    24327413.060    95465943.246  
G17  22887017.740   120272081.379                                  
G19  20916566.120   109917306.918                                  
G24  20915744.900   109912933.348    20915746.520    82077841.488  
G28  23694757.220   124516774.414                                  
E 2  23346831.660   122688418.695    23346833.860    91617970.578  
E25  25285878.360   132878143.969    25285882.500    99227174.324  
E30  24966093.300   131197671.750    24966096.900    97972277.539  
> 2021  3 10 23 44  7.0000000  0 11       0.000000000000
G 2  21736021.460   114223569.250                                  
G 6  20780192.800   109200598.309    20780195.120    81545902.484  
G12  22180092.820   116557175.902                                  
G14  24327919.220   127844043.141    24327924.300    95467949.480  
G17  22887506.760   120274651.188                                  
G19  20916933.860   109919239.410                                  
G24  20915760.440   109913014.934    20915762.040    82077902.406  
G28  23695153.940   124518859.250                                  
E 2  23346739.780   122687935.887    23346741.980    91617610.039  
E25  25286186.400   132879762.742    25286190.540    99228383.148  
E30  24965675.180   131195474.488    24965678.780    97970636.730  
> 2021  3 10 23 44  8.0000000  0 11       0.000000000000
G 2  21735578.280   114221240.293                                  
G 6  20780076.640   109199987.906    20780078.960    81545446.660  
G12  22179628.880   116554737.961                                  
G14  24328430.500   127846729.887    24328435.580    95469955.809  
G17  22887995.780   120277221.043                                  
G19  20917301.660   109921172.223                                  
G24  20915776.080   109913097.172    20915777.700    82077963.813  
G28  23695550.700   124520944.199                                  
E 2  23346647.960   122687453.383    23346650.160    91617249.727  
E25  25286494.460   132881381.684    25286498.600    99229592.098  
E30  24965257.060   131193277.281    24965260.660    97968995.961  
> 2021  3 10 23 44  9.0000000  0 11       0.000000000000
G 2  21735135.180   114218911.789                                  
G 6  20779960.620   109199378.188    20779962.940    81544991.348  
G12  22179164.980   116552300.145                                  
G14  24328941.800   127849416.789    24328946.880    95471962.262  
G17  22888484.820   120279790.965                                  
G19  20917669.520   109923105.340                                  
G24  20915791.860   109913180.059    20915793.460    82078025.707  
G28  23695947.480   124523029.340                                  
E 2  23346556.180   122686971.051    23346558.380    91616889.543  
E25  25286802.580   132883000.883    25286806.720    99230801.238  
E30  24964838.960   131191080.094    24964842.540    97967355.203  
> 2021  3 10 23 44 10.0000000  0 11       0.000000000000
G 2  21734692.160   114216583.738                                  
G 6  20779844.720   109198769.121    20779847.040    81544536.520  
G12  22178701.100   116549862.461                                  
G14  24329453.120   127852103.836    24329458.200    95473968.813  
G17  22888973.860   120282360.941                                  
G19  20918037.420   109925038.766                                  
G24  20915807.740   109913263.590    20915809.360    82078088.082  
G28  23696344.300   124525114.625                                  
E 2  23346464.420   122686488.949    23346466.640    91616529.531  
E25  25287110.760   132884620.305    25287114.900    99232010.547  
E30  24964420.840   131188882.934    24964424.440    97965714.469  
> 2021  3 10 23 44 11.0000000  0 11       0.000000000000
G 2  21734249.240   114214256.148                                  
G 6  20779728.940   109198160.742    20779731.260    81544082.211  
G12  22178237.260   116547424.898                                  
G14  24329964.480   127854791.023    24329969.560    95475975.477  
G17  22889462.920   120284930.965                                  
G19  20918405.400   109926972.504                                  
G24  20915823.760   109913347.727    20915825.380    82078150.906  
G28  23696741.160   124527200.070                                  
E 2  23346372.740   122686007.070    23346374.940    91616169.688  
E25  25287418.960   132886239.945    25287423.100    99233220.020  
E30  24964002.740   131186685.805    24964006.340    97964073.754  
> 2021  3 10 23 44 12.0000000  0 11       0.000000000000
G 2  21733806.400   114211929.016                                  
G 6  20779613.300   109197553.031    20779615.620    81543628.395  
G12  22177773.420   116544987.465                                  
G14  24330475.860   127857478.352    24330480.940    95477982.246  
G17  22889952.000   120287501.031                                  
G19  20918773.440   109928906.547                                  
G24  20915839.900   109913432.512    20915841.500    82078214.215  
G28  23697138.020   124529285.664                                  
E 2  23346281.080   122685525.422    23346283.280    91615810.016  
E25  25287727.200   132887859.805    25287731.340    99234429.656  
E30  24963584.640   131184488.707    24963588.240    97962433.063  
> 2021  3 10 23 44 13.0000000  0 11       0.000000000000
G 2  21733363.640   114209602.328                                  
G 6  20779497.780   109196945.992    20779500.100    81543175.090  
G12  22177309.620   116542550.152                                  
G14  24330987.280   127860165.828    24330992.360    95479989.125  
G17  22890441.080   120290071.148                                  
G19  20919141.540   109930840.906                                  
G24  20915856.160   109913517.957    20915857.760    82078278.023  
G28  23697534.940   124531371.414                                  
E 2  23346189.460   122685043.996    23346191.660    91615450.508  
E25  25288035.500   132889479.887    25288039.640    99235639.453  
E30  24963166.560   131182291.633    24963170.140    97960792.395  
> 2021  3 10 23 44 14.0000000  0 11       0.000000000000
G 2  21732920.980   114207276.090                                  
G 6  20779382.400   109196339.621    20779384.720    81542722.273  
G12  22176845.840   116540112.969                                  
G14  24331498.700   127862853.445    24331503.800    95481996.109  
G17  22890930.160   120292641.320                                  
G19  20919509.700   109932775.574                                  
G24  20915872.540   109913604.051    20915874.160    82078342.309  
G28  23697931.860   124533457.313                                  
E 2  23346097.900   122684562.813    23346100.100    91615091.184  
E25  25288343.820   132891100.203    25288347.960    99236849.430  
E30  24962748.460   131180094.590    24962752.060    97959151.746  
> 2021  3 10 23 44 15.0000000  0 11       0.000000000000
G 2  21732478.380   114204950.309                                  
G 6  20779267.140   109195733.914    20779269.460    81542269.961  
G12  22176382.080   116537675.914                                  
G14  24332010.180   127865541.207    24332015.260    95484003.199  
G17  22891419.260   120295211.535                                  
G19  20919877.900   109934710.551                                  
G24  20915889.040   109913690.781    20915890.660    82078407.074  
G28  23698328.840   124535543.371                                  
E 2  23346006.360   122684081.840    23346008.580    91614732.016  
E25  25288652.200   132892720.730    25288656.340    99238059.566  
E30  24962330.380   131177897.590    24962333.980    97957511.129  
> 2021  3 10 23 44 16.0000000  0 11       0.000000000000
G 2  21732035.900   114202624.988                                  
G 6  20779152.000   109195128.887    20779154.320    81541818.148  
G12  22175918.340   116535238.988                                  
G14  24332521.660   127868229.113    24332526.760    95486010.395  
G17  22891908.360   120297781.816                                  
G19  20920246.180   109936645.844                                  
G24  20915905.660   109913778.141    20915907.280    82078472.305  
G28  23698725.820   124537629.586                                  
E 2  23345914.880   122683601.102    23345917.080    91614373.023  
E25  25288960.620   132894341.477    25288964.760    99239269.863  
E30  24961912.320   131175700.609    24961915.900    97955870.527  
> 2021  3 10 23 44 18.0000000  0 11       0.000000000000
G 2  21731151.160   114197975.699                                  
G 6  20778922.120   109193920.859    20778924.440    81540916.047  
G12  22174990.960   116530365.539                                  
G14  24333544.740   127873605.363    24333549.820    95490025.121  
G17  22892886.600   120302922.523                                  
G19  20920982.900   109940517.355                                  
G24  20915939.280   109913954.797    20915940.900    82078604.219  
G28  23699519.900   124541802.492                                  
E 2  23345732.040   122682640.289    23345734.260    91613655.531  
E25  25289577.580   132897583.633    25289581.720    99241690.949  
E30  24961076.180   131171306.727    24961079.780    97952589.383  
> 2021  3 10 23 44 19.0000000  0 11       0.000000000000
G 2  21730708.920   114195651.734                                  
G 6  20778807.360   109193317.855    20778809.700    81540465.750  
G12  22174527.300   116527929.008                                  
G14  24334056.300   127876293.699    24334061.400    95492032.641  
G17  22893375.740   120305492.949                                  
G19  20921351.360   109942453.590                                  
G24  20915956.260   109914044.082    20915957.900    82078670.891  
G28  23699916.980   124543889.180                                  
E 2  23345640.680   122682160.234    23345642.900    91613297.047  
E25  25289886.120   132899205.059    25289890.260    99242901.754  
E30  24960658.120   131169109.836    24960661.720    97950948.844  
> 2021  3 10 23 44 20.0000000  0 11       0.000000000000
G 2  21730266.780   114193328.223                                  
G 6  20778692.740   109192715.516    20778695.080    81540015.949  
G12  22174063.660   116525492.609                                  
G14  24334567.900   127878982.188    24334573.000    95494040.273  
G17  22893864.900   120308063.430                                  
G19  20921719.880   109944390.133                                  
G24  20915973.380   109914134.008    20915975.000    82078738.039  
G28  23700314.100   124545976.016                                  
E 2  23345549.380   122681680.395    23345551.580    91612938.727  
E25  25290194.720   132900826.691    25290198.860    99244112.715  
E30  24960240.080   131166912.965    24960243.660    97949308.328  
> 2021  3 10 23 44 21.0000000  0 11       0.000000000000
G 2  21729824.720   114191005.176                                  
G 6  20778578.260   109192113.852    20778580.580    81539566.648  
G12  22173600.060   116523056.340                                  
G14  24335079.540   127881670.816    24335084.620    95496048.012  
G17  22894354.040   120310633.961                                  
G19  20922088.440   109946326.984                                  
G24  20915990.620   109914224.594    20915992.240    82078805.680  
G28  23700711.240   124548063.012                                  
E 2  23345458.100   122681200.797    23345460.320    91612580.586  
E25  25290503.340   132902448.555    25290507.480    99245323.844  
E30  24959822.020   131164716.129    24959825.620    97947667.832  
> 2021  3 10 23 44 22.0000000  0 11       0.000000000000
G 2  21729382.740   114188682.566                                  
G 6  20778463.880   109191512.867    20778466.220    81539117.859  
G12  22173136.480   116520620.188                                  
G14  24335591.200   127884359.594    24335596.280    95498055.859  
G17  22894843.220   120313204.539                                  
G19  20922457.080   109948264.145                                  
G24  20916007.980   109914315.816    20916009.600    82078873.797  
G28  23701108.420   124550150.164                                  
E 2  23345366.880   122680721.410    23345369.100    91612222.602  
E25  25290812.000   132904070.633    25290816.160    99246535.137  
E30  24959403.980   131162519.320    24959407.580    97946027.359  
> 2021  3 10 23 44 23.0000000  0 11       0.000000000000
G 2  21728940.840   114186360.422                                  
G 6  20778349.660   109190912.555    20778351.980    81538669.570  
G12  22172672.920   116518184.176                                  
G14  24336102.880   127887048.500    24336107.980    95500063.805  
G17  22895332.400   120315775.176                                  
G19  20922825.760   109950201.621                                  
G24  20916025.460   109914407.699    20916027.100    82078942.406  
G28  23701505.620   124552237.469                                  
E 2  23345275.700   122680242.262    23345277.920    91611864.797  
E25  25291120.720   132905692.934    25291124.860    99247746.598  
E30  24958985.960   131160322.547    24958989.540    97944386.914  
> 2021  3 10 23 44 24.0000000  0 11       0.000000000000
G 2  21728499.040   114184038.734                                  
G 6  20778235.540   109190312.910    20778237.880    81538221.781  
G12  22172209.380   116515748.289                                  
G14  24336614.600   127889737.563    24336619.680    95502071.867  
G17  22895821.580   120318345.867                                  
G19  20923194.500   109952139.398                                  
G24  20916043.060   109914500.199    20916044.700    82079011.477  
G28  23701902.840   124554324.934                                  
E 2  23345184.560   122679763.328    23345186.780    91611507.160  
E25  25291429.480   132907315.461    25291433.620    99248958.230  
E30  24958567.920   131158125.793    24958571.520    97942746.488  
> 2021  3 10 23 44 25.0000000  0 11       0.000000000000
G 2  21728057.320   114181717.492                                  
G 6  20778121.560   109189713.949    20778123.900    81537774.500  
G12  22171745.880   116513312.543                                  
G14  24337126.340   127892426.773    24337131.420    95504080.035  
G17  22896310.780   120320916.609                                  
G19  20923563.320   109954077.500                                  
G24  20916060.780   109914593.340    20916062.420    82079081.027  
G28  23702300.120   124556412.559                                  
E 2  23345093.480   122679284.629    23345095.680    91611149.691  
E25  25291738.280   132908938.211    25291742.420    99250170.027  
E30  24958149.900   131155929.074    24958153.500    97941106.086  
> 2021  3 10 23 44 26.0000000  0 11       0.000000000000
G 2  21727615.700   114179396.711                                  
G 6  20778007.720   109189115.652    20778010.060    81537327.715  
G12  22171282.400   116510876.926                                  
G14  24337638.100   127895116.117    24337643.200    95506088.309  
G17  22896799.980   120323487.402                                  
G19  20923932.180   109956015.906                                  
G24  20916078.640   109914687.129    20916080.260    82079151.059  
G28  23702697.400   124558500.332                                  
E 2  23345002.420   122678806.152    23345004.620    91610792.395  
E25  25292047.120   132910561.172    25292051.260    99251381.980  
E30  24957731.880   131153732.383    24957735.480    97939465.703  
> 2021  3 10 23 44 27.0000000  0 11       0.000000000000
G 2  21727174.160   114177076.387                                  
G 6  20777893.980   109188518.020    20777896.320    81536881.430  
G12  22170818.940   116508441.430                                  
G14  24338149.900   127897805.609    24338154.980    95508096.691  
G17  22897289.200   120326058.238                                  
G19  20924301.100   109957954.617                                  
G24  20916096.600   109914781.559    20916098.240    82079221.570  
G28  23703094.720   124560588.266                                  
E 2  23344911.420   122678327.906    23344913.620    91610435.266  
E25  25292356.000   132912184.355    25292360.140    99252594.102  
E30  24957313.880   131151535.719    24957317.460    97937825.344  
> 2021  3 10 23 44 28.0000000  0 11       0.000000000000
G 2  21726732.700   114174756.512                                  
G 6  20777780.400   109187921.074    20777782.740    81536435.652  
G12  22170355.500   116506006.059                                  
G14  24338661.720   127900495.250    24338666.820    95510105.184  
G17  22897778.420   120328629.137                                  
G19  20924670.100   109959893.633                                  
G24  20916114.700   109914876.633    20916116.340    82079292.563  
G28  23703492.080   124562676.352                                  
E 2  23344820.460   122677849.887    23344822.660    91610078.305  
E25  25292664.920   132913807.766    25292669.060    99253806.391  
E30  24956895.860   131149339.086    24956899.460    97936185.004  
> 2021  3 10 23 44 29.0000000  0 11       0.000000000000
G 2  21726291.320   114172437.098                                  
G 6  20777666.920   109187324.793    20777669.260    81535990.375  
G12  22169892.080   116503570.824                                  
G14  24339173.560   127903185.039    24339178.660    95512113.785  
G17  22898267.660   120331200.078                                  
G19  20925039.140   109961832.965                                  
G24  20916132.920   109914972.363    20916134.560    82079364.047  
G28  23703889.460   124564764.598                                  
E 2  23344729.520   122677372.090    23344731.740    91609721.512  
E25  25292973.900   132915431.398    25292978.020    99255018.848  
E30  24956477.860   131147142.480    24956481.460    97934544.688  
> 2021  3 10 23 44 30.0000000  0 11       0.000000000000
G 2  21725850.040   114170118.137                                  
G 6  20777553.580   109186729.188    20777555.920    81535545.602  
G12  22169428.700   116501135.715                                  
G14  24339685.440   127905874.969    24339690.540    95514122.496  
G17  22898756.900   120333771.074                                  
G19  20925408.240   109963772.602                                  
G24  20916151.260   109915068.730    20916152.880    82079436.004  
G28  23704286.860   124566852.988                                  
E 2  23344638.660   122676894.527    23344640.860    91609364.895  
E25  25293282.900   132917055.262    25293287.040    99256231.477  
E30  24956059.880   131144945.914    24956063.460    97932904.398  
> 2021  3 10 23 44 31.0000000  0 11       0.000000000000
G 2  21725408.840   114167799.621                                  
G 6  20777440.380   109186134.262    20777442.720    81535101.332  
G12  22168965.340   116498700.742                                  
G14  24340197.340   127908565.043    24340202.440    95516131.313  
G17  22899246.160   120336342.129                                  
G19  20925777.400   109965712.547                                  
G24  20916169.720   109915165.754    20916171.360    82079508.453  
G28  23704684.300   124568941.543                                  
E 2  23344547.820   122676417.188    23344550.020    91609008.445  
E25  25293591.960   132918679.348    25293596.100    99257444.270  
E30  24955641.880   131142749.367    24955645.460    97931264.125  
> 2021  3 10 23 44 32.0000000  0 11       0.000000000000
G 2  21724967.720   114165481.570                                  
G 6  20777327.280   109185539.996    20777329.640    81534657.563  
G12  22168502.000   116496265.895                                  
G14  24340709.280   127911255.258    24340714.380    95518140.234  
G17  22899735.420   120338913.223                                  
G19  20926146.620   109967652.816                                  
G24  20916188.300   109915263.398    20916189.940    82079581.363  
G28  23705081.760   124571030.246                                  
E 2  23344457.020   122675940.074    23344459.220    91608652.164  
E25  25293901.040   132920303.637    25293905.180    99258657.219  
E30  24955223.900   131140552.855    24955227.480    97929623.875  
> 2021  3 10 23 44 33.0000000  0 11       0.000000000000
G 2  21724526.700   114163163.973                                  
G 6  20777214.340   109184946.418    20777216.680    81534214.301  
G12  22168038.700   116493831.172                                  
G14  24341221.240   127913945.625    24341226.340    95520149.270  
G17  22900224.700   120341484.371                                  
G19  20926515.900   109969593.391                                  
G24  20916207.000   109915361.703    20916208.640    82079654.770  
G28  23705479.260   124573119.109                                  
E 2  23344366.280   122675463.195    23344368.480    91608296.055  
E25  25294210.180   132921928.160    25294214.320    99259870.340  
E30  24954805.920   131138356.367    24954809.500    97927983.648  
> 2021  3 10 23 44 34.0000000  0 11       0.000000000000
G 2  21724085.760   114160846.832                                  
G 6  20777101.500   109184353.496    20777103.840    81533771.531  
G12  22167575.400   116491396.582                                  
G14  24341733.220   127916636.129    24341738.340    95522158.406  
G17  22900713.980   120344055.574                                  
G19  20926885.240   109971534.277                                  
G24  20916225.840   109915460.645    20916227.480    82079728.652  
G28  23705876.800   124575208.125                                  
E 2  23344275.580   122674986.539    23344277.780    91607940.117  
E25  25294519.360   132923552.906    25294523.500    99261083.629  
E30  24954387.960   131136159.914    24954391.540    97926343.441  
> 2021  3 10 23 44 35.0000000  0 11       0.000000000000
G 2  21723644.920   114158530.145                                  
G 6  20776988.800   109183761.262    20776991.160    81533329.277  
G12  22167112.140   116488962.113                                  
G14  24342245.240   127919326.785    24342250.340    95524167.656  
G17  22901203.260   120346626.824                                  
G19  20927254.640   109973475.477                                  
G24  20916244.780   109915560.242    20916246.420    82079803.023  
G28  23706274.360   124577297.297                                  
E 2  23344184.920   122674510.117    23344187.100    91607584.348  
E25  25294828.580   132925177.871    25294832.720    99262297.078  
E30  24953969.980   131133963.488    24953973.560    97924703.262  
> 2021  3 10 23 44 36.0000000  0 11       0.000000000000
G 2  21723204.160   114156213.910                                  
G 6  20776876.240   109183169.695    20776878.580    81532887.520  
G12  22166648.900   116486527.781                                  
G14  24342757.280   127922017.578    24342762.400    95526177.012  
G17  22901692.580   120349198.152                                  
G19  20927624.080   109975416.973                                  
G24  20916263.860   109915660.469    20916265.500    82079877.863  
G28  23706671.940   124579386.617                                  
E 2  23344094.300   122674033.914    23344096.500    91607228.750  
E25  25295137.860   132926803.066    25295141.980    99263510.699  
E30  24953552.020   131131767.102    24953555.600    97923063.105  
> 2021  3 10 23 44 37.0000000  0 11       0.000000000000
G 2  21722763.480   114153898.125                                  
G 6  20776763.780   109182578.801    20776766.140    81532446.262  
G12  22166185.680   116484093.570                                  
G14  24343269.360   127924708.512    24343274.460    95528186.473  
G17  22902181.900   120351769.512                                  
G19  20927993.600   109977358.785                                  
G24  20916283.060   109915761.336    20916284.700    82079953.184  
G28  23707069.560   124581476.105                                  
E 2  23344003.720   122673557.941    23344005.920    91606873.316  
E25  25295447.160   132928428.477    25295451.280    99264724.484  
E30  24953134.080   131129570.742    24953137.640    97921422.973  
> 2021  3 10 23 44 38.0000000  0 11       0.000000000000
G 2  21722322.880   114151582.793                                  
G 6  20776651.480   109181988.578    20776653.820    81532005.508  
G12  22165722.500   116481659.492                                  
G14  24343781.440   127927399.598    24343786.560    95530196.043  
G17  22902671.220   120354340.926                                  
G19  20928363.180   109979300.906                                  
G24  20916302.360   109915862.828    20916304.000    82080028.969  
G28  23707467.200   124583565.754                                  
E 2  23343913.200   122673082.203    23343915.380    91606518.063  
E25  25295756.500   132930054.105    25295760.640    99265938.434  
E30  24952716.120   131127374.410    24952719.700    97919782.855  
> 2021  3 10 23 44 39.0000000  0 11       0.000000000000
G 2  21721882.380   114149267.914                                  
G 6  20776539.280   109181399.035    20776541.640    81531565.262  
G12  22165259.340   116479225.543                                  
G14  24344293.580   127930090.824    24344298.680    95532205.719  
G17  22903160.540   120356912.391                                  
G19  20928732.800   109981243.328                                  
G24  20916321.800   109915964.965    20916323.440    82080105.234  
G28  23707864.880   124585655.551                                  
E 2  23343822.700   122672606.688    23343824.900    91606162.973  
E25  25296065.900   132931679.965    25296070.020    99267152.551  
E30  24952298.180   131125178.113    24952301.760    97918142.770  
> 2021  3 10 23 44 40.0000000  0 11       0.000000000000
G 2  21721441.960   114146953.496                                  
G 6  20776427.220   109180810.168    20776429.580    81531125.520  
G12  22164796.180   116476791.715                                  
G14  24344805.720   127932782.195    24344810.840    95534215.508  
G17  22903649.900   120359483.902                                  
G19  20929102.500   109983186.066                                  
G24  20916341.360   109916067.762    20916343.000    82080181.996  
G28  23708262.580   124587745.500                                  
E 2  23343732.260   122672131.402    23343734.460    91605808.055  
E25  25296375.320   132933306.047    25296379.460    99268366.836  
E30  24951880.240   131122981.840    24951883.820    97916502.699  
> 2021  3 10 23 44 41.0000000  0 11       0.000000000000
G 2  21721001.620   114144639.523                                  
G 6  20776315.300   109180221.965    20776317.640    81530686.270  
G12  22164333.080   116474358.031                                  
G14  24345317.900   127935473.711    24345323.020    95536225.398  
G17  22904139.240   120362055.469                                  
G19  20929472.240   109985129.109                                  
G24  20916361.040   109916171.203    20916362.700    82080259.234  
G28  23708660.320   124589835.621                                  
E 2  23343641.860   122671656.336    23343644.040    91605453.297  
E25  25296684.800   132934932.344    25296688.940    99269581.277  
E30  24951462.320   131120785.598    24951465.880    97914862.648  
> 2021  3 10 23 44 42.0000000  0 11       0.000000000000
G 2  21720561.380   114142326.027                                  
G 6  20776203.500   109179634.441    20776205.840    81530247.531  
G12  22163869.980   116471924.465                                  
G14  24345830.100   127938165.371    24345835.220    95538235.398  
G17  22904628.600   120364627.086                                  
G19  20929842.060   109987072.461                                  
G24  20916380.860   109916275.297    20916382.500    82080336.965  
G28  23709058.080   124591925.883                                  
E 2  23343551.500   122671181.504    23343553.700    91605098.715  
E25  25296994.320   132936558.871    25296998.440    99270795.891  
E30  24951044.400   131118589.387    24951047.960    97913222.621  
> 2021  3 10 23 44 43.0000000  0 11       0.000000000000
G 2  21720121.220   114140012.980                                  
G 6  20776091.820   109179047.594    20776094.180    81529809.297  
G12  22163406.920   116469491.035                                  
G14  24346342.340   127940857.180    24346347.460    95540245.512  
G17  22905117.980   120367198.762                                  
G19  20930211.920   109989016.133                                  
G24  20916400.800   109916380.055    20916402.440    82080415.188  
G28  23709455.880   124594016.309                                  
E 2  23343461.180   122670706.898    23343463.380    91604744.301  
E25  25297303.880   132938185.613    25297308.000    99272010.664  
E30  24950626.480   131116393.207    24950630.040    97911582.617  
> 2021  3 10 23 44 45.0000000  0 11       0.000000000000
G 2  21719241.160   114135388.254                                  
G 6  20775868.860   109177875.906    20775871.220    81528934.336  
G12  22162480.860   116464624.551                                  
G14  24347366.900   127946241.227    24347372.020    95544266.059  
G17  22906096.760   120372342.258                                  
G19  20930951.840   109992904.387                                  
G24  20916441.020   109916591.461    20916442.680    82080573.051  
G28  23710251.560   124598197.629                                  
E 2  23343280.680   122669758.371    23343282.880    91604035.988  
E25  25297923.120   132941439.770    25297927.260    99274440.715  
E30  24949790.640   131112000.926    24949794.220    97908302.668  
> 2021  3 10 23 44 46.0000000  0 11       0.000000000000
G 2  21718801.260   114133076.578                                  
G 6  20775757.560   109177291.066    20775759.920    81528497.598  
G12  22162017.860   116462191.516                                  
G14  24347879.220   127948933.457    24347884.320    95546276.484  
G17  22906586.160   120374914.078                                  
G19  20931321.880   109994848.984                                  
G24  20916461.320   109916698.129    20916462.980    82080652.703  
G28  23710649.440   124600288.531                                  
E 2  23343190.500   122669284.449    23343192.700    91603682.082  
E25  25298232.820   132943067.176    25298236.940    99275655.988  
E30  24949372.740   131109804.832    24949376.320    97906662.730  
> 2021  3 10 23 44 47.0000000  0 11       0.000000000000
G 2  21718361.440   114130765.352                                  
G 6  20775646.400   109176706.910    20775648.760    81528061.375  
G12  22161554.900   116459758.605                                  
G14  24348391.560   127951625.836    24348396.680    95548287.023  
G17  22907075.580   120377485.957                                  
G19  20931691.980   109996793.902                                  
G24  20916481.740   109916805.477    20916483.400    82080732.863  
G28  23711047.360   124602379.594                                  
E 2  23343100.360   122668810.758    23343102.560    91603328.352  
E25  25298542.540   132944694.809    25298546.660    99276871.426  
E30  24948954.840   131107608.754    24948958.420    97905022.801  
> 2021  3 10 23 44 48.0000000  0 11       0.000000000000
G 2  21717921.720   114128454.586                                  
G 6  20775535.360   109176123.414    20775537.720    81527625.645  
G12  22161091.940   116457325.820                                  
G14  24348903.920   127954318.352    24348909.040    95550297.664  
G17  22907565.000   120380057.867                                  
G19  20932062.140   109998739.117                                  
G24  20916502.300   109916913.449    20916503.940    82080813.484  
G28  23711445.300   124604470.797                                  
E 2  23343010.260   122668337.285    23343012.460    91602974.785  
E25  25298852.300   132946322.656    25298856.440    99278087.027  
E30  24948536.960   131105412.727    24948540.520    97903382.910  
> 2021  3 10 23 44 49.0000000  0 11       0.000000000000
G 2  21717482.080   114126144.270                                  
G 6  20775424.460   109175540.598    20775426.820    81527190.422  
G12  22160629.040   116454893.168                                  
G14  24349416.320   127957011.027    24349421.440    95552308.422  
G17  22908054.420   120382629.844                                  
G19  20932432.360   110000684.645                                  
G24  20916522.960   109917022.070    20916524.620    82080894.594  
G28  23711843.280   124606562.168                                  
E 2  23342920.200   122667864.043    23342922.400    91602621.391  
E25  25299162.120   132947950.738    25299166.260    99279302.801  
E30  24948119.060   131103216.719    24948122.640    97901743.035  
> 2021  3 10 23 44 50.0000000  0 11       0.000000000000
G 2  21717042.520   114123834.406                                  
G 6  20775313.680   109174958.457    20775316.040    81526755.699  
G12  22160166.140   116452460.656                                  
G14  24349928.740   127959703.820    24349933.860    95554319.273  
G17  22908543.860   120385201.867                                  
G19  20932802.640   110002630.480                                  
G24  20916543.760   109917131.324    20916545.400    82080976.176  
G28  23712241.280   124608653.695                                  
E 2  23342830.200   122667391.031    23342832.380    91602268.168  
E25  25299471.980   132949579.031    25299476.100    99280518.734  
E30  24947701.180   131101020.746    24947704.760    97900103.188  
> 2021  3 10 23 44 51.0000000  0 11       0.000000000000
G 2  21716603.060   114121525.008                                  
G 6  20775203.040   109174376.992    20775205.400    81526321.488  
G12  22159703.280   116450028.270                                  
G14  24350441.200   127962396.777    24350446.320    95556330.242  
G17  22909033.320   120387773.949                                  
G19  20933172.980   110004576.625                                  
G24  20916564.660   109917241.223    20916566.320    82081058.238  
G28  23712639.320   124610745.371                                  
E 2  23342740.220   122666918.250    23342742.420    91601915.117  
E25  25299781.880   132951207.551    25299786.000    99281734.836  
E30  24947283.320   131098824.813    24947286.880    97898463.367  
> 2021  3 10 23 44 52.0000000  0 11       0.000000000000
G 2  21716163.680   114119216.059                                  
G 6  20775092.520   109173796.195    20775094.880    81525887.770  
G12  22159240.420   116447596.004                                  
G14  24350953.680   127965089.879    24350958.800    95558341.316  
G17  22909522.780   120390346.078                                  
G19  20933543.380   110006523.078                                  
G24  20916585.700   109917351.746    20916587.360    82081140.770  
G28  23713037.380   124612837.203                                  
E 2  23342650.300   122666445.695    23342652.500    91601562.234  
E25  25300091.820   132952836.293    25300095.940    99282951.102  
E30  24946865.440   131096628.895    24946869.020    97896823.559  
> 2021  3 10 23 44 53.0000000  0 11       0.000000000000
G 2  21715724.400   114116907.578                                  
G 6  20774982.120   109173216.078    20774984.480    81525454.563  
G12  22158777.600   116445163.863                                  
G14  24351466.180   127967783.117    24351471.320    95560352.496  
G17  22910012.240   120392918.250                                  
G19  20933913.840   110008469.840                                  
G24  20916606.860   109917462.930    20916608.520    82081223.793  
G28  23713435.480   124614929.195                                  
E 2  23342560.420   122665973.363    23342562.620    91601209.520  
E25  25300401.800   132954465.254    25300405.920    99284167.535  
E30  24946447.580   131094433.008    24946451.140    97895183.773  
> 2021  3 10 23 44 54.0000000  0 11       0.000000000000
G 2  21715285.200   114114599.547                                  
G 6  20774871.860   109172636.625    20774874.220    81525021.848  
G12  22158314.820   116442731.871                                  
G14  24351978.720   127970476.508    24351983.860    95562363.789  
G17  22910501.720   120395490.488                                  
G19  20934284.360   110010416.902                                  
G24  20916628.140   109917574.742    20916629.800    82081307.285  
G28  23713833.600   124617021.340                                  
E 2  23342470.580   122665501.262    23342472.780    91600856.977  
E25  25300711.820   132956094.441    25300715.960    99285384.137  
E30  24946029.720   131092237.160    24946033.300    97893544.020  
> 2021  3 10 23 44 55.0000000  0 11       0.000000000000
G 2  21714846.080   114112291.977                                  
G 6  20774761.720   109172057.852    20774764.080    81524589.648  
G12  22157852.040   116440299.988                                  
G14  24352491.280   127973170.043    24352496.420    95564375.191  
G17  22910991.220   120398062.770                                  
G19  20934654.920   110012364.277                                  
G24  20916649.520   109917687.180    20916651.200    82081391.246  
G28  23714231.760   124619113.648                                  
E 2  23342380.800   122665029.395    23342382.980    91600504.605  
E25  25301021.880   132957723.844    25301026.020    99286600.895  
E30  24945611.880   131090041.336    24945615.440    97891904.281  
> 2021  3 10 23 44 56.0000000  0 11       0.000000000000
G 2  21714407.040   114109984.883                                  
G 6  20774651.700   109171479.750    20774654.080    81524157.941  
G12  22157389.280   116437868.281                                  
G14  24353003.900   127975863.637    24353009.040    95566386.586  
G17  22911480.720   120400635.109                                  
G19  20935025.560   110014311.969                                  
G24  20916671.060   109917800.289    20916672.720    82081475.703  
G28  23714629.940   124621206.090                                  
E 2  23342291.040   122664557.754    23342293.240    91600152.410  
E25  25301332.000   132959353.480    25301336.120    99287817.832  
E30  24945194.020   131087845.570    24945197.580    97890264.598  
> 2021  3 10 23 44 57.0000000  0 11       0.000000000000
G 2  21713968.100   114107678.223                                  
G 6  20774541.820   109170902.328    20774544.200    81523726.746  
G12  22156926.580   116435436.680                                  
G14  24353516.500   127978557.457    24353521.660    95568398.199  
G17  22911970.220   120403207.500                                  
G19  20935396.260   110016259.965                                  
G24  20916692.700   109917913.996    20916694.360    82081560.613  
G28  23715028.160   124623298.719                                  
E 2  23342201.340   122664086.344    23342203.520    91599800.383  
E25  25301642.140   132960983.332    25301646.280    99289034.926  
E30  24944776.180   131085649.813    24944779.740    97888624.910  
> 2021  3 10 23 44 58.0000000  0 11       0.000000000000
G 2  21713529.240   114105372.020                                  
G 6  20774432.080   109170325.570    20774434.440    81523296.047  
G12  22156463.880   116433005.211                                  
G14  24354029.160   127981251.422    24354034.300    95570409.922  
G17  22912459.740   120405779.926                                  
G19  20935767.000   110018208.266                                  
G24  20916714.460   109918028.344    20916716.120    82081645.996  
G28  23715426.400   124625391.500                                  
E 2  23342111.680   122663615.156    23342113.860    91599448.523  
E25  25301952.340   132962613.402    25301956.480    99290252.188  
E30  24944358.340   131083454.082    24944361.920    97886985.242  
> 2021  3 10 23 44 59.0000000  0 11       0.000000000000
G 2  21713090.480   114103066.281                                  
G 6  20774322.460   109169749.492    20774324.820    81522865.855  
G12  22156001.200   116430573.867                                  
G14  24354541.820   127983945.531    24354546.980    95572421.754  
G17  22912949.260   120408352.414                                  
G19  20936137.820   110020156.879                                  
G24  20916736.340   109918143.363    20916738.000    82081731.883  
G28  23715824.680   124627484.441                                  
E 2  23342022.060   122663144.207    23342024.240    91599096.836  
E25  25302262.580   132964243.699    25302266.700    99291469.617  
E30  24943940.520   131081258.379    24943944.080    97885345.594  
> 2021  3 10 23 45  0.0000000  0 11       0.000000000000
G 2  21712651.800   114100761.004                                  
G 6  20774212.960   109169174.090    20774215.320    81522436.168  
G12  22155538.560   116428142.660                                  
G14  24355054.520   127986639.793    24355059.680    95574433.695  
G17  22913438.800   120410924.953                                  
G19  20936508.680   110022105.793                                  
G24  20916758.340   109918259.027    20916760.020    82081818.254  
G28  23716222.980   124629577.535                                  
E 2  23341932.480   122662673.477    23341934.660    91598745.320  
E25  25302572.860   132965874.227    25302576.980    99292687.219  
E30  24943522.700   131079062.715    24943526.260    97883705.977  
> 2021  3 10 23 45  1.0000000  0 11       0.000000000000
G 2  21712213.200   114098456.180                                  
G 6  20774103.580   109168599.359    20774105.960    81522006.980  
G12  22155075.940   116425711.582                                  
G14  24355567.260   127989334.188    24355572.400    95576445.738  
G17  22913928.360   120413497.539                                  
G19  20936879.600   110024055.027                                  
G24  20916780.480   109918375.344    20916782.140    82081905.109  
G28  23716621.320   124631670.789                                  
E 2  23341842.940   122662202.977    23341845.140    91598393.973  
E25  25302883.180   132967504.969    25302887.300    99293904.977  
E30  24943104.880   131076867.074    24943108.440    97882066.375  
> 2021  3 10 23 45  2.0000000  0 11       0.000000000000
G 2  21711774.700   114096151.813                                  
G 6  20773994.340   109168025.297    20773996.720    81521578.297  
G12  22154613.340   116423280.637                                  
G14  24356080.020   127992028.730    24356085.160    95578457.895  
G17  22914417.900   120416070.176                                  
G19  20937250.600   110026004.563                                  
G24  20916802.740   109918492.305    20916804.400    82081992.445  
G28  23717019.680   124633764.195                                  
E 2  23341753.460   122661732.699    23341755.640    91598042.789  
E25  25303193.540   132969135.934    25303197.660    99295122.906  
E30  24942687.080   131074671.477    24942690.640    97880426.805  
> 2021  3 10 23 45  3.0000000  0 11       0.000000000000
G 2  21711336.280   114093847.902                                  
G 6  20773885.240   109167451.906    20773887.600    81521150.109  
G12  22154150.780   116420849.816                                  
G14  24356592.800   127994723.406    24356597.940    95580470.148  
G17  22914907.480   120418642.863                                  
G19  20937621.640   110027954.402                                  
G24  20916825.120   109918609.898    20916826.780    82082080.254  
G28  23717418.060   124635857.758                                  
E 2  23341664.000   122661262.664    23341666.200    91597691.789  
E25  25303503.940   132970767.121    25303508.080    99296341.000  
E30  24942269.260   131072475.898    24942272.840    97878787.250  
> 2021  3 10 23 45  4.0000000  0 11       0.000000000000
G 2  21710897.940   114091544.453                                  
G 6  20773776.260   109166879.195    20773778.620    81520722.434  
G12  22153688.240   116418419.129                                  
G14  24357105.600   127997418.234    24357110.760    95582482.512  
G17  22915397.060   120421215.602                                  
G19  20937992.740   110029904.555                                  
G24  20916847.620   109918728.129    20916849.280    82082168.539  
G28  23717816.480   124637951.477                                  
E 2  23341574.600   122660792.852    23341576.800    91597340.957  
E25  25303814.400   132972398.527    25303818.520    99297559.258  
E30  24941851.480   131070280.359    24941855.040    97877147.727  
> 2021  3 10 23 45  5.0000000  0 11       0.000000000000
G 2  21710459.700   114089241.461                                  
G 6  20773667.400   109166307.156    20773669.760    81520295.258  
G12  22153225.720   116415988.570                                  
G14  24357618.440   128000113.203    24357623.600    95584494.984  
G17  22915886.640   120423788.391                                  
G19  20938363.900   110031855.016                                  
G24  20916870.240   109918846.992    20916871.900    82082257.297  
G28  23718214.940   124640045.348                                  
E 2  23341485.240   122660323.266    23341487.440    91596990.293  
E25  25304124.880   132974030.160    25304129.020    99298777.684  
E30  24941433.680   131068084.836    24941437.240    97875508.215  
> 2021  3 10 23 45  6.0000000  0 11       0.000000000000
G 2  21710021.540   114086938.922                                  
G 6  20773558.660   109165735.793    20773561.040    81519868.586  
G12  22152763.220   116413558.137                                  
G14  24358131.300   128002808.313    24358136.460    95586507.563  
G17  22916376.240   120426361.238                                  
G19  20938735.120   110033805.777                                  
G24  20916892.980   109918966.508    20916894.640    82082346.543  
G28  23718613.420   124642139.383                                  
E 2  23341395.920   122659853.906    23341398.120    91596639.793  
E25  25304435.420   132975662.012    25304439.540    99299996.273  
E30  24941015.900   131065889.367    24941019.460    97873868.738  
> 2021  3 10 23 45  7.0000000  0 11       0.000000000000
G 2  21709583.460   114084636.840                                  
G 6  20773450.060   109165165.102    20773452.440    81519442.414  
G12  22152300.740   116411127.836                                  
G14  24358644.200   128005503.582    24358649.360    95588520.258  
G17  22916865.840   120428934.129                                  
G19  20939106.400   110035756.855                                  
G24  20916915.840   109919086.695    20916917.520    82082436.289  
G28  23719011.940   124644233.590                                  
E 2  23341306.660   122659384.773    23341308.840    91596289.469  
E25  25304745.980   132977294.098    25304750.120    99301215.039  
E30  24940598.120   131063693.926    24940601.680    97872229.285  
> 2021  3 10 23 45  8.0000000  0 11       0.000000000000
G 2  21709145.480   114082335.223                                  
G 6  20773341.600   109164595.086    20773343.980    81519016.754  
G12  22151838.300   116408697.668                                  
G14  24359157.120   128008198.977    24359162.260    95590533.047  
G17  22917355.460   120431507.066                                  
G19  20939477.720   110037708.242                                  
G24  20916938.840   109919207.531    20916940.520    82082526.523  
G28  23719410.480   124646327.898                                  
E 2  23341217.420   122658915.891    23341219.620    91595939.328  
E25  25305056.600   132978926.387    25305060.740    99302433.953  
E30  24940180.340   131061498.488    24940183.900    97870589.836  
> 2021  3 10 23 45  9.0000000  0 11       0.000000000000
G 2  21708707.580   114080034.055                                  
G 6  20773233.260   109164025.742    20773235.640    81518591.590  
G12  22151375.880   116406267.629                                  
G14  24359670.060   128010894.531    24359675.220    95592545.957  
G17  22917845.080   120434080.059                                  
G19  20939849.120   110039659.930                                  
G24  20916961.960   109919328.973    20916963.620    82082617.203  
G28  23719809.040   124648422.398                                  
E 2  23341128.240   122658447.223    23341130.440    91595589.348  
E25  25305367.260   132980558.906    25305371.400    99303653.043  
E30  24939762.560   131059303.098    24939766.120    97868950.422  
> 2021  3 10 23 45 10.0000000  0 11       0.000000000000
G 2  21708269.780   114077733.348                                  
G 6  20773125.040   109163457.066    20773127.420    81518166.926  
G12  22150913.480   116403837.719                                  
G14  24360183.040   128013590.223    24360188.200    95594558.969  
G17  22918334.720   120436653.102                                  
G19  20940220.580   110041611.926                                  
G24  20916985.180   109919451.078    20916986.860    82082708.383  
G28  23720207.640   124650517.043                                  
E 2  23341039.100   122657978.781    23341041.300    91595239.539  
E25  25305677.960   132982191.648    25305682.100    99304872.297  
E30  24939344.800   131057107.746    24939348.360    97867311.035  
> 2021  3 10 23 45 11.0000000  0 11       0.000000000000
G 2  21707832.060   114075433.102                                  
G 6  20773016.960   109162889.078    20773019.340    81517742.773  
G12  22150451.120   116401407.941                                  
G14  24360696.040   128016286.059    24360701.200    95596572.086  
G17  22918824.360   120439226.191                                  
G19  20940592.080   110043564.227                                  
G24  20917008.540   109919573.828    20917010.220    82082800.043  
G28  23720606.280   124652611.855                                  
E 2  23340950.000   122657510.570    23340952.200    91594889.902  
E25  25305988.700   132983824.617    25305992.840    99306091.723  
E30  24938927.040   131054912.418    24938930.600    97865671.668  
> 2021  3 10 23 45 12.0000000  0 11       0.000000000000
G 2  21707394.420   114073133.309                                  
G 6  20772909.000   109162321.754    20772911.380    81517319.121  
G12  22149988.760   116398978.301                                  
G14  24361209.060   128018982.039    24361214.220    95598585.316  
G17  22919314.020   120441799.336                                  
G19  20940963.660   110045516.832                                  
G24  20917032.020   109919697.223    20917033.700    82082892.184  
G28  23721004.920   124654706.816                                  
E 2  23340860.960   122657042.598    23340863.140    91594540.441  
E25  25306299.500   132985457.809    25306303.620    99307311.313  
E30  24938509.300   131052717.121    24938512.860    97864032.328  
> 2021  3 10 23 45 13.0000000  0 11       0.000000000000
G 2  21706956.860   114070833.977                                  
G 6  20772801.160   109161755.109    20772803.540    81516895.973  
G12  22149526.440   116396548.777                                  
G14  24361722.120   128021678.168    24361727.280    95600598.652  
G17  22919803.680   120444372.523                                  
G19  20941335.280   110047469.746                                  
G24  20917055.620   109919821.242    20917057.300    82082984.789  
G28  23721403.620   124656801.941                                  
E 2  23340771.940   122656574.832    23340774.140    91594191.137  
E25  25306610.320   132987091.227    25306614.460    99308531.074  
E30  24938091.540   131050521.855    24938095.100    97862393.004  
> 2021  3 10 23 45 14.0000000  0 11       0.000000000000
G 2  21706519.400   114068535.102                                  
G 6  20772693.460   109161189.133    20772695.840    81516473.324  
G12  22149064.140   116394119.395                                  
G14  24362235.200   128024374.438    24362240.360    95602612.094  
G17  22920293.340   120446945.766                                  
G19  20941706.960   110049422.973                                  
G24  20917079.360   109919945.922    20917081.040    82083077.891  
G28  23721802.340   124658897.219                                  
E 2  23340682.980   122656107.320    23340685.160    91593842.020  
E25  25306921.200   132988724.863    25306925.320    99309750.996  
E30  24937673.800   131048326.617    24937677.360    97860753.703  
> 2021  3 10 23 45 15.0000000  0 11       0.000000000000
G 2  21706082.020   114066236.680                                  
G 6  20772585.900   109160623.840    20772588.280    81516051.188  
G12  22148601.880   116391690.148                                  
G14  24362748.320   128027070.848    24362753.480    95604625.645  
G17  22920783.020   120449519.059                                  
G19  20942078.720   110051376.504                                  
G24  20917103.200   109920071.262    20917104.880    82083171.484  
G28  23722201.080   124660992.652                                  
E 2  23340594.060   122655640.023    23340596.240    91593493.063  
E25  25307232.100   132990358.719    25307236.240    99310971.082  
E30  24937256.080   131046131.422    24937259.640    97859114.438  
> 2021  3 10 23 45 16.0000000  0 11       0.000000000000
G 2  21705644.740   114063938.719                                  
G 6  20772478.440   109160059.215    20772480.840    81515629.547  
G12  22148139.620   116389261.031                                  
G14  24363261.440   128029767.398    24363266.620    95606639.297  
G17  22921272.720   120452092.402                                  
G19  20942450.520   110053330.348                                  
G24  20917127.180   109920197.250    20917128.860    82083265.566  
G28  23722599.860   124663088.238                                  
E 2  23340505.180   122655172.957    23340507.360    91593144.281  
E25  25307543.060   132991992.797    25307547.200    99312191.332  
E30  24936838.340   131043936.250    24936841.900    97857475.184  
> 2021  3 10 23 45 17.0000000  0 11       0.000000000000
G 2  21705207.540   114061641.219                                  
G 6  20772371.140   109159495.266    20772373.520    81515208.414  
G12  22147677.400   116386832.055                                  
G14  24363774.620   128032464.109    24363779.780    95608653.070  
G17  22921762.420   120454665.801                                  
G19  20942822.380   110055284.500                                  
G24  20917151.280   109920323.867    20917152.960    82083360.113  
G28  23722998.680   124665183.992                                  
E 2  23340416.340   122654706.129    23340418.520    91592795.676  
E25  25307854.060   132993627.109    25307858.200    99313411.762  
E30  24936420.620   131041741.105    24936424.180    97855835.949  
> 2021  3 10 23 45 18.0000000  0 11       0.000000000000
G 2  21704770.420   114059344.172                                  
G 6  20772263.940   109158931.984    20772266.320    81514787.777  
G12  22147215.220   116384403.195                                  
G14  24364287.820   128035160.961    24364292.980    95610666.949  
G17  22922252.120   120457239.238                                  
G19  20943194.300   110057238.949                                  
G24  20917175.480   109920451.105    20917177.180    82083455.125  
G28  23723397.500   124667279.891                                  
E 2  23340327.540   122654239.531    23340329.740    91592447.242  
E25  25308165.100   132995261.629    25308169.240    99314632.344  
E30  24936002.920   131039546.016    24936006.480    97854196.762  
> 2021  3 10 23 45 19.0000000  0 11       0.000000000000
G 2  21704333.400   114057047.590                                  
G 6  20772156.880   109158369.387    20772159.280    81514367.652  
G12  22146753.040   116381974.477                                  
G14  24364801.020   128037857.938    24364806.200    95612680.922  
G17  22922741.840   120459812.734                                  
G19  20943566.280   110059193.719                                  
G24  20917199.820   109920578.992    20917201.500    82083550.621  
G28  23723796.380   124669375.965                                  
E 2  23340238.800   122653773.160    23340241.000    91592098.980  
E25  25308476.180   132996896.383    25308480.320    99315853.105  
E30  24935585.200   131037350.938    24935588.760    97852557.582  
> 2021  3 10 23 45 20.0000000  0 11       0.000000000000
G 2  21703896.460   114054751.465                                  
G 6  20772049.960   109157807.457    20772052.340    81513948.027  
G12  22146290.900   116379545.879                                  
G14  24365314.280   128040555.078    24365319.460    95614695.016  
G17  22923231.580   120462386.266                                  
G19  20943938.320   110061148.781                                  
G24  20917224.280   109920707.527    20917225.960    82083646.602  
G28  23724195.280   124671472.172                                  
E 2  23340150.100   122653307.012    23340152.280    91591750.883  
E25  25308787.300   132998531.352    25308791.440    99317074.023  
E30  24935167.500   131035155.895    24935171.060    97850918.430  
> 2021  3 10 23 45 21.0000000  0 11       0.000000000000
G 2  21703459.600   114052455.789                                  
G 6  20771943.140   109157246.203    20771945.540    81513528.902  
G12  22145828.780   116377117.410                                  
G14  24365827.560   128043252.355    24365832.740    95616709.211  
G17  22923721.320   120464959.859                                  
G19  20944310.400   110063104.145                                  
G24  20917248.860   109920836.715    20917250.560    82083743.066  
G28  23724594.200   124673568.539                                  
E 2  23340061.440   122652841.094    23340063.620    91591402.961  
E25  25309098.480   133000166.547    25309102.600    99318295.109  
E30  24934749.800   131032960.891    24934753.360    97849279.301  
> 2021  3 10 23 45 22.0000000  0 11       0.000000000000
G 2  21703022.840   114050160.586                                  
G 6  20771836.480   109156685.629    20771838.860    81513110.289  
G12  22145366.680   116374689.074                                  
G14  24366340.860   128045949.777    24366346.040    95618723.512  
G17  22924211.060   120467533.500                                  
G19  20944682.560   110065059.816                                  
G24  20917273.580   109920966.566    20917275.260    82083840.031  
G28  23724993.160   124675665.059                                  
E 2  23339972.820   122652375.406    23339975.000    91591055.203  
E25  25309409.680   133001801.969    25309413.820    99319516.363  
E30  24934332.120   131030765.906    24934335.680    97847640.191  
> 2021  3 10 23 45 23.0000000  0 11       0.000000000000
G 2  21702586.160   114047865.828                                  
G 6  20771729.920   109156125.727    20771732.320    81512692.180  
G12  22144904.600   116372260.871                                  
G14  24366854.180   128048647.348    24366859.360    95620737.926  
G17  22924700.820   120470107.199                                  
G19  20945054.780   110067015.793                                  
G24  20917298.400   109921097.059    20917300.100    82083937.473  
G28  23725392.140   124677761.742                                  
E 2  23339884.240   122651909.949    23339886.440    91590707.621  
E25  25309720.940   133003437.605    25309725.060    99320737.781  
E30  24933914.420   131028570.961    24933917.980    97846001.109  
> 2021  3 10 23 45 24.0000000  0 11       0.000000000000
G 2  21702149.580   114045571.531                                  
G 6  20771623.520   109155566.500    20771625.900    81512274.570  
G12  22144442.560   116369832.797                                  
G14  24367367.540   128051345.051    24367372.720    95622752.441  
G17  22925190.580   120472680.938                                  
G19  20945427.040   110068972.070                                  
G24  20917323.360   109921228.191    20917325.060    82084035.391  
G28  23725791.160   124679858.563                                  
E 2  23339795.720   122651444.727    23339797.900    91590360.219  
E25  25310032.240   133005073.469    25310036.360    99321959.367  
E30  24933496.740   131026376.039    24933500.300    97844362.047  
> 2021  3 10 23 45 25.0000000  0 11       0.000000000000
G 2  21701713.080   114043277.688                                  
G 6  20771517.220   109155007.941    20771519.620    81511857.461  
G12  22143980.540   116367404.855                                  
G14  24367880.940   128054042.910    24367886.120    95624767.070  
G17  22925680.360   120475254.734                                  
G19  20945799.360   110070928.660                                  
G24  20917348.440   109921359.969    20917350.120    82084133.793  
G28  23726190.200   124681955.547                                  
E 2  23339707.220   122650979.730    23339709.420    91590012.977  
E25  25310343.560   133006709.547    25310347.700    99323181.113  
E30  24933079.080   131024181.160    24933082.640    97842723.012  
> 2021  3 10 23 45 26.0000000  0 11       0.000000000000
G 2  21701276.660   114040984.305                                  
G 6  20771411.060   109154450.063    20771413.460    81511440.859  
G12  22143518.540   116364977.047                                  
G14  24368394.340   128056740.910    24368399.520    95626781.805  
G17  22926170.160   120477828.578                                  
G19  20946171.760   110072885.563                                  
G24  20917373.640   109921492.355    20917375.320    82084232.648  
G28  23726589.280   124684052.695                                  
E 2  23339618.780   122650514.965    23339620.980    91589665.914  
E25  25310654.940   133008345.859    25310659.080    99324403.035  
E30  24932661.400   131021986.313    24932664.960    97841084.004  
> 2021  3 10 23 45 27.0000000  0 11       0.000000000000
G 2  21700840.320   114038691.387                                  
G 6  20771305.020   109153892.855    20771307.420    81511024.758  
G12  22143056.560   116362549.371                                  
G14  24368907.780   128059439.051    24368912.960    95628796.648  
G17  22926659.940   120480402.473                                  
G19  20946544.200   110074842.766                                  
G24  20917398.940   109921625.402    20917400.640    82084331.996  
G28  23726988.380   124686149.996                                  
E 2  23339530.380   122650050.422    23339532.580    91589319.016  
E25  25310966.360   133009982.387    25310970.500    99325625.117  
E30  24932243.740   131019791.492    24932247.300    97839445.016  
> 2021  3 10 23 45 28.0000000  0 11       0.000000000000
G 2  21700404.080   114036398.922                                  
G 6  20771199.120   109153336.316    20771201.520    81510609.156  
G12  22142594.620   116360121.824                                  
G14  24369421.260   128062137.336    24369426.440    95630811.594  
G17  22927149.760   120482976.414                                  
G19  20946916.700   110076800.277                                  
G24  20917424.380   109921759.082    20917426.080    82084431.820  
G28  23727387.520   124688247.457                                  
E 2  23339442.020   122649586.109    23339444.220    91588972.289  
E25  25311277.840   133011619.137    25311281.960    99326847.363  
E30  24931826.100   131017596.703    24931829.660    97837806.051  
> 2021  3 10 23 45 29.0000000  0 11       0.000000000000
G 2  21699967.940   114034106.930                                  
G 6  20771093.340   109152780.461    20771095.740    81510194.066  
G12  22142132.700   116357694.422                                  
G14  24369934.740   128064835.770    24369939.940    95632826.656  
G17  22927639.560   120485550.402                                  
G19  20947289.260   110078758.098                                  
G24  20917449.940   109921893.414    20917451.640    82084532.129  
G28  23727786.680   124690345.078                                  
E 2  23339353.720   122649122.039    23339355.920    91588625.742  
E25  25311589.340   133013256.121    25311593.480    99328069.785  
E30  24931408.440   131015401.945    24931412.000    97836167.109  
> 2021  3 10 23 45 30.0000000  0 11       0.000000000000
G 2  21699531.860   114031815.387                                  
G 6  20770987.700   109152225.273    20770990.100    81509779.477  
G12  22141670.800   116355267.133                                  
G14  24370448.260   128067534.344    24370453.460    95634841.816  
G17  22928129.400   120488124.434                                  
G19  20947661.880   110080716.227                                  
G24  20917475.640   109922028.395    20917477.340    82084632.918  
G28  23728185.860   124692442.848                                  
E 2  23339265.460   122648658.191    23339267.640    91588279.363  
E25  25311900.880   133014893.316    25311905.020    99329292.367  
E30  24930990.800   131013207.230    24930994.360    97834528.199  
> 2021  3 10 23 45 31.0000000  0 11       0.000000000000
G 2  21699095.880   114029524.309                                  
G 6  20770882.180   109151670.762    20770884.580    81509365.387  
G12  22141208.920   116352839.984                                  
G14  24370961.820   128070233.059    24370967.000    95636857.086  
G17  22928619.220   120490698.512                                  
G19  20948034.560   110082674.656                                  
G24  20917501.440   109922164.008    20917503.140    82084734.188  
G28  23728585.100   124694540.785                                  
E 2  23339177.220   122648194.570    23339179.420    91587933.152  
E25  25312212.480   133016530.738    25312216.620    99330515.113  
E30  24930573.160   131011012.539    24930576.720    97832889.305  
> 2021  3 10 23 45 32.0000000  0 11       0.000000000000
G 2  21698660.000   114027233.691                                  
G 6  20770776.780   109151116.922    20770779.180    81508951.801  
G12  22140747.080   116350412.965                                  
G14  24371475.400   128072931.918    24371480.580    95638872.465  
G17  22929109.060   120493272.641                                  
G19  20948407.300   110084633.391                                  
G24  20917527.380   109922300.270    20917529.080    82084835.938  
G28  23728984.340   124696638.875                                  
E 2  23339089.040   122647731.184    23339091.240    91587587.113  
E25  25312524.120   133018168.379    25312528.240    99331738.027  
E30  24930155.540   131008817.879    24930159.100    97831250.438  
> 2021  3 10 23 45 33.0000000  0 11       0.000000000000
G 2  21698224.200   114024943.512                                  
G 6  20770671.520   109150563.762    20770673.920    81508538.727  
G12  22140285.260   116347986.074                                  
G14  24371989.000   128075630.918    24371994.180    95640887.945  
G17  22929598.920   120495846.828                                  
G19  20948780.080   110086592.434                                  
G24  20917553.420   109922437.156    20917555.120    82084938.152  
G28  23729383.640   124698737.121                                  
E 2  23339000.920   122647268.023    23339003.100    91587241.250  
E25  25312835.780   133019806.238    25312839.920    99332961.105  
E30  24929737.920   131006623.254    24929741.480    97829611.594  
> 2021  3 10 23 45 34.0000000  0 11       0.000000000000
G 2  21697788.480   114022653.801                                  
G 6  20770566.380   109150011.277    20770568.780    81508126.148  
G12  22139823.460   116345559.320                                  
G14  24372502.620   128078330.066    24372507.820    95642903.539  
G17  22930088.780   120498421.055                                  
G19  20949152.940   110088551.773                                  
G24  20917579.600   109922574.703    20917581.300    82085040.859  
G28  23729782.940   124700835.523                                  
E 2  23338912.820   122646805.098    23338915.020    91586895.559  
E25  25313147.500   133021444.336    25313151.640    99334184.359  
E30  24929320.300   131004428.660    24929323.860    97827972.773  
> 2021  3 10 23 45 35.0000000  0 11       0.000000000000
G 2  21697352.840   114020364.555                                  
G 6  20770461.380   109149459.461    20770463.780    81507714.074  
G12  22139361.680   116343132.691                                  
G14  24373016.280   128081029.367    24373021.480    95644919.246  
G17  22930578.640   120500995.328                                  
G19  20949525.840   110090511.426                                  
G24  20917605.880   109922712.879    20917607.600    82085144.043  
G28  23730182.280   124702934.082                                  
E 2  23338824.780   122646342.398    23338826.960    91586550.035  
E25  25313459.260   133023082.645    25313463.400    99335407.770  
E30  24928902.680   131002234.094    24928906.240    97826333.977  
> 2021  3 10 23 45 36.0000000  0 11       0.000000000000
G 2  21696917.300   114018075.762                                  
G 6  20770356.500   109148908.316    20770358.900    81507302.508  
G12  22138899.940   116340706.203                                  
G14  24373529.980   128083728.801    24373535.180    95646935.051  
G17  22931068.520   120503569.656                                  
G19  20949898.820   110092471.375                                  
G24  20917632.300   109922851.691    20917634.000    82085247.695  
G28  23730581.660   124705032.793                                  
E 2  23338736.760   122645879.930    23338738.960    91586204.688  
E25  25313771.060   133024721.176    25313775.200    99336631.352  
E30  24928485.080   131000039.559    24928488.640    97824695.199  
> 2021  3 10 23 45 37.0000000  0 11       0.000000000000
G 2  21696481.840   114015787.438                                  
G 6  20770251.760   109148357.855    20770254.160    81506891.441  
G12  22138438.220   116338279.844                                  
G14  24374043.680   128086428.383    24374048.880    95648950.969  
G17  22931558.400   120506144.023                                  
G19  20950271.840   110094431.637                                  
G24  20917658.840   109922991.156    20917660.540    82085351.840  
G28  23730981.060   124707131.668                                  
E 2  23338648.800   122645417.688    23338651.000    91585859.504  
E25  25314082.920   133026359.934    25314087.040    99337855.098  
E30  24928067.480   130997845.055    24928071.040    97823056.449  
> 2021  3 10 23 45 38.0000000  0 11       0.000000000000
G 2  21696046.480   114013499.570                                  
G 6  20770147.120   109147808.066    20770149.540    81506480.883  
G12  22137976.520   116335853.621                                  
G14  24374557.440   128089128.105    24374562.620    95650966.988  
G17  22932048.300   120508718.449                                  
G19  20950644.920   110096392.199                                  
G24  20917685.500   109923131.254    20917687.200    82085456.453  
G28  23731380.500   124709230.699                                  
E 2  23338560.880   122644955.672    23338563.080    91585514.492  
E25  25314394.800   133027998.910    25314398.940    99339079.008  
E30  24927649.880   130995650.586    24927653.440    97821417.723  
> 2021  3 10 23 45 39.0000000  0 11       0.000000000000
G 2  21695611.200   114011212.168                                  
G 6  20770042.640   109147258.949    20770045.040    81506070.824  
G12  22137514.860   116333427.523                                  
G14  24375071.200   128091827.969    24375076.400    95652983.117  
G17  22932538.220   120511292.922                                  
G19  20951018.060   110098353.070                                  
G24  20917712.280   109923271.984    20917713.980    82085561.539  
G28  23731779.960   124711329.895                                  
E 2  23338473.020   122644493.902    23338475.200    91585169.664  
E25  25314706.740   133029638.113    25314710.860    99340303.086  
E30  24927232.300   130993456.152    24927235.860    97819779.023  
> 2021  3 10 23 45 40.0000000  0 11       0.000000000000
G 2  21695176.000   114008925.223                                  
G 6  20769938.280   109146710.512    20769940.680    81505661.270  
G12  22137053.220   116331001.566                                  
G14  24375585.000   128094527.992    24375590.200    95654999.363  
G17  22933028.120   120513867.438                                  
G19  20951391.260   110100314.250                                  
G24  20917739.180   109923413.371    20917740.900    82085667.117  
G28  23732179.460   124713429.246                                  
E 2  23338385.180   122644032.348    23338387.380    91584825.000  
E25  25315018.700   133031277.539    25315022.840    99341527.332  
E30  24926814.720   130991261.750    24926818.280    97818140.348  
> 2021  3 10 23 45 41.0000000  0 11       0.000000000000
G 2  21694740.900   114006638.734                                  
G 6  20769834.040   109146162.742    20769836.440    81505252.219  
G12  22136591.600   116328575.742                                  
G14  24376098.820   128097228.145    24376104.020    95657015.707  
G17  22933518.060   120516442.004                                  
G19  20951764.520   110102275.727                                  
G24  20917766.220   109923555.402    20917767.920    82085773.176  
G28  23732578.980   124715528.750                                  
E 2  23338297.400   122643571.027    23338299.580    91584480.508  
E25  25315330.720   133032917.180    25315334.860    99342751.738  
E30  24926397.140   130989067.375    24926400.700    97816501.691  
> 2021  3 10 23 45 42.0000000  0 11       0.000000000000
G 2  21694305.880   114004352.711                                  
G 6  20769729.920   109145615.652    20769732.340    81504843.676  
G12  22136130.000   116326150.063                                  
G14  24376612.660   128099928.438    24376617.880    95659032.156  
G17  22934007.980   120519016.621                                  
G19  20952137.840   110104237.508                                  
G24  20917793.360   109923698.078    20917795.080    82085879.715  
G28  23732978.540   124717628.410                                  
E 2  23338209.660   122643109.941    23338211.840    91584136.188  
E25  25315642.780   133034557.055    25315646.920    99343976.320  
E30  24925979.560   130986873.043    24925983.120    97814863.066  
> 2021  3 10 23 45 43.0000000  0 11       0.000000000000
G 2  21693870.960   114002067.148                                  
G 6  20769625.940   109145069.234    20769628.360    81504435.633  
G12  22135668.420   116323724.492                                  
G14  24377126.540   128102628.891    24377131.760    95661048.719  
G17  22934497.920   120521591.273                                  
G19  20952511.200   110106199.605                                  
G24  20917820.640   109923841.402    20917822.360    82085986.738  
G28  23733378.120   124719728.227                                  
E 2  23338121.960   122642649.082    23338124.140    91583792.039  
E25  25315954.880   133036197.145    25315959.020    99345201.063  
E30  24925562.000   130984678.734    24925565.560    97813224.461  
> 2021  3 10 23 45 44.0000000  0 11       0.000000000000
G 2  21693436.120   113999782.039                                  
G 6  20769522.100   109144523.480    20769524.500    81504028.086  
G12  22135206.880   116321299.066                                  
G14  24377640.460   128105329.473    24377645.660    95663065.383  
G17  22934987.880   120524165.988                                  
G19  20952884.640   110108162.004                                  
G24  20917848.040   109923985.371    20917849.740    82086094.242  
G28  23733777.720   124721828.188                                  
E 2  23338034.300   122642188.453    23338036.500    91583448.066  
E25  25316267.020   133037837.457    25316271.160    99346425.973  
E30  24925144.440   130982484.453    24925148.000    97811585.875  
> 2021  3 10 23 45 45.0000000  0 11       0.000000000000
G 2  21693001.360   113997497.395                                  
G 6  20769418.360   109143978.418    20769420.780    81503621.055  
G12  22134745.360   116318873.766                                  
G14  24378154.380   128108030.203    24378159.600    95665082.160  
G17  22935477.840   120526740.742                                  
G19  20953258.120   110110124.707                                  
G24  20917875.560   109924129.984    20917877.260    82086202.227  
G28  23734177.360   124723928.316                                  
E 2  23337946.700   122641728.055    23337948.880    91583104.258  
E25  25316579.200   133039477.996    25316583.340    99347651.051  
E30  24924726.900   130980290.215    24924730.460    97809947.320  
> 2021  3 10 23 45 46.0000000  0 11       0.000000000000
G 2  21692566.700   113995213.207                                  
G 6  20769314.780   109143434.016    20769317.180    81503214.516  
G12  22134283.880   116316448.602                                  
G14  24378668.340   128110731.074    24378673.560    95667099.039  
G17  22935967.800   120529315.547                                  
G19  20953631.680   110112087.711                                  
G24  20917903.200   109924275.250    20917904.920    82086310.703  
G28  23734577.040   124726028.605                                  
E 2  23337859.120   122641267.887    23337861.320    91582760.629  
E25  25316891.420   133041118.750    25316895.560    99348876.285  
E30  24924309.360   130978096.000    24924312.900    97808308.785  
> 2021  3 10 23 45 47.0000000  0 11       0.000000000000
G 2  21692132.120   113992929.480                                  
G 6  20769211.300   109142890.293    20769213.720    81502808.484  
G12  22133822.400   116314023.566                                  
G14  24379182.340   128113432.094    24379187.540    95669116.027  
G17  22936457.780   120531890.395                                  
G19  20954005.280   110114051.016                                  
G24  20917930.960   109924421.121    20917932.680    82086419.629  
G28  23734976.740   124728129.039                                  
E 2  23337771.600   122640807.941    23337773.800    91582417.164  
E25  25317203.700   133042759.730    25317207.840    99350101.695  
E30  24923891.820   130975901.820    24923895.360    97806670.273  
> 2021  3 10 23 45 48.0000000  0 11       0.000000000000
G 2  21691697.620   113990646.227                                  
G 6  20769107.960   109142347.246    20769110.380    81502402.961  
G12  22133360.960   116311598.664                                  
G14  24379696.340   128116133.250    24379701.560    95671133.121  
G17  22936947.780   120534465.293                                  
G19  20954378.940   110116014.629                                  
G24  20917958.840   109924567.656    20917960.560    82086529.051  
G28  23735376.460   124730229.633                                  
E 2  23337684.120   122640348.234    23337686.320    91582073.875  
E25  25317516.000   133044400.938    25317520.140    99351327.270  
E30  24923474.280   130973707.672    24923477.840    97805031.789  
> 2021  3 10 23 45 49.0000000  0 11       0.000000000000
G 2  21691263.220   113988363.426                                  
G 6  20769004.760   109141804.871    20769007.180    81501997.938  
G12  22132899.540   116309173.891                                  
G14  24380210.380   128118834.559    24380215.600    95673150.328  
G17  22937437.760   120537040.238                                  
G19  20954752.660   110117978.547                                  
G24  20917986.860   109924714.852    20917988.560    82086638.965  
G28  23735776.240   124732330.398                                  
E 2  23337596.680   122639888.770    23337598.880    91581730.766  
E25  25317828.360   133046042.363    25317832.500    99352553.008  
E30  24923056.760   130971513.559    24923060.300    97803393.328  
> 2021  3 10 23 45 50.0000000  0 11       0.000000000000
G 2  21690828.900   113986081.082                                  
G 6  20768901.680   109141263.176    20768904.100    81501593.422  
G12  22132438.140   116306749.250                                  
G14  24380724.460   128121536.012    24380729.680    95675167.641  
G17  22937927.780   120539615.230                                  
G19  20955126.440   110119942.773                                  
G24  20918014.980   109924862.691    20918016.700    82086749.363  
G28  23736176.020   124734431.313                                  
E 2  23337509.300   122639429.512    23337511.480    91581387.816  
E25  25318140.760   133047684.020    25318144.900    99353778.918  
E30  24922639.240   130969319.473    24922642.780    97801754.887  
> 2021  3 10 23 45 51.0000000  0 11       0.000000000000
G 2  21690394.680   113983799.199                                  
G 6  20768798.720   109140722.145    20768801.140    81501189.398  
G12  22131976.780   116304324.738                                  
G14  24381238.560   128124237.602    24381243.760    95677185.055  
G17  22938417.780   120542190.273                                  
G19  20955500.280   110121907.297                                  
G24  20918043.240   109925011.176    20918044.960    82086860.238  
G28  23736575.840   124736532.383                                  
E 2  23337421.940   122638970.496    23337424.140    91581045.043  
E25  25318453.200   133049325.887    25318457.340    99355004.988  
E30  24922221.720   130967125.422    24922225.280    97800116.473  
> 2021  3 10 23 45 52.0000000  0 11       0.000000000000
G 2  21689960.540   113981517.801                                  
G 6  20768695.880   109140181.867    20768698.280    81500786.027  
G12  22131515.420   116301900.402                                  
G14  24381752.700   128126939.230    24381757.920    95679202.477  
G17  22938907.800   120544765.418                                  
G19  20955874.180   110123872.129                                  
G24  20918071.620   109925160.250    20918073.340    82086971.582  
G28  23736975.700   124738633.543                                  
E 2  23337334.640   122638511.703    23337336.840    91580702.434  
E25  25318765.680   133050967.977    25318769.820    99356231.223  
E30  24921804.200   130964931.441    24921807.760    97798478.129  
> 2021  3 10 23 45 53.0000000  0 11       0.000000000000
G 2  21689526.480   113979236.844                                  
G 6  20768593.180   109139642.199    20768595.580    81500383.027  
G12  22131054.100   116299476.152                                  
G14  24382266.860   128129641.102    24382272.080    95681220.105  
G17  22939397.840   120547340.563                                  
G19  20956248.140   110125837.254                                  
G24  20918100.120   109925310.027    20918101.840    82087083.426  
G28  23737375.580   124740734.922                                  
E 2  23337247.380   122638053.156    23337249.580    91580360.012  
E25  25319078.200   133052610.285    25319082.340    99357457.625  
E30  24921386.700   130962737.457    24921390.260    97796839.766  
> 2021  3 10 23 45 54.0000000  0 11       0.000000000000
G 2  21689092.520   113976956.336                                  
G 6  20768490.620   109139103.188    20768493.020    81499980.520  
G12  22130592.820   116297052.039                                  
G14  24382781.040   128132343.129    24382786.260    95683237.855  
G17  22939887.880   120549915.738                                  
G19  20956622.140   110127802.688                                  
G24  20918128.740   109925460.426    20918130.460    82087195.734  
G28  23737775.500   124742836.453                                  
E 2  23337160.180   122637594.813    23337162.360    91580017.746  
E25  25319390.760   133054252.816    25319394.900    99358684.188  
E30  24920969.220   130960543.500    24920972.760    97795201.422  
> 2021  3 10 23 45 55.0000000  0 11       0.000000000000
G 2  21688658.640   113974676.297                                  
G 6  20768388.180   109138564.852    20768390.580    81499578.516  
G12  22130131.560   116294628.066                                  
G14  24383295.240   128135045.285    24383300.460    95685255.699  
G17  22940377.940   120552490.977                                  
G19  20956996.220   110129768.426                                  
G24  20918157.500   109925611.469    20918159.200    82087308.527  
G28  23738175.440   124744938.141                                  
E 2  23337073.000   122637136.715    23337075.200    91579675.656  
E25  25319703.380   133055895.582    25319707.520    99359910.930  
E30  24920551.720   130958349.578    24920555.280    97793563.105  
> 2021  3 10 23 45 56.0000000  0 11       0.000000000000
G 2  21688224.860   113972396.719                                  
G 6  20768285.880   109138027.203    20768288.260    81499177.027  
G12  22129670.300   116292204.219                                  
G14  24383809.480   128137747.590    24383814.700    95687273.652  
G17  22940868.000   120555066.254                                  
G19  20957370.340   110131734.477                                  
G24  20918186.360   109925763.160    20918188.080    82087421.805  
G28  23738575.420   124747040.000                                  
E 2  23336985.880   122636678.852    23336988.060    91579333.746  
E25  25320016.020   133057538.555    25320020.160    99361137.824  
E30  24920134.240   130956155.699    24920137.800    97791924.816  
> 2021  3 10 23 45 57.0000000  0 11       0.000000000000
G 2  21687791.160   113970117.598                                  
G 6  20768183.680   109137490.219    20768186.080    81498776.031  
G12  22129209.100   116289780.500                                  
G14  24384323.740   128140450.039    24384328.960    95689291.711  
G17  22941358.060   120557641.582                                  
G19  20957744.520   110133700.816                                  
G24  20918215.340   109925915.488    20918217.060    82087535.555  
G28  23738975.420   124749142.008                                  
E 2  23336898.780   122636221.211    23336900.980    91578992.004  
E25  25320328.720   133059181.766    25320332.860    99362364.895  
E30  24919716.760   130953961.832    24919720.320    97790286.543  
> 2021  3 10 23 45 58.0000000  0 11       0.000000000000
G 2  21687357.540   113967838.945                                  
G 6  20768081.640   109136953.910    20768084.020    81498375.539  
G12  22128747.900   116287356.918                                  
G14  24384838.020   128143152.633    24384843.240    95691309.879  
G17  22941848.140   120560216.957                                  
G19  20958118.780   110135667.477                                  
G24  20918244.460   109926068.457    20918246.180    82087649.785  
G28  23739375.440   124751244.168                                  
E 2  23336811.740   122635763.805    23336813.940    91578650.430  
E25  25320641.460   133060825.191    25320645.600    99363592.129  
E30  24919299.300   130951768.012    24919302.840    97788648.301  
> 2021  3 10 23 45 59.0000000  0 11       0.000000000000
G 2  21686924.020   113965560.758                                  
G 6  20767979.700   109136418.281    20767982.100    81497975.551  
G12  22128286.740   116284933.457                                  
G14  24385352.340   128145855.371    24385357.560    95693328.152  
G17  22942338.240   120562792.383                                  
G19  20958493.080   110137634.434                                  
G24  20918273.700   109926222.078    20918275.400    82087764.496  
G28  23739775.500   124753346.496                                  
E 2  23336724.760   122635306.625    23336726.940    91578309.031  
E25  25320954.240   133062468.832    25320958.380    99364819.523  
E30  24918881.840   130949574.219    24918885.380    97787010.078  
> 2021  3 10 23 46  0.0000000  0 11       0.000000000000
G 2  21686490.580   113963283.027                                  
G 6  20767877.900   109135883.328    20767880.300    81497576.074  
G12  22127825.600   116282510.148                                  
G14  24385866.680   128148558.258    24385871.900    95695346.539  
G17  22942828.340   120565367.867                                  
G19  20958867.420   110139601.684                                  
G24  20918303.040   109926376.336    20918304.760    82087879.684  
G28  23740175.600   124755448.965                                  
E 2  23336637.800   122634849.684    23336640.000    91577967.809  
E25  25321267.060   133064112.707    25321271.200    99366047.090  
E30  24918464.380   130947380.457    24918467.920    97785371.879  
> 2021  3 10 23 46  1.0000000  0 11       0.000000000000
G 2  21686057.240   113961005.762                                  
G 6  20767776.240   109135349.059    20767778.640    81497177.098  
G12  22127364.480   116280086.949                                  
G14  24386381.060   128151261.289    24386386.280    95697365.031  
G17  22943318.440   120567943.383                                  
G19  20959241.840   110141569.246                                  
G24  20918332.520   109926531.250    20918334.240    82087995.363  
G28  23740575.720   124757551.609                                  
E 2  23336550.900   122634392.961    23336553.080    91577626.750  
E25  25321579.920   133065756.793    25321584.060    99367274.816  
E30  24918046.920   130945186.727    24918050.480    97783733.707  
> 2021  3 10 23 46  2.0000000  0 11       0.000000000000
G 2  21685623.960   113958728.953                                  
G 6  20767674.700   109134815.457    20767677.100    81496778.625  
G12  22126903.380   116277663.898                                  
G14  24386895.440   128153964.449    24386900.680    95699383.621  
G17  22943808.560   120570518.949                                  
G19  20959616.320   110143537.109                                  
G24  20918362.120   109926686.813    20918363.840    82088111.527  
G28  23740975.860   124759654.402                                  
E 2  23336464.020   122633936.473    23336466.220    91577285.867  
E25  25321892.820   133067401.113    25321896.960    99368502.719  
E30  24917629.480   130942993.027    24917633.020    97782095.555  
> 2021  3 10 23 46  3.0000000  0 11       0.000000000000
G 2  21685190.800   113956452.617                                  
G 6  20767573.280   109134282.531    20767575.680    81496380.660  
G12  22126442.320   116275240.984                                  
G14  24387409.880   128156667.766    24387415.100    95701402.328  
G17  22944298.680   120573094.578                                  
G19  20959990.840   110145505.281                                  
G24  20918391.860   109926843.027    20918393.580    82088228.176  
G28  23741376.040   124761757.352                                  
E 2  23336377.200   122633480.227    23336379.400    91576945.164  
E25  25322205.760   133069045.648    25322209.900    99369730.781  
E30  24917212.040   130940799.367    24917215.600    97780457.430  
> 2021  3 10 23 46  4.0000000  0 11       0.000000000000
G 2  21684757.700   113954176.734                                  
G 6  20767472.000   109133750.270    20767474.400    81495983.188  
G12  22125981.280   116272818.195                                  
G14  24387924.320   128159371.230    24387929.560    95703421.141  
G17  22944788.800   120575670.238                                  
G19  20960365.440   110147473.750                                  
G24  20918421.700   109926999.852    20918423.420    82088345.281  
G28  23741776.260   124763860.465                                  
E 2  23336290.440   122633024.203    23336292.620    91576604.625  
E25  25322518.760   133070690.410    25322522.900    99370959.012  
E30  24916794.620   130938605.742    24916798.160    97778819.336  
> 2021  3 10 23 46  5.0000000  0 11       0.000000000000
G 2  21684324.720   113951901.320                                  
G 6  20767370.840   109133218.695    20767373.240    81495586.230  
G12  22125520.260   116270395.547                                  
G14  24388438.800   128162074.828    24388444.040    95705440.059  
G17  22945278.960   120578245.953                                  
G19  20960740.080   110149442.527                                  
G24  20918451.660   109927157.328    20918453.380    82088462.871  
G28  23742176.500   124765963.742                                  
E 2  23336203.700   122632568.418    23336205.900    91576264.266  
E25  25322831.800   133072335.398    25322835.940    99372187.410  
E30  24916377.180   130936412.152    24916380.740    97777181.266  
> 2021  3 10 23 46  6.0000000  0 11       0.000000000000
G 2  21683891.800   113949626.363                                  
G 6  20767269.820   109132687.793    20767272.220    81495189.773  
G12  22125059.260   116267973.023                                  
G14  24388953.300   128164778.586    24388958.540    95707459.090  
G17  22945769.100   120580821.719                                  
G19  20961114.780   110151411.609                                  
G24  20918481.740   109927315.414    20918483.460    82088580.922  
G28  23742576.760   124768067.168                                  
E 2  23336117.020   122632112.852    23336119.200    91575924.070  
E25  25323144.860   133073980.621    25323149.000    99373415.980  
E30  24915959.760   130934218.602    24915963.320    97775543.223  
> 2021  3 10 23 46  7.0000000  0 11       0.000000000000
G 2  21683458.980   113947351.883                                  
G 6  20767168.920   109132157.566    20767171.320    81494793.824  
G12  22124598.300   116265550.633                                  
G14  24389467.840   128167482.473    24389473.080    95709478.227  
G17  22946259.260   120583397.527                                  
G19  20961489.540   110153380.996                                  
G24  20918511.960   109927474.145    20918513.680    82088699.453  
G28  23742977.060   124770170.758                                  
E 2  23336030.360   122631657.523    23336032.560    91575584.047  
E25  25323457.980   133075626.070    25323462.120    99374644.723  
E30  24915542.360   130932025.090    24915545.900    97773905.207  
> 2021  3 10 23 46  8.0000000  0 11       0.000000000000
G 2  21683026.240   113945077.816                                  
G 6  20767068.140   109131628.012    20767070.560    81494398.371  
G12  22124137.360   116263128.391                                  
G14  24389982.400   128170186.496    24389987.640    95711497.457  
G17  22946749.440   120585973.387                                  
G19  20961864.360   110155350.715                                  
G24  20918542.280   109927633.539    20918544.000    82088818.473  
G28  23743377.380   124772274.473                                  
E 2  23335943.760   122631202.457    23335945.960    91575244.219  
E25  25323771.140   133077271.695    25323775.280    99375873.594  
E30  24915124.940   130929831.582    24915128.500    97772267.195  
> 2021  3 10 23 46  9.0000000  0 11       0.000000000000
G 2  21682593.600   113942804.250                                  
G 6  20766967.500   109131099.137    20766969.920    81494003.430  
G12  22123676.440   116260706.277                                  
G14  24390497.000   128172890.676    24390502.220    95713516.809  
G17  22947239.620   120588549.289                                  
G19  20962239.240   110157320.711                                  
G24  20918572.740   109927793.566    20918574.460    82088937.969  
G28  23743777.740   124774378.363                                  
E 2  23335857.200   122630747.586    23335859.400    91574904.539  
E25  25324084.340   133078917.582    25324088.480    99377102.664  
E30  24914707.540   130927638.129    24914711.100    97770629.227  
> 2021  3 10 23 46 10.0000000  0 11       0.000000000000
G 2  21682161.040   113940531.137                                  
G 6  20766866.980   109130570.926    20766869.400    81493608.984  
G12  22123215.560   116258284.293                                  
G14  24391011.600   128175594.992    24391016.840    95715536.258  
G17  22947729.800   120591125.250                                  
G19  20962614.180   110159291.020                                  
G24  20918603.320   109927954.262    20918605.040    82089057.969  
G28  23744178.140   124776482.410                                  
E 2  23335770.700   122630292.957    23335772.900    91574565.043  
E25  25324397.580   133080563.691    25324401.720    99378331.895  
E30  24914290.140   130925444.699    24914293.700    97768991.270  
> 2021  3 10 23 46 11.0000000  0 11       0.000000000000
G 2  21681728.560   113938258.488                                  
G 6  20766766.600   109130043.402    20766769.020    81493215.051  
G12  22122754.700   116255862.449                                  
G14  24391526.240   128178299.453    24391531.480    95717555.820  
G17  22948220.000   120593701.246                                  
G19  20962989.180   110161261.621                                  
G24  20918634.020   109928115.602    20918635.740    82089178.441  
G28  23744578.540   124778586.613                                  
E 2  23335684.220   122629838.555    23335686.420    91574225.711  
E25  25324710.880   133082210.012    25324715.020    99379561.285  
E30  24913872.760   130923251.309    24913876.320    97767353.344  
> 2021  3 10 23 46 12.0000000  0 11       0.000000000000
G 2  21681296.180   113935986.293                                  
G 6  20766666.340   109129516.543    20766668.760    81492821.609  
G12  22122293.860   116253440.730                                  
G14  24392040.920   128181004.055    24392046.160    95719575.484  
G17  22948710.200   120596277.293                                  
G19  20963364.220   110163232.520                                  
G24  20918664.840   109928277.590    20918666.580    82089299.406  
G28  23744979.000   124780690.973                                  
E 2  23335597.800   122629384.395    23335600.000    91573886.563  
E25  25325024.200   133083856.559    25325028.340    99380790.844  
E30  24913455.380   130921057.949    24913458.940    97765715.445  
> 2021  3 10 23 46 13.0000000  0 11       0.000000000000
G 2  21680863.880   113933714.566                                  
G 6  20766566.220   109128990.367    20766568.620    81492428.684  
G12  22121833.040   116251019.141                                  
G14  24392555.620   128183708.801    24392560.860    95721595.258  
G17  22949200.420   120598853.383                                  
G19  20963739.340   110165203.723                                  
G24  20918695.780   109928440.203    20918697.520    82089420.832  
G28  23745379.480   124782795.492                                  
E 2  23335511.420   122628930.453    23335513.620    91573547.574  
E25  25325337.560   133085503.328    25325341.720    99382020.570  
E30  24913038.000   130918864.621    24913041.560    97764077.566  
> 2021  3 10 23 46 14.0000000  0 11       0.000000000000
G 2  21680431.680   113931443.305                                  
G 6  20766466.220   109128464.859    20766468.620    81492036.254  
G12  22121372.260   116248597.695                                  
G14  24393070.340   128186413.695    24393075.580    95723615.145  
G17  22949690.640   120601429.523                                  
G19  20964114.500   110167175.227                                  
G24  20918726.860   109928603.449    20918728.580    82089542.734  
G28  23745779.980   124784900.176                                  
E 2  23335425.080   122628476.754    23335427.280    91573208.770  
E25  25325650.980   133087150.324    25325655.140    99383250.465  
E30  24912620.640   130916671.328    24912624.180    97762439.715  
> 2021  3 10 23 46 15.0000000  0 11       0.000000000000
G 2  21679999.560   113929172.504                                  
G 6  20766366.340   109127940.023    20766368.760    81491644.328  
G12  22120911.500   116246176.375                                  
G14  24393585.100   128189118.738    24393590.340    95725635.137  
G17  22950180.880   120604005.707                                  
G19  20964489.720   110169147.031                                  
G24  20918758.040   109928767.324    20918759.760    82089665.105  
G28  23746180.520   124787005.016                                  
E 2  23335338.780   122628023.270    23335341.000    91572870.125  
E25  25325964.440   133088797.539    25325968.580    99384480.523  
E30  24912203.260   130914478.059    24912206.820    97760801.879  
> 2021  3 10 23 46 16.0000000  0 11       0.000000000000
G 2  21679567.520   113926902.168                                  
G 6  20766266.600   109127415.871    20766269.020    81491252.914  
G12  22120450.760   116243755.188                                  
G14  24394099.880   128191823.918    24394105.120    95727655.234  
G17  22950671.120   120606581.938                                  
G19  20964865.000   110171119.141                                  
G24  20918789.340   109928931.855    20918791.080    82089787.965  
G28  23746581.080   124789110.020                                  
E 2  23335252.540   122627570.027    23335254.740    91572531.660  
E25  25326277.940   133090444.977    25326282.080    99385710.750  
E30  24911785.900   130912284.840    24911789.460    97759164.082  
> 2021  3 10 23 46 17.0000000  0 11       0.000000000000
G 2  21679135.580   113924632.305                                  
G 6  20766166.980   109126892.387    20766169.400    81490861.996  
G12  22119990.040   116241334.137                                  
G14  24394614.680   128194529.234    24394619.920    95729675.434  
G17  22951161.360   120609158.219                                  
G19  20965240.340   110173091.559                                  
G24  20918820.780   109929097.016    20918822.500    82089911.293  
G28  23746981.700   124791215.191                                  
E 2  23335166.340   122627117.055    23335168.540    91572193.406  
E25  25326591.480   133092092.641    25326595.620    99386941.145  
E30  24911368.560   130910091.652    24911372.120    97757526.313  
> 2021  3 10 23 46 18.0000000  0 11       0.000000000000
G 2  21678703.740   113922362.891                                  
G 6  20766067.500   109126369.586    20766069.920    81490471.590  
G12  22119529.360   116238913.223                                  
G14  24395129.520   128197234.703    24395134.760    95731695.746  
G17  22951651.620   120611734.547                                  
G19  20965615.740   110175064.277                                  
G24  20918852.320   109929262.820    20918854.060    82090035.105  
G28  23747382.320   124793320.504                                  
E 2  23335080.180   122626664.277    23335082.380    91571855.293  
E25  25326905.060   133093740.523    25326909.200    99388171.707  
E30  24910951.220   130907898.492    24910954.780    97755888.563  
> 2021  3 10 23 46 19.0000000  0 11       0.000000000000
G 2  21678271.960   113920093.945                                  
G 6  20765968.140   109125847.457    20765970.560    81490081.688  
G12  22119068.700   116236492.441                                  
G14  24395644.380   128199940.316    24395649.620    95733716.168  
G17  22952141.900   120614310.926                                  
G19  20965991.200   110177037.301                                  
G24  20918884.000   109929429.273    20918885.740    82090159.402  
G28  23747782.980   124795425.977                                  
E 2  23334994.060   122626211.730    23334996.260    91571517.355  
E25  25327218.680   133095388.629    25327222.840    99389402.434  
E30  24910533.880   130905705.367    24910537.440    97754250.840  
> 2021  3 10 23 46 20.0000000  0 11       0.000000000000
G 2  21677840.280   113917825.457                                  
G 6  20765868.900   109125326.000    20765871.320    81489692.281  
G12  22118608.060   116234071.793                                  
G14  24396159.260   128202646.066    24396164.520    95735736.688  
G17  22952632.160   120616887.340                                  
G19  20966366.700   110179010.625                                  
G24  20918915.800   109929596.367    20918917.540    82090284.172  
G28  23748183.660   124797531.609                                  
E 2  23334907.980   122625759.406    23334910.180    91571179.578  
E25  25327532.340   133097036.957    25327536.500    99390633.328  
E30  24910116.540   130903512.277    24910120.100    97752613.145  
> 2021  3 10 23 46 21.0000000  0 11       0.000000000000
G 2  21677408.700   113915557.434                                  
G 6  20765769.800   109124805.219    20765772.220    81489303.383  
G12  22118147.460   116231651.277                                  
G14  24396674.180   128205351.961    24396679.420    95737757.320  
G17  22953122.460   120619463.805                                  
G19  20966742.280   110180984.254                                  
G24  20918947.720   109929764.102    20918949.460    82090409.426  
G28  23748584.380   124799637.398                                  
E 2  23334821.960   122625307.324    23334824.160    91570841.984  
E25  25327846.060   133098685.512    25327850.220    99391864.391  
E30  24909699.220   130901319.219    24909702.780    97750975.473  
> 2021  3 10 23 46 22.0000000  0 11       0.000000000000
G 2  21676977.180   113913289.871                                  
G 6  20765670.840   109124285.113    20765673.260    81488914.988  
G12  22117686.880   116229230.898                                  
G14  24397189.120   128208058.000    24397194.380    95739778.059  
G17  22953612.760   120622040.324                                  
G19  20967117.900   110182958.184                                  
G24  20918979.760   109929932.477    20918981.500    82090535.156  
G28  23748985.140   124801743.344                                  
E 2  23334735.980   122624855.477    23334738.180    91570504.566  
E25  25328159.800   133100334.285    25328163.960    99393095.617  
E30  24909281.900   130899126.195    24909285.460    97749337.824  
> 2021  3 10 23 46 23.0000000  0 11       0.000000000000
G 2  21676545.780   113911022.773                                  
G 6  20765571.980   109123765.680    20765574.400    81488527.098  
G12  22117226.320   116226810.648                                  
G14  24397704.080   128210764.188    24397709.340    95741798.906  
G17  22954103.060   120624616.887                                  
G19  20967493.580   110184932.410                                  
G24  20919011.920   109930101.504    20919013.660    82090661.375  
G28  23749385.920   124803849.441                                  
E 2  23334650.040   122624403.852    23334652.240    91570167.313  
E25  25328473.600   133101983.281    25328477.760    99394327.008  
E30  24908864.580   130896933.199    24908868.140    97747700.199  
> 2021  3 10 23 46 24.0000000  0 11       0.000000000000
G 2  21676114.440   113908756.141                                  
G 6  20765473.280   109123246.938    20765475.700    81488139.719  
G12  22116765.780   116224390.531                                  
G14  24398219.080   128213470.508    24398224.340    95743819.855  
G17  22954593.360   120627193.504                                  
G19  20967869.320   110186906.941                                  
G24  20919044.220   109930271.176    20919045.960    82090788.074  
G28  23749786.720   124805955.703                                  
E 2  23334564.140   122623952.469    23334566.340    91569830.242  
E25  25328787.440   133103632.504    25328791.600    99395558.570  
E30  24908447.280   130894740.246    24908450.840    97746062.605  
> 2021  3 10 23 46 25.0000000  0 11       0.000000000000
G 2  21675683.200   113906489.965                                  
G 6  20765374.680   109122728.855    20765377.100    81487752.836  
G12  22116305.280   116221970.547                                  
G14  24398734.100   128216176.977    24398739.360    95745840.914  
G17  22955083.700   120629770.160                                  
G19  20968245.120   110188881.777                                  
G24  20919076.620   109930441.496    20919078.360    82090915.258  
G28  23750187.560   124808062.113                                  
E 2  23334478.280   122623501.313    23334480.480    91569493.340  
E25  25329101.320   133105281.945    25329105.480    99396790.297  
E30  24908029.980   130892547.320    24908033.540    97744425.031  
> 2021  3 10 23 46 26.0000000  0 11       0.000000000000
G 2  21675252.060   113904224.246                                  
G 6  20765276.220   109122211.441    20765278.660    81487366.453  
G12  22115844.800   116219550.703                                  
G14  24399249.160   128218883.586    24399254.420    95747862.078  
G17  22955574.020   120632346.863                                  
G19  20968620.980   110190856.910                                  
G24  20919109.160   109930612.461    20919110.900    82091042.922  
G28  23750588.420   124810168.676                                  
E 2  23334392.480   122623050.383    23334394.680    91569156.605  
E25  25329415.240   133106931.605    25329419.400    99398022.188  
E30  24907612.680   130890354.422    24907616.240    97742787.477  
> 2021  3 10 23 46 27.0000000  0 11       0.000000000000
G 2  21674821.000   113901958.996                                  
G 6  20765177.900   109121694.711    20765180.320    81486980.582  
G12  22115384.340   116217130.984                                  
G14  24399764.240   128221590.340    24399769.500    95749883.352  
G17  22956064.360   120634923.617                                  
G19  20968996.880   110192832.344                                  
G24  20919141.820   109930784.090    20919143.560    82091171.082  
G28  23750989.320   124812275.406                                  
E 2  23334306.700   122622599.688    23334308.920    91568820.047  
E25  25329729.200   133108581.492    25329733.360    99399254.242  
E30  24907195.400   130888161.563    24907198.960    97741149.953  
> 2021  3 10 23 46 28.0000000  0 11       0.000000000000
G 2  21674390.020   113899694.215                                  
G 6  20765079.700   109121178.652    20765082.120    81486595.207  
G12  22114923.900   116214711.406                                  
G14  24400279.340   128224297.234    24400284.600    95751904.730  
G17  22956554.720   120637500.422                                  
G19  20969372.860   110194808.082                                  
G24  20919174.600   109930956.359    20919176.340    82091299.723  
G28  23751390.240   124814382.281                                  
E 2  23334221.000   122622149.227    23334223.200    91568483.668  
E25  25330043.200   133110231.605    25330047.360    99400486.469  
E30  24906778.120   130885968.742    24906781.680    97739512.457  
> 2021  3 10 23 46 29.0000000  0 11       0.000000000000
G 2  21673959.140   113897429.895                                  
G 6  20764981.620   109120663.273    20764984.040    81486210.340  
G12  22114463.500   116212291.953                                  
G14  24400794.480   128227004.273    24400799.740    95753926.215  
G17  22957045.080   120640077.273                                  
G19  20969748.880   110196784.117                                  
G24  20919207.500   109931129.273    20919209.240    82091428.844  
G28  23751791.200   124816489.328                                  
E 2  23334135.320   122621699.000    23334137.520    91568147.457  
E25  25330357.260   133111881.941    25330361.420    99401718.863  
E30  24906360.840   130883775.961    24906364.400    97737874.992  
> 2021  3 10 23 46 30.0000000  0 11       0.000000000000
G 2  21673528.340   113895166.035                                  
G 6  20764883.680   109120148.566    20764886.100    81485825.980  
G12  22114003.120   116209872.652                                  
G14  24401309.640   128229711.461    24401314.900    95755947.809  
G17  22957535.440   120642654.156                                  
G19  20970124.980   110198760.453                                  
G24  20919240.520   109931302.828    20919242.280    82091558.438  
G28  23752192.200   124818596.512                                  
E 2  23334049.680   122621249.008    23334051.880    91567811.422  
E25  25330671.340   133113532.492    25330675.500    99402951.418  
E30  24905943.580   130881583.203    24905947.120    97736237.543  
