     3.03           OBSERVATION DATA    M: Mixed            RINEX VERSION / TYPE
sbp2rinex v2.2 (RTKL                    20210504 171528 UTC PGM / RUN BY / DATE 
log: 202101042140-202101042230.sbp                          COMMENT             
format: Swift Navigation SBP, option: CONVBASE,EPHALL,OBSALLCOMMENT             
                                                            MARKER NAME         
                                                            MARKER NUMBER       
                                                            MARKER TYPE         
                                                            OBSERVER / AGENCY   
                                                            REC # / TYPE / VERS 
                                                            ANT # / TYPE        
 -2711592.9945 -4352797.5228  3779528.8352                  APPROX POSITION XYZ 
        0.0000        0.0000        0.0000                  ANTENNA: DELTA H/E/N
G    4 C1C L1C C5I L5I                                      SYS / # / OBS TYPES 
E    4 C1B L1B C5I L5I                                      SYS / # / OBS TYPES 
  2021     1     4    21    40   17.0000000     GPS         TIME OF FIRST OBS   
  2021     1     4    22    40   16.0000000     GPS         TIME OF LAST OBS    
G                                                           SYS / PHASE SHIFT   
E                                                           SYS / PHASE SHIFT   
  0                                                         GLONASS SLOT / FRQ #
 C1C    0.000 C1P    0.000 C2C    0.000 C2P    0.000        GLONASS COD/PHS/BIS 
                                                            END OF HEADER       
> 2021  1  4 21 40 17.0000000  0 13       0.000000000000
G 4  21874396.680   114950709.348    21874399.980    85839823.461  
G 7  21124407.240   111009508.711                                  
G 8  22914499.340   120416432.176    22914501.040    89921356.340  
G 9  20286771.020   106607660.809    20286771.760    79609620.617  
G14  24055315.760   126411506.0862                                 
G16  23732930.840   124717378.105                                  
G27  23090827.360   121343058.848    23090828.520    90613322.156  
G30  22619688.600   118867208.965    22619690.260    88764473.598  
E 7  24173918.080   127034757.414    24173924.300    94863608.395  
E19  26839588.260   141042952.5082   26839593.840   105324269.6132 
E21  26310570.300   138262941.262    26310576.940   103248289.598  
E27  23257410.180   122218492.438    23257415.560    91267049.719  
E30  24112396.540   126711471.125    24112402.160    94622194.324  
> 2021  1  4 21 40 18.0000000  0 13       0.000000000000
G 4  21874830.320   114952988.117    21874833.600    85841525.141  
G 7  21124264.700   111008759.605                                  
G 8  22914065.000   120414149.668    22914066.700    89919651.871  
G 9  20286816.180   106607898.164    20286816.920    79609797.863  
G14  24054628.600   126407894.9962                                 
G16  23733607.380   124720933.406                                  
G27  23090733.640   121342566.355    23090734.800    90612954.387  
G30  22619296.820   118865150.156    22619298.480    88762936.176  
E 7  24174210.380   127036293.473    24174216.600    94864755.449  
E19  26839091.020   141040339.5552   26839096.600   105322318.3872 
E21  26310106.980   138260506.535    26310113.620   103246471.457  
E27  23257345.060   122218150.230    23257350.420    91266794.176  
E30  24112804.900   126713617.129    24112810.520    94623796.859  
> 2021  1  4 21 40 19.0000000  0 13       0.000000000000
G 4  21875264.020   114955267.262    21875267.320    85843227.102  
G 7  21124122.180   111008010.707                                  
G 8  22913630.720   120411867.559    22913632.420    89917947.699  
G 9  20286861.440   106608136.027    20286862.180    79609975.488  
G14  24053941.460   126404284.0702                                 
G16  23734283.980   124724488.9302                                 
G27  23090640.040   121342074.496    23090641.200    90612587.086  
G30  22618905.080   118863091.504    22618906.720    88761398.871  
E 7  24174502.760   127037829.875    24174508.980    94865902.762  
E19  26838593.800   141037726.7032   26838599.400   105320367.2302 
E21  26309643.720   138258072.035    26309650.360   103244653.488  
E27  23257280.000   122217808.402    23257285.380    91266538.914  
E30  24113213.300   126715763.305    24113218.920    94625399.523  
> 2021  1  4 21 40 20.0000000  0 13       0.000000000000
G 4  21875697.800   114957546.781    21875701.100    85844929.336  
G 7  21123979.700   111007262.023                                  
G 8  22913196.520   120409585.816    22913198.220    89916243.801  
G 9  20286906.800   106608374.391    20286907.540    79610153.488  
G14  24053254.340   126400673.3012                                 
G16  23734960.620   124728044.6912                                 
G27  23090546.560   121341583.262    23090547.720    90612220.258  
G30  22618513.360   118861033.016    22618515.000    88759861.688  
E 7  24174795.180   127039366.602    24174801.400    94867050.316  
E19  26838096.600   141035113.8792   26838102.180   105318416.0942 
E21  26309180.480   138255637.746    26309187.120   103242835.676  
E27  23257215.020   122217466.941    23257220.400    91266283.926  
E30  24113621.740   126717909.645    24113627.360    94627002.309  
> 2021  1  4 21 40 21.0000000  0 13       0.000000000000
G 4  21876131.640   114959826.668    21876134.940    85846631.848  
G 7  21123837.260   111006513.523                                  
G 8  22912762.380   120407304.441    22912764.080    89914540.180  
G 9  20286952.260   106608613.250    20286953.000    79610331.855  
G14  24052567.260   126397062.6762                                 
G16  23735637.300   124731600.6802                                 
G27  23090453.200   121341092.680    23090454.360    90611853.914  
G30  22618121.680   118858974.699    22618123.320    88758324.633  
E 7  24175087.660   127040903.652    24175093.900    94868198.113  
E19  26837599.420   141032501.1412   26837605.000   105316465.0272 
E21  26308717.280   138253203.672    26308723.940   103241018.023  
E27  23257150.120   122217125.848    23257155.480    91266029.211  
E30  24114030.220   126720056.164    24114035.820    94628605.227  
> 2021  1  4 21 40 22.0000000  0 13       0.000000000000
G 4  21876565.560   114962106.930    21876568.860    85848334.641  
G 7  21123694.860   111005765.203                                  
G 8  22912328.320   120405023.449    22912330.020    89912836.844  
G 9  20286997.800   106608852.617    20286998.540    79610510.605  
G14  24051880.220   126393452.2152                                 
G16  23736314.020   124735156.9022                                 
G27  23090359.960   121340602.723    23090361.120    90611488.039  
G30  22617730.020   118856916.547    22617731.660    88756787.703  
E 7  24175380.220   127042441.043    24175386.440    94869346.164  
E19  26837102.240   141029888.4732   26837107.820   105314514.0122 
E21  26308254.140   138250769.820    26308260.780   103239200.535  
E27  23257085.280   122216785.117    23257090.640    91265774.770  
E30  24114438.700   126722202.852    24114444.320    94630208.270  
> 2021  1  4 21 40 23.0000000  0 13       0.000000000000
G 4  21876999.560   114964387.563    21877002.840    85850037.711  
G 7  21123552.500   111005017.090                                  
G 8  22911894.340   120402742.855    22911896.020    89911133.801  
G 9  20287043.440   106609092.492    20287044.180    79610689.730  
G14  24051193.200   126389841.9262                                 
G16  23736990.780   124738713.3552                                 
G27  23090266.860   121340113.406    23090268.000    90611122.641  
G30  22617338.400   118854858.555    22617340.040    88755250.891  
E 7  24175672.840   127043978.766    24175679.060    94870494.461  
E19  26836605.080   141027275.8752   26836610.660   105312563.0472 
E21  26307791.040   138248336.180    26307797.680   103237383.207  
E27  23257020.500   122216444.762    23257025.880    91265520.609  
E30  24114847.240   126724349.711    24114852.860    94631811.445  
> 2021  1  4 21 40 24.0000000  0 13       0.000000000000
G 4  21877433.600   114966668.559    21877436.900    85851741.051  
G 7  21123410.180   111004269.148                                  
G 8  22911460.420   120400462.621    22911462.120    89909431.031  
G 9  20287089.180   106609332.867    20287089.920    79610869.234  
G14  24050506.200   126386231.7502                                 
G16  23737667.600   124742270.0272                                 
G27  23090173.860   121339624.719    23090175.020    90610757.711  
G30  22616946.800   118852800.730    22616948.440    88753714.203  
E 7  24175965.520   127045516.813    24175971.740    94871643.004  
E19  26836107.920   141024663.3362   26836113.500   105310612.1252 
E21  26307327.960   138245902.750    26307334.600   103235566.039  
E27  23256955.800   122216104.766    23256961.180    91265266.715  
E30  24115255.800   126726496.730    24115261.420    94633414.738  
> 2021  1  4 21 40 25.0000000  0 13       0.000000000000
G 4  21877867.740   114968949.941    21877871.040    85853444.680  
G 7  21123267.880   111003521.410                                  
G 8  22911026.580   120398182.785    22911028.280    89907728.559  
G 9  20287135.020   106609573.754    20287135.760    79611049.113  
G14  24049819.240   126382621.7582                                 
G16  23738344.460   124745826.9382                                 
G27  23090080.980   121339136.676    23090082.140    90610393.262  
G30  22616555.240   118850743.066    22616556.880    88752177.637  
E 7  24176258.260   127047055.203    24176264.480    94872791.801  
E19  26835610.780   141022050.8712   26835616.360   105308661.2582 
E21  26306864.940   138243469.559    26306871.580   103233749.047  
E27  23256891.180   122215765.145    23256896.540    91265013.102  
E30  24115664.400   126728643.938    24115670.020    94635018.172  
> 2021  1  4 21 40 26.0000000  0 13       0.000000000000
G 4  21878301.940   114971231.680    21878305.240    85855148.574  
G 7  21123125.620   111002773.859                                  
G 8  22910592.820   120395903.336    22910594.500    89906026.375  
G 9  20287180.960   106609815.141    20287181.700    79611229.371  
G14  24049132.300   126379011.9062                                 
G16  23739021.360   124749384.0702                                 
G27  23089988.220   121338649.250    23089989.380    90610029.277  
G30  22616163.700   118848685.570    22616165.340    88750641.195  
E 7  24176551.060   127048593.914    24176557.280    94873940.840  
E19  26835113.660   141019438.4842   26835119.240   105306710.4492 
E21  26306401.960   138241036.566    26306408.600   103231932.199  
E27  23256826.620   122215425.887    23256831.980    91264759.762  
E30  24116073.040   126730791.301    24116078.640    94636621.723  
> 2021  1  4 21 40 27.0000000  0 13       0.000000000000
G 4  21878736.220   114973513.805    21878739.500    85856852.758  
G 7  21122983.400   111002026.500                                  
G 8  22910159.120   120393624.273    22910160.800    89904324.477  
G 9  20287226.980   106610057.039    20287227.720    79611410.012  
G14  24048445.400   126375402.2422                                 
G16  23739698.300   124752941.4452                                 
G27  23089895.600   121338162.473    23089896.740    90609665.777  
G30  22615772.200   118846628.246    22615773.840    88749104.883  
E 7  24176843.940   127050132.973    24176850.160    94875090.137  
E19  26834616.540   141016826.1562   26834622.120   105304759.6882 
E21  26305939.020   138238603.793    26305945.660   103230115.520  
E27  23256762.120   122215087.004    23256767.500    91264506.699  
E30  24116481.700   126732938.848    24116487.300    94638225.410  
> 2021  1  4 21 40 28.0000000  0 13       0.000000000000
G 4  21879170.560   114975796.285    21879173.840    85858557.207  
G 7  21122841.220   111001279.313                                  
G 8  22909725.500   120391345.586    22909727.180    89902622.859  
G 9  20287273.120   106610299.438    20287273.860    79611591.020  
G14  24047758.540   126371792.6992                                 
G16  23740375.280   124756499.0232                                 
G27  23089803.080   121337676.320    23089804.240    90609302.738  
G30  22615380.740   118844571.070    22615382.380    88747568.680  
E 7  24177136.860   127051672.344    24177143.100    94876239.664  
E19  26834119.440   141014213.8912   26834125.020   105302808.9732 
E21  26305476.100   138236171.242    26305482.760   103228299.004  
E27  23256697.700   122214748.473    23256703.080    91264253.902  
E30  24116890.380   126735086.559    24116896.000    94639829.219  
> 2021  1  4 21 40 29.0000000  0 13       0.000000000000
G 4  21879604.960   114978079.156    21879608.260    85860261.945  
G 7  21122699.060   111000532.328                                  
G 8  22909291.960   120389067.320    22909293.640    89900921.559  
G 9  20287319.340   106610542.340    20287320.080    79611772.410  
G14  24047071.700   126368183.3442                                 
G16  23741052.320   124760056.8322                                 
G27  23089710.680   121337190.809    23089711.840    90608940.180  
G30  22614989.300   118842514.066    22614990.940    88746032.609  
E 7  24177429.860   127053212.055    24177436.080    94877389.449  
E19  26833622.360   141011601.7072   26833627.940   105300858.3132 
E21  26305013.240   138233738.891    26305019.880   103226482.641  
E27  23256633.360   122214410.332    23256638.720    91264001.395  
E30  24117299.120   126737234.445    24117304.740    94641433.160  
> 2021  1  4 21 40 31.0000000  0 13       0.000000000000
G 4  21880474.020   114982645.859    21880477.300    85863672.207  
G 7  21122414.820   110999039.219                                  
G 8  22908425.100   120384511.613    22908426.780    89897519.594  
G 9  20287412.080   106611029.539    20287412.800    79612136.297  
G14  24045698.000   126360965.5552                                 
G16  23742406.420   124767173.570                                  
G27  23089526.280   121336221.703    23089527.380    90608216.633  
G30  22614206.520   118838400.527    22614208.140    88742960.938  
E 7  24178016.060   127056292.375    24178022.300    94879689.637  
E19  26832628.160   141006377.902    26832633.680   105296957.652  
E21  26304087.640   138228874.875    26304094.280   103222850.430  
E27  23256504.860   122213735.121    23256510.240    91263497.180  
E30  24118116.660   126741530.711    24118122.280    94644641.406  
> 2021  1  4 21 40 32.0000000  0 13       0.000000000000
G 4  21880908.660   114984929.836    21880911.940    85865377.773  
G 7  21122272.780   110998292.801                                  
G 8  22907991.760   120382234.410    22907993.440    89895819.086  
G 9  20287458.600   106611273.965    20287459.320    79612318.824  
G14  24045011.240   126357356.6522                                 
G16  23743083.580   124770732.066                                  
G27  23089434.240   121335738.082    23089435.360    90607855.488  
G30  22613815.180   118836344.016    22613816.800    88741425.230  
E 7  24178309.240   127057833.090    24178315.480    94880840.172  
E19  26832131.120   141003765.934    26832136.640   105295007.156  
E21  26303624.920   138226443.207    26303631.560   103221034.570  
E27  23256440.720   122213398.086    23256446.100    91263245.496  
E30  24118525.500   126743679.109    24118531.100    94646245.734  
> 2021  1  4 21 40 33.0000000  0 13       0.000000000000
G 4  21881343.360   114987214.176    21881346.640    85867083.609  
G 7  21122130.780   110997546.566                                  
G 8  22907558.500   120379957.578    22907560.180    89894118.855  
G 9  20287505.200   106611518.875    20287505.920    79612501.711  
G14  24044324.520   126353747.8952                                 
G16  23743760.780   124774290.773                                  
G27  23089342.340   121335255.109    23089343.460    90607494.828  
G30  22613423.880   118834287.660    22613425.480    88739889.641  
E 7  24178602.500   127059374.137    24178608.740    94881990.953  
E19  26831634.080   141001154.012    26831639.600   105293056.699  
E21  26303162.220   138224011.727    26303168.860   103219218.855  
E27  23256376.660   122213061.410    23256382.020    91262994.082  
E30  24118934.340   126745827.676    24118939.960    94647850.180  
> 2021  1  4 21 40 34.0000000  0 13       0.000000000000
G 4  21881778.120   114989498.879    21881781.400    85868789.719  
G 7  21121988.820   110996800.527                                  
G 8  22907125.300   120377681.129    22907126.980    89892418.910  
G 9  20287551.900   106611764.289    20287552.620    79612684.973  
G14  24043637.840   126350139.3092                                 
G16  23744438.020   124777849.699                                  
G27  23089250.560   121334772.773    23089251.680    90607134.645  
G30  22613032.600   118832231.469    22613034.200    88738354.172  
E 7  24178895.800   127060915.500    24178902.040    94883141.973  
E19  26831137.060   140998542.176    26831142.580   105291106.301  
E21  26302699.560   138221580.480    26302706.200   103217403.316  
E27  23256312.660   122212725.090    23256318.020    91262742.934  
E30  24119343.240   126747976.414    24119348.860    94649454.758  
> 2021  1  4 21 40 35.0000000  0 13       0.000000000000
G 4  21882212.960   114991783.965    21882216.240    85870496.117  
G 7  21121846.880   110996054.680                                  
G 8  22906692.180   120375405.086    22906693.880    89890719.270  
G 9  20287598.700   106612010.223    20287599.420    79612868.625  
G14  24042951.180   126346530.8792                                 
G16  23745115.320   124781408.871                                  
G27  23089158.880   121334291.070    23089160.000    90606774.930  
G30  22612641.340   118830175.441    22612642.960    88736818.828  
E 7  24179189.180   127062457.211    24179195.420    94884293.246  
E19  26830640.060   140995930.422    26830645.580   105289155.965  
E21  26302236.960   138219149.453    26302243.600   103215587.941  
E27  23256248.720   122212389.160    23256254.100    91262492.078  
E30  24119752.160   126750125.328    24119757.780    94651059.465  
> 2021  1  4 21 40 36.0000000  0 13       0.000000000000
G 4  21882647.860   114994069.410    21882651.140    85872202.777  
G 7  21121705.000   110995309.004                                  
G 8  22906259.140   120373129.410    22906260.820    89889019.902  
G 9  20287645.600   106612256.641    20287646.320    79613052.641  
G14  24042264.540   126342922.5822                                 
G16  23745792.640   124784968.254                                  
G27  23089067.340   121333809.984    23089068.460    90606415.680  
G30  22612250.120   118828119.574    22612251.740    88735283.602  
E 7  24179482.620   127063999.234    24179488.860    94885444.758  
E19  26830143.060   140993318.703    26830148.580   105287205.660  
E21  26301774.380   138216718.637    26301781.020   103213772.723  
E27  23256184.860   122212053.574    23256190.240    91262241.477  
E30  24120161.120   126752274.395    24120166.720    94652664.285  
> 2021  1  4 21 40 37.0000000  0 13       0.000000000000
G 4  21883082.840   114996355.250    21883086.140    85873909.734  
G 7  21121563.140   110994563.547                                  
G 8  22905826.180   120370854.148    22905827.860    89887320.844  
G 9  20287692.600   106612503.582    20287693.320    79613237.043  
G14  24041577.940   126339314.4772                                 
G16  23746470.020   124788527.871                                  
G27  23088975.920   121333329.555    23088977.040    90606056.918  
G30  22611858.940   118826063.887    22611860.560    88733748.512  
E 7  24179776.120   127065541.605    24179782.360    94886596.527  
E19  26829646.080   140990707.074    26829651.600   105285255.418  
E21  26301311.860   138214288.043    26301318.480   103211957.668  
E27  23256121.080   122211718.371    23256126.440    91261991.164  
E30  24120570.100   126754423.641    24120575.720    94654269.242  
> 2021  1  4 21 40 38.0000000  0 13       0.000000000000
G 4  21883517.900   114998641.441    21883521.180    85875616.957  
G 7  21121421.320   110993818.262                                  
G 8  22905393.280   120368579.230    22905394.960    89885622.047  
G 9  20287739.680   106612751.023    20287740.400    79613421.824  
G14  24040891.360   126335706.5002                                 
G16  23747147.440   124792087.711                                  
G27  23088884.620   121332849.754    23088885.740    90605698.625  
G30  22611467.780   118824008.344    22611469.400    88732213.531  
E 7  24180069.680   127067084.297    24180075.920    94887748.539  
E19  26829149.120   140988095.520    26829154.640   105283305.230  
E21  26300849.360   138211857.648    26300856.000   103210142.762  
E27  23256057.360   122211383.535    23256062.740    91261741.121  
E30  24120979.120   126756573.059    24120984.740    94655874.328  
> 2021  1  4 21 40 39.0000000  0 13       0.000000000000
G 4  21883953.020   115000928.016    21883956.300    85877324.461  
G 7  21121279.540   110993073.188                                  
G 8  22904960.460   120366304.730    22904962.140    89883923.555  
G 9  20287786.860   106612998.980    20287787.580    79613606.984  
G14  24040204.820   126332098.7032                                 
G16  23747824.900   124795647.785                                  
G27  23088793.440   121332370.602    23088794.560    90605340.816  
G30  22611076.660   118821952.973    22611078.280    88730678.676  
E 7  24180363.320   127068627.336    24180369.540    94888900.809  
E19  26828652.160   140985484.023    26828657.680   105281355.090  
E21  26300386.920   138209427.484    26300393.560   103208328.031  
E27  23255993.700   122211049.070    23255999.080    91261491.359  
E30  24121388.160   126758722.645    24121393.780    94657479.539  
> 2021  1  4 21 40 40.0000000  0 13       0.000000000000
G 4  21884388.220   115003214.957    21884391.500    85879032.242  
G 7  21121137.780   110992328.289                                  
G 8  22904527.700   120364030.598    22904529.380    89882225.340  
G 9  20287834.160   106613247.434    20287834.880    79613792.520  
G14  24039518.320   126328491.0352                                 
G16  23748502.400   124799208.082                                  
G27  23088702.380   121331892.070    23088703.500    90604983.473  
G30  22610685.580   118819897.777    22610687.180    88729143.953  
E 7  24180657.000   127070170.691    24180663.240    94890053.313  
E19  26828155.220   140982872.598    26828160.740   105279405.000  
E21  26299924.500   138206997.539    26299931.140   103206513.461  
E27  23255930.120   122210714.973    23255935.500    91261241.871  
E30  24121797.260   126760872.410    24121802.880    94659084.879  
> 2021  1  4 21 40 41.0000000  0 13       0.000000000000
G 4  21884823.480   115005502.273    21884826.760    85880740.301  
G 7  21120996.080   110991583.582                                  
G 8  22904095.020   120361756.844    22904096.700    89880527.410  
G 9  20287881.520   106613496.391    20287882.240    79613978.430  
G14  24038831.820   126324883.5392                                 
G16  23749179.960   124802768.594                                  
G27  23088611.440   121331414.188    23088612.560    90604626.613  
G30  22610294.520   118817842.730    22610296.120    88727609.340  
E 7  24180950.760   127071714.383    24180957.000    94891206.066  
E19  26827658.300   140980261.242    26827663.820   105277454.961  
E21  26299462.140   138204567.813    26299468.780   103204699.055  
E27  23255866.620   122210381.238    23255872.000    91260992.652  
E30  24122206.360   126763022.336    24122211.980    94660690.348  
> 2021  1  4 21 40 42.0000000  0 13       0.000000000000
G 4  21885258.820   115007789.961    21885262.100    85882448.641  
G 7  21120854.400   110990839.082                                  
G 8  22903662.420   120359483.477    22903664.100    89878829.766  
G 9  20287929.000   106613745.855    20287929.720    79614164.719  
G14  24038145.380   126321276.2072                                 
G16  23749857.540   124806329.348                                  
G27  23088520.640   121330936.934    23088521.740    90604270.223  
G30  22609903.480   118815787.855    22609905.100    88726074.859  
E 7  24181244.580   127073258.414    24181250.800    94892359.078  
E19  26827161.380   140977649.949    26827166.900   105275504.973  
E21  26298999.820   138202138.297    26299006.460   103202884.809  
E27  23255803.180   122210047.871    23255808.560    91260743.711  
E30  24122615.520   126765172.438    24122621.140    94662295.938  
> 2021  1  4 21 40 43.0000000  0 13       0.000000000000
G 4  21885694.220   115010078.016    21885697.500    85884157.250  
G 7  21120712.760   110990094.762                                  
G 8  22903229.880   120357210.484    22903231.560    89877132.402  
G 9  20287976.580   106613995.828    20287977.300    79614351.383  
G14  24037458.960   126317669.0202                                 
G16  23750535.180   124809890.324                                  
G27  23088429.940   121330460.316    23088431.060    90603914.309  
G30  22609512.500   118813733.152    22609514.100    88724540.500  
E 7  24181538.460   127074802.770    24181544.680    94893512.332  
E19  26826664.480   140975038.738    26826670.000   105273555.043  
E21  26298537.540   138199709.012    26298544.180   103201070.734  
E27  23255739.800   122209714.875    23255745.180    91260495.047  
E30  24123024.700   126767322.703    24123030.320    94663901.656  
> 2021  1  4 21 40 44.0000000  0 13       0.000000000000
G 4  21886129.700   115012366.449    21886132.980    85885866.145  
G 7  21120571.160   110989350.633                                  
G 8  22902797.420   120354937.875    22902799.100    89875435.328  
G 9  20288024.240   106614246.316    20288024.960    79614538.438  
G14  24036772.560   126314062.0082                                 
G16  23751212.860   124813451.516                                  
G27  23088339.360   121329984.332    23088340.480    90603558.863  
G30  22609121.520   118811678.602    22609123.140    88723006.258  
E 7  24181832.400   127076347.461    24181838.640    94894665.832  
E19  26826167.600   140972427.598    26826173.100   105271605.168  
E21  26298075.300   138197279.938    26298081.940   103199256.816  
E27  23255676.520   122209382.254    23255681.880    91260246.660  
E30  24123433.920   126769473.137    24123439.520    94665507.500  
> 2021  1  4 21 40 45.0000000  0 13       0.000000000000
G 4  21886565.240   115014655.242    21886568.520    85887575.309  
G 7  21120429.600   110988606.699                                  
G 8  22902365.040   120352665.656    22902366.720    89873738.539  
G 9  20288072.000   106614497.297    20288072.720    79614725.859  
G14  24036086.200   126310455.1412                                 
G16  23751890.580   124817012.938                                  
G27  23088248.900   121329508.984    23088250.020    90603203.898  
G30  22608730.600   118809624.223    22608732.200    88721472.148  
E 7  24182126.400   127077892.480    24182132.640    94895819.582  
E19  26825670.720   140969816.523    26825676.240   105269655.340  
E21  26297613.100   138194851.086    26297619.740   103197443.063  
E27  23255613.280   122209049.992    23255618.660    91259998.543  
E30  24123843.160   126771623.758    24123848.780    94667113.480  
> 2021  1  4 21 40 46.0000000  0 13       0.000000000000
G 4  21887000.860   115016944.418    21887004.140    85889284.758  
G 7  21120288.080   110987862.961                                  
G 8  22901932.720   120350393.824    22901934.400    89872042.043  
G 9  20288119.860   106614748.785    20288120.580    79614913.656  
G14  24035399.860   126306848.4222                                 
G16  23752568.340   124820574.586                                  
G27  23088158.580   121329034.277    23088159.700    90602849.410  
G30  22608339.700   118807570.016    22608341.300    88719938.160  
E 7  24182420.460   127079437.832    24182426.700    94896973.578  
E19  26825173.860   140967205.520    26825179.380   105267705.566  
E21  26297150.940   138192422.441    26297157.580   103195629.465  
E27  23255550.120   122208718.094    23255555.500    91259750.699  
E30  24124252.440   126773774.535    24124258.060    94668719.582  
> 2021  1  4 21 40 47.0000000  0 13       0.000000000000
G 4  21887436.540   115019233.961    21887439.840    85890994.480  
G 7  21120146.580   110987119.410                                  
G 8  22901500.480   120348122.383    22901502.160    89870345.840  
G 9  20288167.820   106615000.777    20288168.540    79615101.832  
G14  24034713.560   126303241.8792                                 
G16  23753246.140   124824136.461                                  
G27  23088068.360   121328560.203    23088069.480    90602495.391  
G30  22607948.820   118805515.969    22607950.420    88718404.297  
E 7  24182714.600   127080983.516    24182720.840    94898127.824  
E19  26824677.020   140964594.590    26824682.520   105265755.844  
E21  26296688.820   138189994.027    26296695.460   103193816.043  
E27  23255487.040   122208386.578    23255492.400    91259503.137  
E30  24124661.740   126775925.484    24124667.360    94670325.809  
> 2021  1  4 21 40 48.0000000  0 13       0.000000000000
G 4  21887872.300   115021523.883    21887875.600    85892704.484  
G 7  21120005.140   110986376.051                                  
G 8  22901068.320   120345851.344    22901070.000    89868649.934  
G 9  20288215.860   106615253.277    20288216.580    79615290.391  
G14  24034027.300   126299635.4882                                 
G16  23753923.980   124827698.559                                  
G27  23087978.280   121328086.766    23087979.380    90602141.852  
G30  22607557.980   118803462.070    22607559.580    88716870.543  
E 7  24183008.800   127082529.539    24183015.040    94899282.320  
E19  26824180.180   140961983.711    26824185.700   105263806.168  
E21  26296226.760   138187565.816    26296233.380   103192002.766  
E27  23255424.020   122208055.422    23255429.400    91259255.844  
E30  24125071.100   126778076.613    24125076.700    94671932.172  
> 2021  1  4 21 40 49.0000000  0 13       0.000000000000
G 4  21888308.140   115023814.164    21888311.420    85894414.762  
G 7  21119863.720   110985632.879                                  
G 8  22900636.220   120343580.668    22900637.900    89866954.301  
G 9  20288264.020   106615506.281    20288264.740    79615479.320  
G14  24033341.060   126296029.2542                                 
G16  23754601.880   124831260.883                                  
G27  23087888.300   121327613.961    23087889.420    90601788.785  
G30  22607167.160   118801408.348    22607168.780    88715336.918  
E 7  24183303.060   127084075.879    24183309.300    94900437.055  
E19  26823683.360   140959372.922    26823688.880   105261856.551  
E21  26295764.720   138185137.820    26295771.360   103190189.652  
E27  23255361.060   122207724.625    23255366.440    91259008.820  
E30  24125480.460   126780227.895    24125486.080    94673538.648  
> 2021  1  4 21 40 50.0000000  0 13       0.000000000000
G 4  21888744.040   115026104.828    21888747.320    85896125.320  
G 7  21119722.320   110984889.898                                  
G 8  22900204.200   120341310.367    22900205.880    89865258.949  
G 9  20288312.260   106615759.785    20288312.980    79615668.625  
G14  24032654.840   126292423.1762                                 
G16  23755279.820   124834823.430                                  
G27  23087798.460   121327141.801    23087799.580    90601436.195  
G30  22606776.400   118799354.801    22606778.000    88713803.426  
E 7  24183597.380   127085622.559    24183603.620    94901592.043  
E19  26823186.540   140956762.195    26823192.060   105259906.984  
E21  26295302.720   138182710.055    26295309.360   103188376.715  
E27  23255298.180   122207394.207    23255303.560    91258762.078  
E30  24125889.880   126782379.352    24125895.500    94675145.254  
> 2021  1  4 21 40 51.0000000  0 13       0.000000000000
G 4  21889180.000   115028395.852    21889183.300    85897836.148  
G 7  21119580.980   110984147.105                                  
G 8  22899772.240   120339040.445    22899773.920    89863563.879  
G 9  20288360.600   106616013.797    20288361.320    79615858.309  
G14  24031968.660   126288817.2662                                 
G16  23755957.780   124838386.195                                  
G27  23087708.720   121326670.273    23087709.840    90601084.082  
G30  22606385.640   118797301.398    22606387.260    88712270.043  
E 7  24183891.760   127087169.574    24183898.000    94902747.281  
E19  26822689.760   140954151.539    26822695.260   105257957.469  
E21  26294840.780   138180282.504    26294847.420   103186563.930  
E27  23255235.380   122207064.152    23255240.760    91258515.609  
E30  24126299.320   126784530.977    24126304.920    94676751.984  
> 2021  1  4 21 40 52.0000000  0 13       0.000000000000
G 4  21889616.040   115030687.246    21889619.340    85899547.254  
G 7  21119439.680   110983404.508                                  
G 8  22899340.360   120336770.902    22899342.040    89861869.090  
G 9  20288409.040   106616268.328    20288409.760    79616048.383  
G14  24031282.500   126285211.5122                                 
G16  23756635.800   124841949.203                                  
G27  23087619.120   121326199.383    23087620.240    90600732.441  
G30  22605994.940   118795248.180    22605996.540    88710736.793  
E 7  24184186.200   127088716.914    24184192.440    94903902.762  
E19  26822192.980   140951540.953    26822198.480   105256008.008  
E21  26294378.860   138177855.164    26294385.500   103184751.309  
E27  23255172.640   122206734.465    23255178.020    91258269.418  
E30  24126708.780   126786682.777    24126714.400    94678358.852  
> 2021  1  4 21 40 53.0000000  0 13       0.000000000000
G 4  21890052.160   115032979.020    21890055.440    85901258.645  
G 7  21119298.400   110982662.105                                  
G 8  22898908.560   120334501.742    22898910.240    89860174.590  
G 9  20288457.560   106616523.363    20288458.280    79616238.828  
G14  24030596.380   126281605.9022                                 
G16  23757313.860   124845512.426                                  
G27  23087529.640   121325729.117    23087530.760    90600381.273  
G30  22605604.240   118793195.105    22605605.860    88709203.656  
E 7  24184480.720   127090264.594    24184486.960    94905058.496  
E19  26821696.200   140948930.438    26821701.720   105254058.598  
E21  26293917.000   138175428.051    26293923.640   103182938.855  
E27  23255109.960   122206405.148    23255115.340    91258023.496  
E30  24127118.280   126788834.746    24127123.900    94679965.840  
> 2021  1  4 21 40 54.0000000  0 13       0.000000000000
G 4  21890488.340   115035271.168    21890491.620    85902970.309  
G 7  21119157.160   110981919.898                                  
G 8  22898476.840   120332232.988    22898478.500    89858480.391  
G 9  20288506.180   106616778.879    20288506.900    79616429.637  
G14  24029910.300   126278000.4652                                 
G16  23757991.980   124849075.871                                  
G27  23087440.280   121325259.500    23087441.380    90600030.586  
G30  22605213.600   118791142.211    22605215.200    88707670.648  
E 7  24184775.300   127091812.598    24184781.540    94906214.473  
E19  26821199.460   140946319.992    26821204.960   105252109.238  
E21  26293455.180   138173001.160    26293461.820   103181126.566  
E27  23255047.360   122206076.203    23255052.740    91257777.855  
E30  24127527.820   126790986.883    24127533.440    94681572.953  
> 2021  1  4 21 40 55.0000000  0 13       0.000000000000
G 4  21890924.600   115037563.684    21890927.880    85904682.254  
G 7  21119015.960   110981177.875                                  
G 8  22898045.180   120329964.609    22898046.860    89856786.473  
G 9  20288554.920   106617034.934    20288555.640    79616620.848  
G14  24029224.240   126274395.1882                                 
G16  23758670.120   124852639.539                                  
G27  23087351.020   121324790.520    23087352.140    90599680.371  
G30  22604822.980   118789089.477    22604824.580    88706137.766  
E 7  24185069.940   127093360.934    24185076.160    94907370.699  
E19  26820702.720   140943709.617    26820708.220   105250159.938  
E21  26292993.400   138170574.465    26293000.020   103179314.430  
E27  23254984.840   122205747.609    23254990.220    91257532.480  
E30  24127937.400   126793139.180    24127943.020    94683180.191  
> 2021  1  4 21 40 56.0000000  0 13       0.000000000000
G 4  21891360.920   115039856.566    21891364.200    85906394.473  
G 7  21118874.800   110980436.043                                  
G 8  22897613.600   120327696.629    22897615.280    89855092.852  
G 9  20288603.740   106617291.488    20288604.460    79616812.430  
G14  24028538.200   126270790.0592                                 
G16  23759348.320   124856203.445                                  
G27  23087261.900   121324322.164    23087263.020    90599330.625  
G30  22604432.380   118787036.902    22604434.000    88704605.000  
E 7  24185364.640   127094909.598    24185370.860    94908527.176  
E19  26820205.980   140941099.301    26820211.500   105248210.680  
E21  26292531.640   138168147.992    26292538.280   103177502.457  
E27  23254922.380   122205419.387    23254927.760    91257287.387  
E30  24128347.000   126795291.645    24128352.620    94684787.559  
> 2021  1  4 21 40 57.0000000  0 13       0.000000000000
G 4  21891797.320   115042149.828    21891800.600    85908106.973  
G 7  21118733.680   110979694.402                                  
G 8  22897182.080   120325429.043    22897183.760    89853399.527  
G 9  20288652.660   106617548.531    20288653.380    79617004.379  
G14  24027852.200   126267185.0982                                 
G16  23760026.540   124859767.566                                  
G27  23087172.900   121323854.461    23087174.020    90598981.367  
G30  22604041.820   118784984.500    22604043.440    88703072.363  
E 7  24185659.400   127096458.602    24185665.640    94909683.902  
E19  26819709.280   140938489.059    26819714.780   105246261.480  
E21  26292069.940   138165721.754    26292076.580   103175690.664  
E27  23254860.000   122205091.531    23254865.360    91257042.563  
E30  24128756.620   126797444.289    24128762.240    94686395.055  
> 2021  1  4 21 40 58.0000000  0 13       0.000000000000
G 4  21892233.780   115044443.457    21892237.060    85909819.746  
G 7  21118592.580   110978952.949                                  
G 8  22896750.660   120323161.840    22896752.340    89851706.488  
G 9  20288701.660   106617806.090    20288702.380    79617196.711  
G14  24027166.220   126263580.2772                                 
G16  23760704.820   124863331.910                                  
G27  23087084.020   121323387.391    23087085.140    90598632.582  
G30  22603651.300   118782932.258    22603652.900    88701539.844  
E 7  24185954.220   127098007.926    24185960.460    94910840.867  
E19  26819212.580   140935878.895    26819218.080   105244312.336  
E21  26291608.300   138163295.723    26291614.920   103173879.020  
E27  23254797.680   122204764.043    23254803.040    91256798.016  
E30  24129166.300   126799597.090    24129171.900    94688002.668  
> 2021  1  4 21 40 59.0000000  0 13       0.000000000000
G 4  21892670.320   115046737.449    21892673.600    85911532.789  
G 7  21118451.520   110978211.684                                  
G 8  22896319.300   120320895.031    22896320.980    89850013.742  
G 9  20288750.780   106618064.148    20288751.500    79617389.418  
G14  24026480.280   126259975.6372                                 
G16  23761383.140   124866896.484                                  
G27  23086995.260   121322920.953    23086996.380    90598284.266  
G30  22603260.800   118780880.180    22603262.420    88700007.449  
E 7  24186249.120   127099557.590    24186255.360    94911998.090  
E19  26818715.880   140933268.789    26818721.400   105242363.238  
E21  26291146.680   138160869.906    26291153.300   103172067.539  
E27  23254735.420   122204436.922    23254740.800    91256553.738  
E30  24129576.000   126801750.066    24129581.600    94689610.414  
> 2021  1  4 21 41  0.0000000  0 13       0.000000000000
G 4  21893106.920   115049031.828    21893110.200    85913246.125  
G 7  21118310.500   110977470.617                                  
G 8  22895888.000   120318628.590    22895889.680    89848321.270  
G 9  20288799.980   106618322.730    20288800.700    79617582.516  
G14  24025794.380   126256371.1482                                 
G16  23762061.500   124870461.270                                  
G27  23086906.640   121322455.152    23086907.740    90597936.430  
G30  22602870.340   118778828.277    22602871.940    88698475.188  
E 7  24186544.080   127101107.582    24186550.300    94913155.555  
E19  26818219.220   140930658.7732   26818224.720   105240414.2072 
E21  26290685.100   138158444.316    26290691.720   103170256.227  
E27  23254673.240   122204110.180    23254678.620    91256309.746  
E30  24129985.720   126803903.219    24129991.340    94691218.289  
> 2021  1  4 21 41  2.0000000  0 13       0.000000000000
G 4  21893980.340   115053621.688    21893983.640    85916673.613  
G 7  21118028.580   110975989.047                                  
G 8  22895025.640   120314096.824    22895027.320    89844937.164  
G 9  20288898.680   106618841.395    20288899.400    79617969.828  
G14  24024422.640   126249162.6482                                 
G16  23763418.340   124877591.531                                  
G27  23086729.720   121321525.480    23086730.840    90597242.195  
G30  22602089.500   118774724.949    22602091.120    88695411.012  
E 7  24187134.160   127104208.559    24187140.400    94915471.223  
E19  26817225.900   140925438.9222   26817231.420   105236516.2702 
E21  26289762.080   138153593.785    26289768.700   103166634.082  
E27  23254549.100   122203457.773    23254554.460    91255822.566  
E30  24130805.280   126808210.012    24130810.900    94694434.406  
> 2021  1  4 21 41  3.0000000  0 13       0.000000000000
G 4  21894417.160   115055917.176    21894420.460    85918387.777  
G 7  21117887.660   110975248.547                                  
G 8  22894594.560   120311831.508    22894596.240    89843245.531  
G 9  20288948.180   106619101.480    20288948.900    79618164.047  
G14  24023736.820   126245558.6332                                 
G16  23764096.840   124881157.000                                  
G27  23086641.440   121321061.590    23086642.560    90596895.785  
G30  22601699.140   118772673.523    22601700.740    88693879.105  
E 7  24187429.300   127105759.535    24187435.540    94916629.426  
E19  26816729.280   140922829.1092   26816734.780   105234567.3912 
E21  26289300.620   138151168.844    26289307.240   103164823.254  
E27  23254487.120   122203132.121    23254492.500    91255579.387  
E30  24131215.100   126810363.664    24131220.720    94696042.656  
> 2021  1  4 21 41  4.0000000  0 13       0.000000000000
G 4  21894854.060   115058213.031    21894857.340    85920102.215  
G 7  21117746.800   110974508.250                                  
G 8  22894163.580   120309566.590    22894165.240    89841554.203  
G 9  20288997.780   106619362.082    20288998.500    79618358.656  
G14  24023051.040   126241954.7852                                 
G16  23764775.360   124884722.684                                  
G27  23086553.300   121320598.336    23086554.420    90596549.848  
G30  22601308.800   118770622.281    22601310.400    88692347.336  
E 7  24187724.520   127107310.855    24187730.740    94917787.879  
E19  26816232.660   140920219.3632   26816238.160   105232618.5552 
E21  26288839.220   138148744.129    26288845.840   103163012.594  
E27  23254425.240   122202806.852    23254430.600    91255336.496  
E30  24131624.960   126812517.484    24131630.580    94697651.031  
> 2021  1  4 21 41  5.0000000  0 13       0.000000000000
G 4  21895291.020   115060509.266    21895294.300    85921816.941  
G 7  21117605.960   110973768.129                                  
G 8  22893732.640   120307302.051    22893734.320    89839863.152  
G 9  20289047.460   106619623.184    20289048.180    79618553.637  
G14  24022365.280   126238351.1052                                 
G16  23765453.940   124888288.594                                  
G27  23086465.260   121320135.719    23086466.380    90596204.395  
G30  22600918.480   118768571.188    22600920.100    88690815.680  
E 7  24188019.780   127108862.508    24188026.020    94918946.586  
E19  26815736.060   140917609.6912   26815741.560   105230669.7812 
E21  26288377.840   138146319.621    26288384.460   103161202.090  
E27  23254363.400   122202481.938    23254368.760    91255093.867  
E30  24132034.860   126814671.477    24132040.460    94699259.535  
> 2021  1  4 21 41  6.0000000  0 13       0.000000000000
G 4  21895728.060   115062805.863    21895731.340    85923531.938  
G 7  21117465.160   110973028.211                                  
G 8  22893301.800   120305037.906    22893303.460    89838172.402  
G 9  20289097.240   106619884.793    20289097.960    79618749.000  
G14  24021679.560   126234747.5662                                 
G16  23766132.560   124891854.730                                  
G27  23086377.360   121319673.742    23086378.460    90595859.414  
G30  22600528.220   118766520.270    22600529.820    88689284.152  
E 7  24188315.120   127110414.492    24188321.340    94920105.539  
E19  26815239.460   140915000.1022   26815244.960   105228721.0662 
E21  26287916.520   138143895.336    26287923.140   103159391.750  
E27  23254301.640   122202157.391    23254307.000    91254851.516  
E30  24132444.780   126816825.645    24132450.400    94700868.172  
> 2021  1  4 21 41  7.0000000  0 13       0.000000000000
G 4  21896165.160   115065102.836    21896168.440    85925247.211  
G 7  21117324.380   110972288.477                                  
G 8  22892871.020   120302774.133    22892872.680    89836481.926  
G 9  20289147.120   106620146.910    20289147.840    79618944.738  
G14  24020993.860   126231144.1912                                 
G16  23766811.200   124895421.074                                  
G27  23086289.560   121319212.395    23086290.680    90595514.906  
G30  22600137.960   118764469.504    22600139.560    88687752.742  
E 7  24188610.520   127111966.797    24188616.740    94921264.730  
E19  26814742.880   140912390.5662   26814748.380   105226772.3952 
E21  26287455.240   138141471.266    26287461.860   103157581.574  
E27  23254239.960   122201833.211    23254245.320    91254609.438  
E30  24132854.740   126818979.965    24132860.340    94702476.922  
> 2021  1  4 21 41  8.0000000  0 13       0.000000000000
G 4  21896602.320   115067400.172    21896605.600    85926962.758  
G 7  21117183.660   110971548.941                                  
G 8  22892440.300   120300510.746    22892441.980    89834791.742  
G 9  20289197.100   106620409.535    20289197.820    79619140.859  
G14  24020308.180   126227540.9732                                 
G16  23767489.900   124898987.652                                  
G27  23086201.900   121318751.691    23086203.000    90595170.879  
G30  22599747.760   118762418.914    22599749.360    88686221.465  
E 7  24188905.980   127113519.445    24188912.200    94922424.180  
E19  26814246.320   140909781.0982   26814251.820   105224823.7702 
E21  26286993.980   138139047.426    26287000.600   103155771.566  
E27  23254178.340   122201509.402    23254183.700    91254367.637  
E30  24133264.720   126821134.465    24133270.340    94704085.801  
> 2021  1  4 21 41  9.0000000  0 13       0.000000000000
G 4  21897039.560   115069697.879    21897042.840    85928678.578  
G 7  21117042.960   110970809.590                                  
G 8  22892009.680   120298247.754    22892011.340    89833101.852  
G 9  20289247.180   106620672.664    20289247.900    79619337.355  
G14  24019622.560   126223937.9262                                 
G16  23768168.660   124902554.461                                  
G27  23086114.360   121318291.625    23086115.460    90594827.328  
G30  22599357.580   118760368.477    22599359.160    88684690.297  
E 7  24189201.500   127115072.418    24189207.720    94923583.871  
E19  26813749.780   140907171.7192   26813755.260   105222875.2112 
E21  26286532.780   138136623.785    26286539.400   103153961.711  
E27  23254116.780   122201185.961    23254122.140    91254126.109  
E30  24133674.740   126823289.129    24133680.340    94705694.809  
> 2021  1  4 21 41 10.0000000  0 13       0.000000000000
G 4  21897476.880   115071995.973    21897480.160    85930394.691  
G 7  21116902.320   110970070.438                                  
G 8  22891579.120   120295985.145    22891580.780    89831412.246  
G 9  20289297.360   106620936.301    20289298.060    79619534.234  
G14  24018936.940   126220335.0202                                 
G16  23768847.440   124906121.484                                  
G27  23086026.940   121317832.215    23086028.040    90594484.266  
G30  22598967.420   118758318.203    22598969.020    88683159.254  
E 7  24189497.080   127116625.715    24189503.300    94924743.805  
E19  26813253.240   140904562.3912   26813258.720   105220926.6912 
E21  26286071.620   138134200.375    26286078.240   103152152.027  
E27  23254055.300   122200862.887    23254060.660    91253884.855  
E30  24134084.800   126825443.961    24134090.400    94707303.941  
> 2021  1  4 21 41 11.0000000  0 13       0.000000000000
G 4  21897914.260   115074294.426    21897917.540    85932111.070  
G 7  21116761.700   110969331.473                                  
G 8  22891148.640   120293722.934    22891150.300    89829722.938  
G 9  20289347.620   106621200.449    20289348.340    79619731.488  
G14  24018251.360   126216732.2542                                 
G16  23769526.260   124909688.730                                  
G27  23085939.620   121317373.422    23085940.740    90594141.668  
G30  22598577.300   118756268.109    22598578.900    88681628.344  
E 7  24189792.720   127118179.359    24189798.940    94925903.996  
E19  26812756.700   140901953.1522   26812762.200   105218978.2382 
E21  26285610.500   138131777.184    26285617.120   103150342.508  
E27  23253993.900   122200540.176    23253999.260    91253643.875  
E30  24134494.880   126827598.961    24134500.480    94708913.195  
> 2021  1  4 21 41 12.0000000  0 13       0.000000000000
G 4  21898351.720   115076593.250    21898355.000    85933827.730  
G 7  21116621.120   110968592.695                                  
G 8  22890718.220   120291461.098    22890719.880    89828033.910  
G 9  20289397.980   106621465.090    20289398.700    79619929.113  
G14  24017565.820   126213129.6762                                 
G16  23770205.140   124913256.195                                  
G27  23085852.440   121316915.273    23085853.560    90593799.547  
G30  22598187.220   118754218.168    22598188.800    88680097.547  
E 7  24190088.440   127119733.320    24190094.660    94927064.426  
E19  26812260.200   140899343.9652   26812265.700   105217029.8242 
E21  26285149.420   138129354.215    26285156.040   103148533.152  
E27  23253932.560   122200217.832    23253937.920    91253403.168  
E30  24134905.000   126829754.129    24134910.600    94710522.578  
> 2021  1  4 21 41 13.0000000  0 13       0.000000000000
G 4  21898789.240   115078892.453    21898792.520    85935544.668  
G 7  21116480.560   110967854.113                                  
G 8  22890287.880   120289199.664    22890289.540    89826345.180  
G 9  20289448.440   106621730.242    20289449.140    79620127.121  
G14  24016880.300   126209527.2662                                 
G16  23770884.040   124916823.891                                  
G27  23085765.380   121316457.758    23085766.500    90593457.898  
G30  22597797.160   118752168.395    22597798.740    88678566.875  
E 7  24190384.200   127121287.617    24190390.420    94928225.105  
E19  26811763.700   140896734.8672   26811769.200   105215081.4772 
E21  26284688.380   138126931.441    26284695.000   103146723.941  
E27  23253871.280   122199895.852    23253876.640    91253162.734  
E30  24135315.140   126831909.461    24135320.740    94712132.086  
> 2021  1  4 21 41 14.0000000  0 13       0.000000000000
G 4  21899226.840   115081192.020    21899230.120    85937261.883  
G 7  21116340.060   110967115.723                                  
G 8  22889857.620   120286938.625    22889859.280    89824656.746  
G 9  20289499.000   106621995.898    20289499.700    79620325.508  
G14  24016194.820   126205925.0162                                 
G16  23771563.000   124920391.801                                  
G27  23085678.440   121316000.887    23085679.560    90593116.730  
G30  22597407.120   118750118.797    22597408.720    88677036.336  
E 7  24190680.040   127122842.254    24190686.260    94929386.039  
E19  26811267.220   140894125.8362   26811272.700   105213133.1842 
E21  26284227.400   138124508.895    26284234.000   103144914.902  
E27  23253810.080   122199574.250    23253815.440    91252922.578  
E30  24135725.320   126834064.973    24135730.920    94713741.723  
> 2021  1  4 21 41 15.0000000  0 13       0.000000000000
G 4  21899664.500   115083491.961    21899667.780    85938979.375  
G 7  21116199.580   110966377.523                                  
G 8  22889427.440   120284677.949    22889429.080    89822968.586  
G 9  20289549.640   106622262.070    20289550.360    79620524.273  
G14  24015509.360   126202322.9222                                 
G16  23772242.000   124923959.938                                  
G27  23085591.620   121315544.637    23085592.740    90592776.031  
G30  22597017.140   118748069.344    22597018.720    88675505.906  
E 7  24190975.940   127124397.215    24190982.160    94930547.215  
E19  26810770.740   140891516.8712   26810776.240   105211184.9342 
E21  26283766.440   138122086.578    26283773.060   103143106.035  
E27  23253748.960   122199253.008    23253754.320    91252682.695  
E30  24136135.540   126836220.648    24136141.140    94715351.484  
> 2021  1  4 21 41 16.0000000  0 13       0.000000000000
G 4  21900102.240   115085792.258    21900105.520    85940697.133  
G 7  21116059.140   110965639.504                                  
G 8  22888997.320   120282417.672    22888998.980    89821280.723  
G 9  20289600.400   106622528.746    20289601.100    79620723.418  
G14  24014823.940   126198720.9882                                 
G16  23772921.040   124927528.297                                  
G27  23085504.940   121315089.031    23085506.040    90592435.809  
G30  22596627.160   118746020.066    22596628.760    88673975.605  
E 7  24191271.900   127125952.516    24191278.120    94931708.645  
E19  26810274.300   140888907.9842   26810279.780   105209236.7422 
E21  26283305.540   138119664.480    26283312.140   103141297.328  
E27  23253687.900   122198932.137    23253693.260    91252443.086  
E30  24136545.780   126838376.488    24136551.380    94716961.367  
> 2021  1  4 21 41 17.0000000  0 13       0.000000000000
G 4  21900540.040   115088092.945    21900543.320    85942415.180  
G 7  21115918.740   110964901.676                                  
G 8  22888567.280   120280157.777    22888568.920    89819593.145  
G 9  20289651.240   106622795.926    20289651.940    79620922.938  
G14  24014138.540   126195119.2192                                 
G16  23773600.120   124931096.871                                  
G27  23085418.360   121314634.055    23085419.460    90592096.059  
G30  22596237.240   118743970.945    22596238.820    88672445.426  
E 7  24191567.940   127127508.129    24191574.140    94932870.309  
E19  26809777.860   140886299.1642   26809783.340   105207288.6022 
E21  26282844.660   138117242.586    26282851.260   103139488.777  
E27  23253626.900   122198611.625    23253632.260    91252203.750  
E30  24136956.040   126840532.492    24136961.640    94718571.375  
> 2021  1  4 21 41 18.0000000  0 13       0.000000000000
G 4  21900977.920   115090393.996    21900981.200    85944133.500  
G 7  21115778.380   110964164.055                                  
G 8  22888137.300   120277898.285    22888138.960    89817905.867  
G 9  20289702.180   106623063.617    20289702.880    79621122.844  
G14  24013453.180   126191517.5942                                 
G16  23774279.240   124934665.672                                  
G27  23085331.900   121314179.734    23085333.000    90591756.801  
G30  22595847.340   118741922.008    22595848.920    88670915.375  
E 7  24191864.020   127129064.090    24191870.240    94934032.230  
E19  26809281.420   140883690.4182   26809286.900   105205340.5202 
E21  26282383.840   138114820.926    26282390.440   103137680.398  
E27  23253565.980   122198291.488    23253571.340    91251964.691  
E30  24137366.360   126842688.672    24137371.960    94720181.512  
> 2021  1  4 21 41 19.0000000  0 13       0.000000000000
G 4  21901415.880   115092695.410    21901419.140    85945852.094  
G 7  21115638.060   110963426.609                                  
G 8  22887707.420   120275639.188    22887709.060    89816218.883  
G 9  20289753.220   106623331.805    20289753.920    79621323.117  
G14  24012767.860   126187916.1372                                 
G16  23774958.400   124938234.695                                  
G27  23085245.560   121313726.043    23085246.660    90591418.008  
G30  22595457.460   118739873.207    22595459.060    88669385.434  
E 7  24192160.180   127130620.379    24192166.380    94935194.398  
E19  26808785.000   140881081.7382   26808790.480   105203392.4842 
E21  26281923.040   138112399.473    26281929.660   103135872.172  
E27  23253505.140   122197971.711    23253510.480    91251725.898  
E30  24137776.700   126844845.012    24137782.300    94721791.770  
> 2021  1  4 21 41 20.0000000  0 13       0.000000000000
G 4  21901853.900   115094997.207    21901857.160    85947570.973  
G 7  21115497.760   110962689.375                                  
G 8  22887277.600   120273380.449    22887279.240    89814532.168  
G 9  20289804.360   106623600.504    20289805.060    79621523.773  
G14  24012082.540   126184314.8402                                 
G16  23775637.620   124941803.941                                  
G27  23085159.360   121313272.996    23085160.460    90591079.695  
G30  22595067.620   118737824.586    22595069.220    88667855.621  
E 7  24192456.380   127132177.000    24192462.600    94936356.813  
E19  26808288.600   140878473.1412   26808294.080   105201444.5122 
E21  26281462.300   138109978.258    26281468.900   103134064.129  
E27  23253444.360   122197652.313    23253449.700    91251487.391  
E30  24138187.060   126847001.527    24138192.660    94723402.156  
> 2021  1  4 21 41 21.0000000  0 13       0.000000000000
G 4  21902291.980   115097299.371    21902295.260    85949290.121  
G 7  21115357.500   110961952.320                                  
G 8  22886847.840   120271122.109    22886849.500    89812845.750  
G 9  20289855.580   106623869.715    20289856.280    79621724.813  
G14  24011397.280   126180713.7072                                 
G16  23776316.860   124945373.422                                  
G27  23085073.260   121312820.582    23085074.360    90590741.863  
G30  22594677.820   118735776.133    22594679.400    88666325.941  
E 7  24192752.660   127133733.957    24192758.880    94937519.480  
E19  26807792.220   140875864.6212   26807797.700   105199496.5942 
E21  26281001.600   138107557.246    26281008.200   103132256.238  
E27  23253383.640   122197333.281    23253389.000    91251249.156  
E30  24138597.460   126849158.219    24138603.060    94725012.676  
> 2021  1  4 21 41 22.0000000  0 13       0.000000000000
G 4  21902730.140   115099601.902    21902733.420    85951009.547  
G 7  21115217.300   110961215.461                                  
G 8  22886418.180   120268864.148    22886419.820    89811159.617  
G 9  20289906.900   106624139.430    20289907.600    79621926.227  
G14  24010712.040   126177112.7272                                 
G16  23776996.160   124948943.125                                  
G27  23084987.300   121312368.813    23084988.400    90590404.504  
G30  22594288.040   118733727.852    22594289.640    88664796.383  
E 7  24193049.000   127135291.238    24193055.220    94938682.391  
E19  26807295.840   140873256.1482   26807301.320   105197548.7152 
E21  26280540.940   138105136.449    26280547.540   103130448.504  
E27  23253323.000   122197014.609    23253328.360    91251011.191  
E30  24139007.900   126851315.059    24139013.500    94726623.309  
> 2021  1  4 21 41 23.0000000  0 13       0.000000000000
G 4  21903168.380   115101904.809    21903171.640    85952729.254  
G 7  21115077.100   110960478.789                                  
G 8  22885988.580   120266606.594    22885990.220    89809473.785  
G 9  20289958.340   106624409.652    20289959.040    79622128.020  
G14  24010026.820   126173511.9102                                 
G16  23777675.500   124952513.031                                  
G27  23084901.460   121311917.676    23084902.540    90590067.621  
G30  22593898.300   118731679.723    22593899.880    88663266.941  
E 7  24193345.420   127136848.855    24193351.620    94939845.547  
E19  26806799.480   140870647.7622   26806804.960   105195600.8982 
E21  26280080.320   138102715.871    26280086.920   103128640.934  
E27  23253262.440   122196696.309    23253267.780    91250773.504  
E30  24139418.380   126853472.074    24139423.960    94728234.070  
> 2021  1  4 21 41 24.0000000  0 13       0.000000000000
G 4  21903606.680   115104208.090    21903609.940    85954449.238  
G 7  21114936.960   110959742.313                                  
G 8  22885559.060   120264349.422    22885560.700    89807788.238  
G 9  20290009.860   106624680.379    20290010.560    79622330.191  
G14  24009341.640   126169911.2702                                 
G16  23778354.860   124956083.164                                  
G27  23084815.720   121311467.176    23084816.820    90589731.215  
G30  22593508.580   118729631.750    22593510.180    88661737.617  
E 7  24193641.880   127138406.805    24193648.100    94941008.953  
E19  26806303.140   140868039.4492   26806308.620   105193653.1372 
E21  26279619.740   138100295.512    26279626.340   103126833.527  
E27  23253201.940   122196378.375    23253207.280    91250536.090  
E30  24139828.880   126855629.266    24139834.460    94729844.965  
> 2021  1  4 21 41 25.0000000  0 13       0.000000000000
G 4  21904045.040   115106511.730    21904048.320    85956169.492  
G 7  21114796.860   110959006.027                                  
G 8  22885129.600   120262092.637    22885131.240    89806102.984  
G 9  20290061.460   106624951.617    20290062.160    79622532.742  
G14  24008656.500   126166310.7852                                 
G16  23779034.300   124959653.531                                  
G27  23084730.120   121311017.309    23084731.220    90589395.277  
G30  22593118.900   118727583.957    22593120.480    88660208.422  
E 7  24193938.420   127139965.078    24193944.620    94942172.602  
E19  26805806.800   140865431.2072   26805812.280   105191705.4302 
E21  26279159.200   138097875.398    26279165.800   103125026.301  
E27  23253141.500   122196060.805    23253146.840    91250298.949  
E30  24140239.400   126857786.617    24140245.000    94731455.973  
> 2021  1  4 21 41 26.0000000  0 13       0.000000000000
G 4  21904483.500   115108815.723    21904486.760    85957890.004  
G 7  21114656.760   110958270.051                                  
G 8  22884700.220   120259836.234    22884701.860    89804418.023  
G 9  20290113.180   106625223.359    20290113.880    79622735.676  
G14  24007971.360   126162710.5662                                 
G16  23779713.760   124963224.117                                  
G27  23084644.620   121310568.168    23084645.700    90589059.941  
G30  22592729.260   118725536.293    22592730.840    88658679.320  
E 7  24194235.020   127141523.637    24194241.240    94943336.430  
E19  26805310.440   140862823.320    26805315.860   105189758.145  
E21  26278698.700   138095455.484    26278705.300   103123219.227  
E27  23253081.140   122195743.609    23253086.480    91250062.082  
E30  24140649.980   126859944.109    24140655.560    94733067.070  
> 2021  1  4 21 41 27.0000000  0 13       0.000000000000
G 4  21904922.020   115111120.125    21904925.280    85959610.820  
G 7  21114516.720   110957534.145                                  
G 8  22884270.920   120257580.223    22884272.560    89802733.340  
G 9  20290165.000   106625495.613    20290165.680    79622938.984  
G14  24007286.260   126159110.4142                                 
G16  23780393.260   124966794.922                                  
G27  23084559.260   121310119.598    23084560.340    90588724.969  
G30  22592339.640   118723488.836    22592341.220    88657150.375  
E 7  24194531.680   127143082.582    24194537.880    94944500.574  
E19  26804814.120   140860215.230    26804819.560   105187810.547  
E21  26278238.260   138093035.789    26278244.840   103121412.313  
E27  23253020.840   122195426.781    23253026.200    91249825.488  
E30  24141060.560   126862101.805    24141066.160    94734678.336  
> 2021  1  4 21 41 28.0000000  0 13       0.000000000000
G 4  21905360.600   115113424.891    21905363.860    85961331.910  
G 7  21114376.720   110956798.434                                  
G 8  22883841.680   120255324.578    22883843.320    89801048.934  
G 9  20290216.900   106625768.383    20290217.600    79623142.676  
G14  24006601.220   126155510.4222                                 
G16  23781072.800   124970365.945                                  
G27  23084474.020   121309671.660    23084475.100    90588390.469  
G30  22591950.060   118721441.531    22591951.640    88655621.547  
E 7  24194828.400   127144641.863    24194834.600    94945664.973  
E19  26804317.840   140857607.203    26804323.260   105185862.992  
E21  26277777.840   138090616.324    26277784.440   103119605.570  
E27  23252960.620   122195110.320    23252965.960    91249589.172  
E30  24141471.180   126864259.664    24141476.780    94736289.723  
> 2021  1  4 21 41 29.0000000  0 13       0.000000000000
G 4  21905799.240   115115730.012    21905802.520    85963053.270  
G 7  21114236.760   110956062.906                                  
G 8  22883412.520   120253069.309    22883414.160    89799364.801  
G 9  20290268.900   106626041.633    20290269.600    79623346.723  
G14  24005916.180   126151910.5702                                 
G16  23781752.380   124973937.180                                  
G27  23084388.900   121309224.344    23084389.980    90588056.438  
G30  22591560.500   118719394.383    22591562.080    88654092.828  
E 7  24195125.180   127146201.461    24195131.380    94946829.609  
E19  26803821.560   140854999.246    26803826.980   105183915.492  
E21  26277317.460   138088197.059    26277324.060   103117798.977  
E27  23252900.460   122194794.219    23252905.820    91249353.117  
E30  24141881.840   126866417.688    24141887.440    94737901.230  
> 2021  1  4 21 41 30.0000000  0 13       0.000000000000
G 4  21906237.960   115118035.516    21906241.240    85964774.910  
G 7  21114096.820   110955327.574                                  
G 8  22882983.440   120250814.449    22882985.060    89797680.980  
G 9  20290321.000   106626315.414    20290321.700    79623551.172  
G14  24005231.180   126148310.8752                                 
G16  23782432.020   124977508.648                                  
G27  23084303.900   121308777.684    23084304.980    90587722.891  
G30  22591170.980   118717347.418    22591172.560    88652564.254  
E 7  24195422.020   127147761.398    24195428.240    94947994.496  
E19  26803325.280   140852391.371    26803330.720   105181968.059  
E21  26276857.140   138085778.023    26276863.740   103115992.555  
E27  23252840.380   122194478.484    23252845.720    91249117.344  
E30  24142292.540   126868575.883    24142298.140    94739512.871  
> 2021  1  4 21 41 31.0000000  0 13       0.000000000000
G 4  21906676.760   115120341.395    21906680.040    85966496.832  
G 7  21113956.940   110954592.438                                  
G 8  22882554.420   120248559.984    22882556.060    89795997.453  
G 9  20290373.180   106626589.691    20290373.880    79623755.988  
G14  24004546.220   126144711.3592                                 
G16  23783111.680   124981080.348                                  
G27  23084219.040   121308331.652    23084220.100    90587389.816  
G30  22590781.480   118715300.613    22590783.060    88651035.793  
E 7  24195718.920   127149321.664    24195725.140    94949159.629  
E19  26802829.040   140849783.563    26802834.460   105180020.668  
E21  26276396.840   138083359.195    26276403.440   103114186.285  
E27  23252780.380   122194163.117    23252785.720    91248881.844  
E30  24142703.260   126870734.246    24142708.860    94741124.633  
> 2021  1  4 21 41 33.0000000  0 13       0.000000000000
G 4  21907554.560   115124954.258    21907557.840    85969941.500  
G 7  21113677.260   110953122.723                                  
G 8  22881696.620   120244052.223    22881698.260    89792631.270  
G 9  20290477.860   106627139.789    20290478.560    79624166.773  
G14  24003176.380   126137512.8052                                 
G16  23784471.160   124988224.383                                  
G27  23084049.640   121307441.523    23084050.720    90586725.109  
G30  22590002.580   118711207.480    22590004.160    88647979.234  
E 7  24196312.920   127152443.195    24196319.140    94951490.641  
E19  26801836.580   140844568.168    26801842.000   105176126.059  
E21  26275476.400   138078522.219    26275483.000   103110574.258  
E27  23252660.560   122193533.496    23252665.900    91248411.672  
E30  24143524.800   126875051.469    24143530.400    94744348.535  
> 2021  1  4 21 41 34.0000000  0 13       0.000000000000
G 4  21907993.560   115127261.238    21907996.840    85971664.246  
G 7  21113537.480   110952388.152                                  
G 8  22881267.840   120241798.926    22881269.460    89790948.613  
G 9  20290530.340   106627415.582    20290531.040    79624372.727  
G14  24002491.500   126133913.7702                                 
G16  23785150.940   124991796.734                                  
G27  23083965.140   121306997.414    23083966.220    90586393.469  
G30  22589613.180   118709161.160    22589614.760    88646451.141  
E 7  24196610.020   127154004.457    24196616.240    94952656.520  
E19  26801340.360   140841960.578    26801345.800   105174178.832  
E21  26275016.240   138076104.055    26275022.840   103108768.488  
E27  23252600.760   122193219.230    23252606.100    91248176.992  
E30  24143935.620   126877210.328    24143941.220    94745960.668  
> 2021  1  4 21 41 35.0000000  0 13       0.000000000000
G 4  21908432.640   115129568.605    21908435.920    85973387.277  
G 7  21113397.720   110951653.777                                  
G 8  22880839.120   120239546.020    22880840.760    89789266.250  
G 9  20290582.940   106627691.902    20290583.620    79624579.070  
G14  24001806.660   126130314.8952                                 
G16  23785830.780   124995369.305                                  
G27  23083880.740   121306553.930    23083881.820    90586062.297  
G30  22589223.800   118707115.012    22589225.380    88644923.176  
E 7  24196907.180   127155566.051    24196913.400    94953822.645  
E19  26800844.160   140839353.063    26800849.600   105172231.664  
E21  26274556.120   138073686.105    26274562.700   103106962.879  
E27  23252541.020   122192905.340    23252546.360    91247942.594  
E30  24144346.460   126879369.363    24144352.060    94747572.934  
> 2021  1  4 21 41 36.0000000  0 13       0.000000000000
G 4  21908871.780   115131876.332    21908875.060    85975110.578  
G 7  21113258.020   110950919.598                                  
G 8  22880410.480   120237293.512    22880412.120    89787584.184  
G 9  20290635.600   106627968.715    20290636.300    79624785.777  
G14  24001121.840   126126716.1802                                 
G16  23786510.660   124998942.109                                  
G27  23083796.480   121306111.098    23083797.540    90585731.609  
G30  22588834.460   118705069.027    22588836.040    88643395.328  
E 7  24197204.400   127157127.977    24197210.620    94954989.016  
E19  26800347.980   140836745.621    26800353.420   105170284.547  
E21  26274096.040   138071268.391    26274102.620   103105157.441  
E27  23252481.360   122192591.809    23252486.700    91247708.465  
E30  24144757.340   126881528.559    24144762.940    94749185.320  
> 2021  1  4 21 41 37.0000000  0 13       0.000000000000
G 4  21909311.000   115134184.430    21909314.280    85976834.156  
G 7  21113118.340   110950185.598                                  
G 8  22879981.920   120235041.379    22879983.540    89785902.395  
G 9  20290688.380   106628246.035    20290689.080    79624992.867  
G14  24000437.060   126123117.6172                                 
G16  23787190.600   125002515.125                                  
G27  23083712.320   121305668.891    23083713.400    90585401.391  
G30  22588445.160   118703023.211    22588446.740    88641867.609  
E 7  24197501.700   127158690.230    24197507.920    94956155.633  
E19  26799851.820   140834138.250    26799857.260   105168337.488  
E21  26273636.000   138068850.871    26273642.580   103103352.152  
E27  23252421.760   122192278.641    23252427.100    91247474.605  
E30  24145168.260   126883687.918    24145173.860    94750797.828  
> 2021  1  4 21 41 38.0000000  0 13       0.000000000000
G 4  21909750.300   115136492.902    21909753.560    85978558.016  
G 7  21112978.700   110949451.801                                  
G 8  22879553.420   120232789.641    22879555.060    89784220.906  
G 9  20290741.240   106628523.867    20290741.940    79625200.340  
G14  23999752.320   126119519.2382                                 
G16  23787870.560   125006088.371                                  
G27  23083628.300   121305227.332    23083629.380    90585071.656  
G30  22588055.880   118700977.563    22588057.460    88640340.016  
E 7  24197799.040   127160252.816    24197805.260    94957322.500  
E19  26799355.660   140831530.949    26799361.100   105166390.477  
E21  26273176.000   138066433.590    26273182.600   103101547.039  
E27  23252362.240   122191965.844    23252367.580    91247241.023  
E30  24145579.200   126885847.445    24145584.800    94752410.461  
> 2021  1  4 21 41 39.0000000  0 13       0.000000000000
G 4  21910189.660   115138801.734    21910192.920    85980282.145  
G 7  21112839.100   110948718.191                                  
G 8  22879125.000   120230538.297    22879126.640    89782539.707  
G 9  20290794.220   106628802.211    20290794.920    79625408.195  
G14  23999067.580   126115921.0042                                 
G16  23788550.560   125009661.828                                  
G27  23083544.400   121304786.414    23083545.480    90584742.398  
G30  22587666.640   118698932.059    22587668.220    88638812.527  
E 7  24198096.460   127161815.730    24198102.680    94958489.609  
E19  26798859.520   140828923.707    26798864.960   105164443.512  
E21  26272716.040   138064016.520    26272722.640   103099742.086  
E27  23252302.780   122191653.410    23252308.120    91247007.715  
E30  24145990.160   126888007.133    24145995.760    94754023.215  
> 2021  1  4 21 41 40.0000000  0 13       0.000000000000
G 4  21910629.080   115141110.941    21910632.360    85982006.551  
G 7  21112699.540   110947984.762                                  
G 8  22878696.660   120228287.336    22878698.300    89780858.797  
G 9  20290847.280   106629081.066    20290847.980    79625616.430  
G14  23998382.900   126112322.9492                                 
G16  23789230.620   125013235.512                                  
G27  23083460.620   121304346.129    23083461.680    90584413.613  
G30  22587277.420   118696886.738    22587279.000    88637285.180  
E 7  24198393.920   127163378.980    24198400.140    94959656.973  
E19  26798363.400   140826316.555    26798368.820   105162496.613  
E21  26272256.120   138061599.676    26272262.720   103097937.301  
E27  23252243.380   122191341.348    23252248.740    91246774.680  
E30  24146401.180   126890167.000    24146406.780    94755636.102  
> 2021  1  4 21 41 41.0000000  0 13       0.000000000000
G 4  21911068.580   115143420.535    21911071.860    85983731.246  
G 7  21112560.000   110947251.535                                  
G 8  22878268.380   120226036.766    22878270.020    89779178.176  
G 9  20290900.440   106629360.410    20290901.140    79625825.031  
G14  23997698.240   126108725.0592                                 
G16  23789910.700   125016809.406                                  
G27  23083376.940   121303906.480    23083378.020    90584085.305  
G30  22586888.240   118694841.582    22586889.820    88635757.953  
E 7  24198691.460   127164942.555    24198697.680    94960824.578  
E19  26797867.280   140823709.469    26797872.700   105160549.766  
E21  26271796.260   138059183.035    26271802.840   103096132.668  
E27  23252184.080   122191029.652    23252189.420    91246541.922  
E30  24146812.220   126892327.031    24146817.820    94757249.113  
> 2021  1  4 21 41 42.0000000  0 13       0.000000000000
G 4  21911508.140   115145730.477    21911511.420    85985456.203  
G 7  21112420.520   110946518.496                                  
G 8  22877840.200   120223786.602    22877841.820    89777497.863  
G 9  20290953.700   106629640.270    20290954.380    79626034.016  
G14  23997013.620   126105127.3092                                 
G16  23790590.840   125020383.523                                  
G27  23083293.420   121303467.488    23083294.480    90583757.488  
G30  22586499.100   118692796.586    22586500.680    88634230.848  
E 7  24198989.060   127166506.469    24198995.280    94961992.434  
E19  26797371.180   140821102.477    26797376.620   105158602.984  
E21  26271336.420   138056766.629    26271343.020   103094328.207  
E27  23252124.820   122190718.320    23252130.180    91246309.430  
E30  24147223.280   126894487.230    24147228.880    94758862.246  
> 2021  1  4 21 41 43.0000000  0 13       0.000000000000
G 4  21911947.780   115148040.801    21911951.060    85987181.441  
G 7  21112281.060   110945785.652                                  
G 8  22877412.080   120221536.824    22877413.700    89775817.832  
G 9  20291007.040   106629920.641    20291007.740    79626243.387  
G14  23996329.020   126101529.7232                                 
G16  23791271.020   125023957.855                                  
G27  23083210.000   121303029.121    23083211.060    90583430.137  
G30  22586109.980   118690751.766    22586111.560    88632703.871  
E 7  24199286.720   127168070.711    24199292.940    94963160.535  
E19  26796875.100   140818495.527    26796880.520   105156656.238  
E21  26270876.640   138054350.438    26270883.240   103092523.910  
E27  23252065.660   122190407.355    23252071.000    91246077.215  
E30  24147634.380   126896647.590    24147639.980    94760475.500  
> 2021  1  4 21 41 44.0000000  0 13       0.000000000000
G 4  21912387.500   115150351.484    21912390.780    85988906.953  
G 7  21112141.640   110945052.996                                  
G 8  22876984.020   120219287.418    22876985.660    89774138.082  
G 9  20291060.500   106630201.516    20291061.200    79626453.133  
G14  23995644.460   126097932.3132                                 
G16  23791951.240   125027532.406                                  
G27  23083126.700   121302591.387    23083127.760    90583103.258  
G30  22585720.900   118688707.090    22585722.480    88631177.004  
E 7  24199584.460   127169635.285    24199590.680    94964328.887  
E19  26796379.020   140815888.664    26796384.440   105154709.555  
E21  26270416.880   138051934.457    26270423.480   103090719.770  
E27  23252006.540   122190096.758    23252011.880    91245845.277  
E30  24148045.520   126898808.121    24148051.120    94762088.883  
> 2021  1  4 21 41 45.0000000  0 13       0.000000000000
G 4  21912827.280   115152662.551    21912830.560    85990632.750  
G 7  21112002.260   110944320.527                                  
G 8  22876556.060   120217038.406    22876557.680    89772458.629  
G 9  20291114.040   106630482.902    20291114.740    79626663.254  
G14  23994959.920   126094335.0552                                 
G16  23792631.480   125031107.180                                  
G27  23083043.520   121302154.305    23083044.600    90582776.863  
G30  22585331.840   118686662.590    22585333.420    88629650.266  
E 7  24199882.240   127171200.195    24199888.460    94965497.488  
E19  26795882.960   140813281.863    26795888.380   105152762.922  
E21  26269957.180   138049518.695    26269963.780   103088915.793  
E27  23251947.500   122189786.527    23251952.860    91245613.613  
E30  24148456.680   126900968.820    24148462.280    94763702.391  
> 2021  1  4 21 41 46.0000000  0 13       0.000000000000
G 4  21913267.140   115154973.977    21913270.400    85992358.813  
G 7  21111862.900   110943588.242                                  
G 8  22876128.160   120214789.777    22876129.780    89770779.457  
G 9  20291167.680   106630764.777    20291168.380    79626873.746  
G14  23994275.420   126090737.9612                                 
G16  23793311.780   125034682.172                                  
G27  23082960.460   121301717.852    23082961.540    90582450.941  
G30  22584942.800   118684618.234    22584944.380    88628123.637  
E 7  24200180.100   127172765.430    24200186.320    94966666.332  
E19  26795386.920   140810675.152    26795392.340   105150816.352  
E21  26269497.520   138047103.164    26269504.120   103087111.984  
E27  23251888.540   122189476.656    23251893.880    91245382.215  
E30  24148867.880   126903129.680    24148873.480    94765316.020  
> 2021  1  4 21 41 47.0000000  0 13       0.000000000000
G 4  21913707.060   115157285.777    21913710.320    85994085.156  
G 7  21111723.600   110942856.160                                  
G 8  22875700.320   120212541.543    22875701.960    89769100.582  
G 9  20291221.420   106631047.188    20291222.120    79627084.637  
G14  23993590.940   126087141.0272                                 
G16  23793992.120   125038257.371                                  
G27  23082877.540   121301282.051    23082878.620    90582125.504  
G30  22584553.820   118682574.059    22584555.400    88626597.145  
E 7  24200478.020   127174331.000    24200484.240    94967835.430  
E19  26794890.880   140808068.504    26794896.320   105148869.832  
E21  26269037.900   138044687.836    26269044.500   103085308.336  
E27  23251829.640   122189167.160    23251834.980    91245151.102  
E30  24149279.120   126905290.711    24149284.720    94766929.777  
> 2021  1  4 21 41 48.0000000  0 13       0.000000000000
G 4  21914147.040   115159597.938    21914150.320    85995811.770  
G 7  21111584.320   110942124.258                                  
G 8  22875272.580   120210293.703    22875274.200    89767422.000  
G 9  20291275.260   106631330.090    20291275.960    79627295.895  
G14  23992906.500   126083544.2502                                 
G16  23794672.500   125041832.797                                  
G27  23082794.720   121300846.883    23082795.800    90581800.543  
G30  22584164.860   118680530.047    22584166.420    88625070.773  
E 7  24200776.000   127175896.883    24200782.220    94969004.762  
E19  26794394.860   140805461.918    26794400.300   105146923.359  
E21  26268578.320   138042272.738    26268584.920   103083504.859  
E27  23251770.820   122188858.016    23251776.160    91244920.250  
E30  24149690.360   126907451.891    24149695.980    94768543.652  
> 2021  1  4 21 41 49.0000000  0 13       0.000000000000
G 4  21914587.100   115161910.484    21914590.380    85997538.672  
G 7  21111445.080   110941392.555                                  
G 8  22874844.900   120208046.262    22874846.540    89765743.719  
G 9  20291329.180   106631613.512    20291329.880    79627507.543  
G14  23992222.080   126079947.6482                                 
G16  23795352.940   125045408.445                                  
G27  23082712.040   121300412.348    23082713.120    90581476.055  
G30  22583775.920   118678486.199    22583777.500    88623544.523  
E 7  24201074.040   127177463.105    24201080.260    94970174.348  
E19  26793898.860   140802855.426    26793904.300   105144976.957  
E21  26268118.780   138039857.855    26268125.380   103081701.543  
E27  23251712.060   122188549.254    23251717.400    91244689.684  
E30  24150101.660   126909613.250    24150107.260    94770157.660  
> 2021  1  4 21 41 50.0000000  0 13       0.000000000000
G 4  21915027.240   115164223.395    21915030.520    85999265.844  
G 7  21111305.880   110940661.055                                  
G 8  22874417.300   120205799.180    22874418.920    89764065.703  
G 9  20291383.220   106631897.434    20291383.920    79627719.563  
G14  23991537.700   126076351.2152                                 
G16  23796033.400   125048984.313                                  
G27  23082629.460   121299978.449    23082630.540    90581152.039  
G30  22583387.020   118676442.531    22583388.600    88622018.406  
E 7  24201372.140   127179029.668    24201378.360    94971344.184  
E19  26793402.880   140800249.000    26793408.300   105143030.609  
E21  26267659.280   138037443.184    26267665.880   103079898.383  
E27  23251653.380   122188240.852    23251658.720    91244459.387  
E30  24150512.980   126911774.777    24150518.580    94771771.789  
> 2021  1  4 21 41 51.0000000  0 13       0.000000000000
G 4  21915467.440   115166536.684    21915470.720    86000993.297  
G 7  21111166.720   110939929.742                                  
G 8  22873989.760   120203552.488    22873991.400    89762387.984  
G 9  20291437.340   106632181.863    20291438.040    79627931.961  
G14  23990853.340   126072754.9222                                 
G16  23796713.900   125052560.398                                  
G27  23082547.020   121299545.203    23082548.100    90580828.512  
G30  22582998.160   118674399.012    22582999.740    88620492.402  
E 7  24201670.320   127180596.559    24201676.520    94972514.270  
E19  26792906.900   140797642.645    26792912.340   105141084.305  
E21  26267199.840   138035028.750    26267206.420   103078095.402  
E27  23251594.760   122187932.816    23251600.100    91244229.363  
E30  24150924.340   126913936.465    24150929.940    94773386.039  
> 2021  1  4 21 41 52.0000000  0 13       0.000000000000
G 4  21915907.720   115168850.332    21915911.000    86002721.023  
G 7  21111027.580   110939198.621                                  
G 8  22873562.300   120201306.207    22873563.940    89760710.566  
G 9  20291491.560   106632466.805    20291492.260    79628144.742  
G14  23990169.040   126069158.8092                                 
G16  23797394.460   125056136.695                                  
G27  23082464.700   121299112.594    23082465.780    90580505.461  
G30  22582609.320   118672355.652    22582610.900    88618966.520  
E 7  24201968.540   127182163.785    24201974.760    94973684.602  
E19  26792410.940   140795036.340    26792416.360   105139138.047  
E21  26266740.420   138032614.516    26266747.000   103076292.566  
E27  23251536.200   122187625.145    23251541.540    91243999.613  
E30  24151335.740   126916098.324    24151341.320    94775000.414  
> 2021  1  4 21 41 53.0000000  0 13       0.000000000000
G 4  21916348.060   115171164.352    21916351.340    86004449.023  
G 7  21110888.500   110938467.688                                  
G 8  22873134.920   120199060.316    22873136.560    89759033.438  
G 9  20291545.880   106632752.242    20291546.580    79628357.895  
G14  23989484.740   126065562.8552                                 
G16  23798075.040   125059713.207                                  
G27  23082382.500   121298680.617    23082383.580    90580182.879  
G30  22582220.500   118670312.461    22582222.080    88617440.762  
E 7  24202266.840   127183731.332    24202273.060    94974855.176  
E19  26791915.000   140792430.160    26791920.420   105137191.879  
E21  26266281.040   138030200.516    26266287.640   103074489.910  
E27  23251477.720   122187317.836    23251483.060    91243770.133  
E30  24151747.160   126918260.340    24151752.740    94776614.914  
> 2021  1  4 21 41 54.0000000  0 13       0.000000000000
G 4  21916788.480   115173478.746    21916791.740    86006177.301  
G 7  21110749.440   110937736.949                                  
G 8  22872707.620   120196814.820    22872709.260    89757356.609  
G 9  20291600.300   106633038.184    20291601.000    79628571.422  
G14  23988800.480   126061967.0632                                 
G16  23798755.680   125063289.930                                  
G27  23082300.420   121298249.281    23082301.500    90579860.777  
G30  22581831.740   118668269.445    22581833.320    88615915.133  
E 7  24202565.200   127185299.207    24202571.400    94976026.000  
E19  26791419.080   140789824.012    26791424.480   105135245.734  
E21  26265821.720   138027786.730    26265828.300   103072687.414  
E27  23251419.320   122187010.898    23251424.660    91243540.934  
E30  24152158.600   126920422.535    24152164.200    94778229.543  
> 2021  1  4 21 41 55.0000000  0 13       0.000000000000
G 4  21917228.960   115175793.496    21917232.240    86007905.848  
G 7  21110610.420   110937006.395                                  
G 8  22872280.400   120194569.715    22872282.020    89755680.070  
G 9  20291654.800   106633324.637    20291655.500    79628785.328  
G14  23988116.260   126058371.4412                                 
G16  23799436.340   125066866.887                                  
G27  23082218.460   121297818.586    23082219.540    90579539.156  
G30  22581442.980   118666226.578    22581444.560    88614389.617  
E 7  24202863.620   127186867.414    24202869.820    94977197.066  
E19  26790923.160   140787217.957    26790928.580   105133299.656  
E21  26265362.420   138025373.148    26265369.020   103070885.066  
E27  23251360.980   122186704.324    23251366.320    91243312.000  
E30  24152570.080   126922584.887    24152575.680    94779844.289  
> 2021  1  4 21 41 56.0000000  0 13       0.000000000000
G 4  21917669.520   115178108.625    21917672.780    86009634.680  
G 7  21110471.440   110936276.035                                  
G 8  22871853.240   120192325.008    22871854.880    89754003.832  
G 9  20291709.420   106633611.602    20291710.100    79628999.625  
G14  23987432.060   126054775.9732                                 
G16  23800117.060   125070444.074                                  
G27  23082136.620   121297388.527    23082137.700    90579218.008  
G30  22581054.280   118664183.879    22581055.860    88612864.223  
E 7  24203162.100   127188435.961    24203168.320    94978368.387  
E19  26790427.240   140784611.945    26790432.660   105131353.613  
E21  26264903.180   138022959.801    26264909.760   103069082.898  
E27  23251302.720   122186398.117    23251308.040    91243083.344  
E30  24152981.600   126924747.406    24152987.200    94781459.160  
> 2021  1  4 21 41 57.0000000  0 13       0.000000000000
G 4  21918110.140   115180424.125    21918113.420    86011363.785  
G 7  21110332.480   110935545.852                                  
G 8  22871426.160   120190080.703    22871427.800    89752327.891  
G 9  20291764.120   106633899.082    20291764.820    79629214.297  
G14  23986747.900   126051180.6682                                 
G16  23800797.820   125074021.480                                  
G27  23082054.900   121296959.113    23082055.980    90578897.344  
G30  22580665.600   118662141.352    22580667.180    88611338.961  
E 7  24203460.640   127190004.836    24203466.860    94979539.949  
E19  26789931.360   140782006.035    26789936.780   105129407.648  
E21  26264443.980   138020546.668    26264450.560   103067280.887  
E27  23251244.520   122186092.273    23251249.840    91242854.957  
E30  24153393.140   126926910.086    24153398.740    94783074.152  
> 2021  1  4 21 41 58.0000000  0 13       0.000000000000
G 4  21918550.840   115182739.996    21918554.100    86013093.168  
G 7  21110193.580   110934815.867                                  
G 8  22870999.160   120187836.785    22871000.780    89750652.238  
G 9  20291818.920   106634187.055    20291819.620    79629429.344  
G14  23986063.760   126047585.5232                                 
G16  23801478.620   125077599.098                                  
G27  23081973.320   121296530.332    23081974.380    90578577.148  
G30  22580276.940   118660098.988    22580278.520    88609813.816  
E 7  24203759.260   127191574.031    24203765.460    94980711.758  
E19  26789435.480   140779400.188    26789440.900   105127461.727  
E21  26263984.820   138018133.762    26263991.400   103065479.043  
E27  23251186.380   122185786.801    23251191.720    91242626.852  
E30  24153804.720   126929072.930    24153810.320    94784689.266  
> 2021  1  4 21 41 59.0000000  0 13       0.000000000000
G 4  21918991.600   115185056.238    21918994.880    86014822.828  
G 7  21110054.700   110934086.078                                  
G 8  22870572.220   120185593.258    22870573.860    89748976.879  
G 9  20291873.820   106634475.543    20291874.520    79629644.773  
G14  23985379.660   126043990.5552                                 
G16  23802159.460   125081176.941                                  
G27  23081891.840   121296102.188    23081892.920    90578257.430  
G30  22579888.320   118658056.773    22579889.900    88608288.789  
E 7  24204057.920   127193143.563    24204064.140    94981883.816  
E19  26788939.620   140776794.422    26788945.040   105125515.867  
E21  26263525.700   138015721.063    26263532.280   103063677.359  
E27  23251128.320   122185481.691    23251133.660    91242399.012  
E30  24154216.320   126931235.945    24154221.920    94786304.508  
> 2021  1  4 21 42  0.0000000  0 13       0.000000000000
G 4  21919432.440   115187372.840    21919435.720    86016552.758  
G 7  21109915.860   110933356.477                                  
G 8  22870145.380   120183350.125    22870147.000    89747301.813  
G 9  20291928.800   106634764.539    20291929.500    79629860.582  
G14  23984695.600   126040395.7272                                 
G16  23802840.340   125084755.023                                  
G27  23081810.480   121295674.699    23081811.560    90577938.203  
G30  22579499.740   118656014.742    22579501.320    88606763.898  
E 7  24204356.660   127194713.426    24204362.880    94983056.117  
E19  26788443.760   140774188.719    26788449.180   105123570.055  
E21  26263066.620   138013308.594    26263073.200   103061875.844  
E27  23251070.340   122185176.949    23251075.660    91242171.449  
E30  24154627.960   126933399.125    24154633.560    94787919.875  
> 2021  1  4 21 42  1.0000000  0 13       0.000000000000
G 4  21919873.340   115189689.832    21919876.620    86018282.977  
G 7  21109777.060   110932627.066                                  
G 8  22869718.600   120181107.375    22869720.220    89745627.031  
G 9  20291983.900   106635054.047    20291984.600    79630076.773  
G14  23984011.560   126036801.0822                                 
G16  23803521.280   125088333.313                                  
G27  23081729.260   121295247.836    23081730.340    90577619.441  
G30  22579111.180   118653972.863    22579112.760    88605239.117  
E 7  24204655.460   127196283.625    24204661.660    94984228.672  
E19  26787947.940   140771583.090    26787953.340   105121624.301  
E21  26262607.580   138010896.344    26262614.160   103060074.492  
E27  23251012.420   122184872.574    23251017.740    91241944.160  
E30  24155039.640   126935562.477    24155045.240    94789535.363  
> 2021  1  4 21 42  2.0000000  0 13       0.000000000000
G 4  21920314.320   115192007.180    21920317.600    86020013.465  
G 7  21109638.300   110931897.848                                  
G 8  22869291.880   120178865.023    22869293.520    89743952.551  
G 9  20292039.080   106635344.059    20292039.780    79630293.340  
G14  23983327.540   126033206.6092                                 
G16  23804202.240   125091911.828                                  
G27  23081648.160   121294821.613    23081649.220    90577301.156  
G30  22578722.660   118651931.156    22578724.240    88603714.465  
E 7  24204954.320   127197854.156    24204960.540    94985401.477  
E19  26787452.120   140768977.535    26787457.520   105119678.598  
E21  26262148.580   138008484.309    26262155.160   103058273.305  
E27  23250954.560   122184568.566    23250959.880    91241717.145  
E30  24155451.340   126937725.984    24155456.940    94791150.977  
> 2021  1  4 21 42  4.0000000  0 13       0.000000000000
G 4  21921196.500   115196642.996    21921199.760    86023475.273  
G 7  21109360.880   110930439.977                                  
G 8  22868438.680   120174381.449    22868440.320    89740604.430  
G 9  20292149.760   106635925.621    20292150.460    79630727.621  
G14  23981959.620   126026018.1292                                 
G16  23805564.300   125099069.496                                  
G27  23081486.300   121293971.113    23081487.380    90576666.043  
G30  22577945.700   118647848.246    22577947.280    88600665.539  
E 7  24205552.240   127200996.207    24205558.440    94987747.816  
E19  26786460.520   140763766.660    26786465.920   105115787.367  
E21  26261230.720   138003660.898    26261237.300   103054671.410  
E27  23250839.060   122183961.648    23250844.400    91241263.930  
E30  24156274.840   126942053.504    24156280.440    94794382.566  
> 2021  1  4 21 42  5.0000000  0 13       0.000000000000
G 4  21921637.680   115198961.449    21921640.960    86025206.586  
G 7  21109222.220   110929711.328                                  
G 8  22868012.200   120172140.254    22868013.840    89738930.813  
G 9  20292205.240   106636217.156    20292205.940    79630945.328  
G14  23981275.700   126022424.1292                                 
G16  23806245.400   125102648.652                                  
G27  23081405.560   121293546.813    23081406.640    90576349.199  
G30  22577557.280   118645807.012    22577558.840    88599141.242  
E 7  24205851.280   127202567.715    24205857.500    94988921.348  
E19  26785964.740   140761161.320    26785970.140   105113841.824  
E21  26260771.860   138001249.527    26260778.420   103052870.715  
E27  23250781.420   122183658.738    23250786.760    91241037.734  
E30  24156686.640   126944217.512    24156692.220    94795998.551  
> 2021  1  4 21 42  6.0000000  0 13       0.000000000000
G 4  21922078.940   115201280.277    21922082.220    86026938.176  
G 7  21109083.600   110928982.879                                  
G 8  22867585.800   120169899.461    22867587.420    89737257.492  
G 9  20292260.800   106636509.203    20292261.500    79631163.418  
G14  23980591.820   126018830.3092                                 
G16  23806926.540   125106228.016                                  
G27  23081324.940   121293123.148    23081326.020    90576032.824  
G30  22577168.880   118643765.973    22577170.440    88597617.090  
E 7  24206150.400   127204139.570    24206156.600    94990095.141  
E19  26785468.980   140758556.078    26785474.380   105111896.355  
E21  26260313.020   137998838.363    26260319.600   103051070.176  
E27  23250723.860   122183356.191    23250729.180    91240811.813  
E30  24157098.460   126946381.684    24157104.060    94797614.656  
> 2021  1  4 21 42  7.0000000  0 13       0.000000000000
G 4  21922520.260   115203599.473    21922523.540    86028670.039  
G 7  21108945.000   110928254.609                                  
G 8  22867159.460   120167659.059    22867161.080    89735584.469  
G 9  20292316.480   106636801.762    20292317.180    79631381.883  
G14  23979907.980   126015236.6522                                 
G16  23807607.700   125109807.594                                  
G27  23081244.440   121292700.117    23081245.520    90575716.926  
G30  22576780.500   118641725.082    22576782.080    88596093.051  
E 7  24206449.580   127205711.750    24206455.780    94991269.172  
E19  26784973.220   140755950.895    26784978.620   105109950.930  
E21  26259854.240   137996427.434    26259860.820   103049269.813  
E27  23250666.340   122183054.016    23250671.680    91240586.164  
E30  24157510.320   126948546.020    24157515.920    94799230.887  
> 2021  1  4 21 42  8.0000000  0 13       0.000000000000
G 4  21922961.660   115205919.051    21922964.940    86030402.195  
G 7  21108806.460   110927526.539                                  
G 8  22866733.200   120165419.063    22866734.820    89733911.742  
G 9  20292372.240   106637094.824    20292372.940    79631600.730  
G14  23979224.160   126011643.1452                                 
G16  23808288.920   125113387.395                                  
G27  23081164.080   121292277.754    23081165.140    90575401.523  
G30  22576392.180   118639684.367    22576393.740    88594569.141  
E 7  24206748.820   127207284.266    24206755.020    94992443.457  
E19  26784477.480   140753345.789    26784482.880   105108005.566  
E21  26259395.500   137994016.719    26259402.060   103047469.609  
E27  23250608.920   122182752.203    23250614.240    91240360.789  
E30  24157922.220   126950710.527    24157927.800    94800847.242  
> 2021  1  4 21 42  9.0000000  0 13       0.000000000000
G 4  21923403.140   115208238.984    21923406.420    86032134.613  
G 7  21108667.960   110926798.656                                  
G 8  22866307.020   120163179.449    22866308.640    89732239.305  
G 9  20292428.120   106637388.391    20292428.800    79631819.953  
G14  23978540.360   126008049.8132                                 
G16  23808970.180   125116967.406                                  
G27  23081083.820   121291856.012    23081084.880    90575086.586  
G30  22576003.860   118637643.824    22576005.440    88593045.359  
E 7  24207048.120   127208857.109    24207054.320    94993617.988  
E19  26783981.760   140750740.762    26783987.160   105106060.258  
E21  26258936.800   137991606.219    26258943.360   103045669.563  
E27  23250551.560   122182450.758    23250556.880    91240135.688  
E30  24158334.140   126952875.191    24158339.720    94802463.715  
> 2021  1  4 21 42 10.0000000  0 13       0.000000000000
G 4  21923844.680   115210559.301    21923847.960    86033867.316  
G 7  21108529.480   110926070.969                                  
G 8  22865880.900   120160940.211    22865882.520    89730567.148  
G 9  20292484.080   106637682.473    20292484.780    79632039.559  
G14  23977856.600   126004456.6452                                 
G16  23809651.460   125120547.633                                  
G27  23081003.680   121291434.910    23081004.760    90574772.129  
G30  22575615.600   118635603.430    22575617.160    88591521.688  
E 7  24207347.480   127210430.289    24207353.680    94994792.770  
E19  26783486.060   140748135.797    26783491.460   105104114.996  
E21  26258478.140   137989195.961    26258484.700   103043869.699  
E27  23250494.260   122182149.680    23250499.580    91239910.859  
E30  24158746.100   126955040.027    24158751.680    94804080.316  
> 2021  1  4 21 42 11.0000000  0 13       0.000000000000
G 4  21924286.280   115212879.980    21924289.560    86035600.289  
G 7  21108391.040   110925343.465                                  
G 8  22865454.860   120158701.379    22865456.500    89728895.297  
G 9  20292540.140   106637977.055    20292540.820    79632259.539  
G14  23977172.880   126000863.6252                                 
G16  23810332.800   125124128.070                                  
G27  23080923.680   121291014.453    23080924.740    90574458.152  
G30  22575227.360   118633563.211    22575228.920    88589998.148  
E 7  24207646.920   127212003.789    24207653.120    94995967.789  
E19  26782990.360   140745530.910    26782995.760   105102169.797  
E21  26258019.520   137986785.898    26258026.080   103042069.980  
E27  23250437.040   122181848.957    23250442.360    91239686.297  
E30  24159158.080   126957205.020    24159163.660    94805697.035  
> 2021  1  4 21 42 12.0000000  0 13       0.000000000000
G 4  21924727.980   115215201.031    21924731.240    86037333.539  
G 7  21108252.640   110924616.156                                  
G 8  22865028.900   120156462.949    22865030.540    89727223.742  
G 9  20292596.280   106638272.152    20292596.980    79632479.902  
G14  23976489.180   125997270.7812                                 
G16  23811014.180   125127708.727                                  
G27  23080843.780   121290594.633    23080844.860    90574144.648  
G30  22574839.140   118631523.133    22574840.720    88588474.715  
E 7  24207946.400   127213577.625    24207952.600    94997143.059  
E19  26782494.680   140742926.098    26782500.080   105100224.648  
E21  26257560.940   137984376.059    26257567.500   103040270.430  
E27  23250379.880   122181548.602    23250385.200    91239462.012  
E30  24159570.100   126959370.184    24159575.680    94807313.879  
> 2021  1  4 21 42 13.0000000  0 13       0.000000000000
G 4  21925169.720   115217522.445    21925173.000    86039067.063  
G 7  21108114.260   110923889.031                                  
G 8  22864603.020   120154224.883    22864604.640    89725552.461  
G 9  20292652.540   106638567.750    20292653.240    79632700.641  
G14  23975805.520   125993678.1052                                 
G16  23811695.600   125131289.598                                  
G27  23080764.020   121290175.445    23080765.080    90573831.621  
G30  22574450.960   118629483.238    22574452.540    88586951.418  
E 7  24208245.960   127215151.793    24208252.160    94998318.578  
E19  26781999.020   140740321.348    26782004.420   105098279.547  
E21  26257102.400   137981966.441    26257108.960   103038471.043  
E27  23250322.800   122181248.617    23250328.120    91239238.000  
E30  24159982.160   126961535.508    24159987.720    94808930.848  
> 2021  1  4 21 42 14.0000000  0 13       0.000000000000
G 4  21925611.540   115219844.230    21925614.820    86040800.863  
G 7  21107975.940   110923162.102                                  
G 8  22864177.200   120151987.195    22864178.820    89723881.461  
G 9  20292708.880   106638863.859    20292709.580    79632921.762  
G14  23975121.880   125990085.5902                                 
G16  23812377.060   125134870.676                                  
G27  23080684.360   121289756.910    23080685.440    90573519.078  
G30  22574062.820   118627443.512    22574064.380    88585428.246  
E 7  24208545.580   127216726.289    24208551.780    94999494.340  
E19  26781503.360   140737716.699    26781508.760   105096334.520  
E21  26256643.920   137979557.063    26256650.480   103036671.836  
E27  23250265.780   122180949.000    23250271.100    91239014.266  
E30  24160394.240   126963701.004    24160399.800    94810547.941  
> 2021  1  4 21 42 15.0000000  0 13       0.000000000000
G 4  21926053.440   115222166.387    21926056.720    86042534.938  
G 7  21107837.640   110922435.363                                  
G 8  22863751.460   120149749.930    22863753.080    89722210.777  
G 9  20292765.340   106639160.480    20292766.020    79633143.266  
G14  23974438.280   125986493.2462                                 
G16  23813058.560   125138451.973                                  
G27  23080604.840   121289339.020    23080605.920    90573207.016  
G30  22573674.700   118625403.941    22573676.260    88583905.191  
E 7  24208845.260   127218301.113    24208851.460    95000670.348  
E19  26781007.740   140735112.121    26781013.120   105094389.547  
E21  26256185.460   137977147.871    26256192.020   103034872.770  
E27  23250208.840   122180649.746    23250214.140    91238790.801  
E30  24160806.340   126965866.664    24160811.920    94812165.160  
> 2021  1  4 21 42 16.0000000  0 13       0.000000000000
G 4  21926495.400   115224488.910    21926498.680    86044269.293  
G 7  21107699.380   110921708.809                                  
G 8  22863325.800   120147513.063    22863327.420    89720540.391  
G 9  20292821.860   106639457.602    20292822.560    79633365.141  
G14  23973754.720   125982901.0592                                 
G16  23813740.100   125142033.492                                  
G27  23080525.440   121288921.754    23080526.520    90572895.422  
G30  22573286.600   118623364.531    22573288.180    88582382.254  
E 7  24209145.000   127219876.273    24209151.200    95001846.609  
E19  26780512.100   140732507.605    26780517.500   105092444.621  
E21  26255727.040   137974738.914    26255733.600   103033073.879  
E27  23250151.960   122180350.855    23250157.280    91238567.605  
E30  24161218.480   126968032.488    24161224.060    94813782.496  
> 2021  1  4 21 42 17.0000000  0 13       0.000000000000
G 4  21926937.420   115226811.801    21926940.700    86046003.918  
G 7  21107561.160   110920982.445                                  
G 8  22862900.200   120145276.574    22862901.820    89718870.289  
G 9  20292878.500   106639755.242    20292879.200    79633587.406  
G14  23973071.180   125979309.0392                                 
G16  23814421.680   125145615.215                                  
G27  23080446.160   121288505.145    23080447.240    90572584.316  
G30  22572898.540   118621325.285    22572900.120    88580859.441  
E 7  24209444.800   127221451.762    24209451.000    95003023.113  
E19  26780016.500   140729903.168    26780021.900   105090499.758  
E21  26255268.680   137972330.184    26255275.240   103031275.156  
E27  23250095.160   122180052.344    23250100.460    91238344.695  
E30  24161630.660   126970198.473    24161636.240    94815399.957  
> 2021  1  4 21 42 18.0000000  0 13       0.000000000000
G 4  21927379.540   115229135.063    21927382.820    86047738.820  
G 7  21107422.980   110920256.277                                  
G 8  22862474.700   120143040.492    22862476.320    89717200.484  
G 9  20292935.240   106640053.398    20292935.940    79633810.055  
G14  23972387.660   125975717.1952                                 
G16  23815103.300   125149197.164                                  
G27  23080367.000   121288089.172    23080368.080    90572273.688  
G30  22572510.520   118619286.211    22572512.100    88579336.758  
E 7  24209744.680   127223027.590    24209750.860    95004199.875  
E19  26779520.900   140727298.805    26779526.300   105088554.945  
E21  26254810.360   137969921.652    26254816.920   103029476.582  
E27  23250038.420   122179754.191    23250043.720    91238122.051  
E30  24162042.860   126972364.625    24162048.440    94817017.539  
> 2021  1  4 21 42 19.0000000  0 13       0.000000000000
G 4  21927821.700   115231458.703    21927824.980    86049474.004  
G 7  21107284.820   110919530.293                                  
G 8  22862049.260   120140804.801    22862050.880    89715530.977  
G 9  20292992.080   106640352.059    20292992.780    79634033.078  
G14  23971704.180   125972125.5002                                 
G16  23815784.960   125152779.316                                  
G27  23080287.980   121287673.844    23080289.040    90571963.543  
G30  22572122.540   118617247.309    22572124.100    88577814.203  
E 7  24210044.600   127224603.742    24210050.800    95005376.875  
E19  26779025.320   140724694.520    26779030.720   105086610.191  
E21  26254352.080   137967513.371    26254358.620   103027678.195  
E27  23249981.740   122179456.402    23249987.060    91237899.684  
E30  24162455.100   126974530.941    24162460.680    94818635.250  
> 2021  1  4 21 42 20.0000000  0 13       0.000000000000
G 4  21928263.960   115233782.707    21928267.240    86051209.461  
G 7  21107146.720   110918804.496                                  
G 8  22861623.880   120138569.504    22861625.520    89713861.766  
G 9  20293049.000   106640651.211    20293049.700    79634256.473  
G14  23971020.740   125968533.9692                                 
G16  23816466.660   125156361.684                                  
G27  23080209.060   121287259.137    23080210.140    90571653.859  
G30  22571734.580   118615208.566    22571736.140    88576291.762  
E 7  24210344.600   127226180.227    24210350.800    95006554.121  
E19  26778529.760   140722090.313    26778535.140   105084665.492  
E21  26253893.820   137965105.289    26253900.380   103025879.957  
E27  23249925.140   122179158.977    23249930.460    91237677.582  
E30  24162867.360   126976697.422    24162872.940    94820253.078  
> 2021  1  4 21 42 21.0000000  0 13       0.000000000000
G 4  21928706.260   115236107.086    21928709.540    86052945.195  
G 7  21107008.640   110918078.891                                  
G 8  22861198.600   120136334.621    22861200.220    89712192.859  
G 9  20293106.040   106640950.883    20293106.720    79634480.254  
G14  23970337.340   125964942.6132                                 
G16  23817148.400   125159944.266                                  
G27  23080130.260   121286845.090    23080131.340    90571344.668  
G30  22571346.640   118613169.988    22571348.220    88574769.453  
E 7  24210644.660   127227757.047    24210650.840    95007731.621  
E19  26778034.200   140719486.172    26778039.600   105082720.852  
E21  26253435.620   137962697.438    26253442.180   103024081.891  
E27  23249868.620   122178861.922    23249873.940    91237455.762  
E30  24163279.660   126978864.066    24163285.240    94821871.031  
> 2021  1  4 21 42 22.0000000  0 13       0.000000000000
G 4  21929148.640   115238431.852    21929151.920    86054681.238  
G 7  21106870.600   110917353.488                                  
G 8  22860773.400   120134100.086    22860775.040    89710524.188  
G 9  20293163.160   106641251.066    20293163.860    79634704.414  
G14  23969653.940   125961351.4222                                 
G16  23817830.200   125163527.082                                  
G27  23080051.600   121286431.664    23080052.680    90571035.934  
G30  22570958.740   118611131.570    22570960.320    88573247.258  
E 7  24210944.780   127229334.199    24210950.960    95008909.371  
E19  26777538.680   140716882.082    26777544.060   105080776.223  
E21  26252977.480   137960289.793    26252984.040   103022283.961  
E27  23249812.160   122178565.238    23249817.480    91237234.215  
E30  24163692.000   126981030.891    24163697.580    94823489.117  
> 2021  1  4 21 42 23.0000000  0 13       0.000000000000
G 4  21929591.100   115240756.961    21929594.380    86056417.520  
G 7  21106732.580   110916628.258                                  
G 8  22860348.260   120131865.965    22860349.900    89708855.852  
G 9  20293220.380   106641551.754    20293221.080    79634928.953  
G14  23968970.600   125957760.3912                                 
G16  23818512.020   125167110.098                                  
G27  23079973.060   121286018.898    23079974.120    90570727.699  
G30  22570570.880   118609093.316    22570572.460    88571725.184  
E 7  24211244.960   127230911.676    24211251.160    95010087.359  
E19  26777043.160   140714278.098    26777048.540   105078831.695  
E21  26252519.360   137957882.371    26252525.920   103020486.219  
E27  23249755.780   122178268.914    23249761.080    91237012.938  
E30  24164104.360   126983197.863    24164109.940    94825107.316  
> 2021  1  4 21 42 24.0000000  0 13       0.000000000000
G 4  21930033.620   115243082.453    21930036.900    86058154.086  
G 7  21106594.620   110915903.227                                  
G 8  22859923.200   120129632.254    22859924.820    89707187.824  
G 9  20293277.700   106641852.945    20293278.380    79635153.871  
G14  23968287.280   125954169.5312                                 
G16  23819193.880   125170693.332                                  
G27  23079894.620   121285606.766    23079895.700    90570419.938  
G30  22570183.040   118607055.227    22570184.620    88570203.234  
E 7  24211545.220   127232489.488    24211551.400    95011265.602  
E19  26776547.640   140711674.191    26776553.040   105076887.227  
E21  26252061.280   137955475.172    26252067.840   103018688.641  
E27  23249699.460   122177972.961    23249704.760    91236791.938  
E30  24164516.760   126985365.004    24164522.320    94826725.637  
> 2021  1  4 21 42 25.0000000  0 13       0.000000000000
G 4  21930476.220   115245408.305    21930479.500    86059890.926  
G 7  21106456.680   110915178.379                                  
G 8  22859498.200   120127398.914    22859499.840    89705520.070  
G 9  20293335.100   106642154.652    20293335.800    79635379.172  
G14  23967604.000   125950578.8402                                 
G16  23819875.800   125174276.773                                  
G27  23079816.320   121285195.273    23079817.400    90570112.656  
G30  22569795.240   118605017.309    22569796.820    88568681.414  
E 7  24211845.520   127234067.625    24211851.700    95012444.082  
E19  26776052.160   140709070.352    26776057.540   105074942.805  
E21  26251603.260   137953068.203    26251609.800   103016891.230  
E27  23249643.200   122177677.367    23249648.520    91236571.207  
E30  24164929.180   126987532.309    24164934.760    94828344.082  
> 2021  1  4 21 42 26.0000000  0 13       0.000000000000
G 4  21930918.880   115247734.516    21930922.160    86061628.027  
G 7  21106318.780   110914453.723                                  
G 8  22859073.300   120125165.977    22859074.920    89703852.617  
G 9  20293392.620   106642456.867    20293393.300    79635604.852  
G14  23966920.740   125946988.2972                                 
G16  23820557.740   125177860.430                                  
G27  23079738.140   121284784.430    23079739.220    90569805.859  
G30  22569407.460   118602979.551    22569409.040    88567159.711  
E 7  24212145.900   127235646.098    24212152.080    95013622.816  
E19  26775556.680   140706466.598    26775562.060   105072998.445  
E21  26251145.260   137950661.453    26251151.820   103015093.988  
E27  23249587.020   122177382.137    23249592.340    91236350.746  
E30  24165341.640   126989699.781    24165347.200    94829962.652  
> 2021  1  4 21 42 27.0000000  0 13       0.000000000000
G 4  21931361.620   115250061.113    21931364.900    86063365.418  
G 7  21106180.920   110913729.250                                  
G 8  22858648.460   120122933.445    22858650.080    89702185.469  
G 9  20293450.220   106642759.594    20293450.920    79635830.910  
G14  23966237.520   125943397.9412                                 
G16  23821239.740   125181444.301                                  
G27  23079660.080   121284374.219    23079661.160    90569499.531  
G30  22569019.720   118600941.961    22569021.300    88565638.137  
E 7  24212446.340   127237224.895    24212452.520    95014801.793  
E19  26775061.200   140703862.902    26775066.580   105071054.137  
E21  26250687.320   137948254.910    26250693.860   103013296.898  
E27  23249530.920   122177087.277    23249536.220    91236130.563  
E30  24165754.120   126991867.418    24165759.700    94831581.344  
> 2021  1  4 21 42 28.0000000  0 13       0.000000000000
G 4  21931804.440   115252388.082    21931807.700    86065103.094  
G 7  21106043.100   110913004.977                                  
G 8  22858223.700   120120701.313    22858225.320    89700518.617  
G 9  20293507.920   106643062.828    20293508.620    79636057.355  
G14  23965554.320   125939807.7302                                 
G16  23821921.760   125185028.395                                  
G27  23079582.140   121283964.652    23079583.220    90569193.688  
G30  22568632.020   118598904.539    22568633.580    88564116.684  
E 7  24212746.840   127238804.035    24212753.020    95015981.023  
E19  26774565.760   140701259.305    26774571.140   105069109.895  
E21  26250229.400   137945848.602    26250235.960   103011499.984  
E27  23249474.880   122176792.785    23249480.180    91235910.652  
E30  24166166.640   126994035.215    24166172.220    94833200.156  
> 2021  1  4 21 42 29.0000000  0 13       0.000000000000
G 4  21932247.300   115254715.406    21932250.580    86066841.027  
G 7  21105905.300   110912280.898                                  
G 8  22857799.020   120118469.594    22857800.640    89698852.078  
G 9  20293565.720   106643366.570    20293566.420    79636284.176  
G14  23964871.160   125936217.7072                                 
G16  23822603.840   125188612.688                                  
G27  23079504.320   121283555.727    23079505.400    90568888.320  
G30  22568244.340   118596867.281    22568245.920    88562595.355  
E 7  24213047.400   127240383.492    24213053.580    95017160.492  
E19  26774070.320   140698655.770    26774075.700   105067165.703  
E21  26249771.540   137943442.512    26249778.100   103009703.234  
E27  23249418.900   122176498.656    23249424.200    91235691.016  
E30  24166579.200   126996203.172    24166584.760    94834819.090  
> 2021  1  4 21 42 30.0000000  0 13       0.000000000000
G 4  21932690.260   115257043.109    21932693.540    86068579.246  
G 7  21105767.560   110911556.996                                  
G 8  22857374.400   120116238.270    22857376.040    89697185.828  
G 9  20293623.620   106643670.820    20293624.320    79636511.375  
G14  23964188.020   125932627.8242                                 
G16  23823285.940   125192197.211                                  
G27  23079426.640   121283147.441    23079427.700    90568583.434  
G30  22567856.700   118594830.180    22567858.260    88561074.145  
E 7  24213348.020   127241963.285    24213354.200    95018340.207  
E19  26773574.900   140696052.309    26773580.280   105065221.563  
E21  26249313.720   137941036.633    26249320.260   103007906.641  
E27  23249363.000   122176204.887    23249368.300    91235471.648  
E30  24166991.780   126998371.297    24166997.340    94836438.148  
> 2021  1  4 21 42 31.0000000  0 13       0.000000000000
G 4  21933133.280   115259371.180    21933136.540    86070317.738  
G 7  21105629.840   110910833.305                                  
G 8  22856949.880   120114007.340    22856951.500    89695519.879  
G 9  20293681.620   106643975.582    20293682.320    79636738.953  
G14  23963504.920   125929038.1332                                 
G16  23823968.100   125195781.938                                  
G27  23079349.060   121282739.793    23079350.140    90568279.020  
G30  22567469.080   118592793.254    22567470.640    88559553.063  
E 7  24213648.700   127243543.406    24213654.880    95019520.172  
E19  26773079.480   140693448.914    26773084.860   105063277.477  
E21  26248855.940   137938630.988    26248862.480   103006110.223  
E27  23249307.180   122175911.492    23249312.480    91235252.559  
E30  24167404.380   127000539.594    24167409.960    94838057.332  
> 2021  1  4 21 42 32.0000000  0 13       0.000000000000
G 4  21933576.360   115261699.609    21933579.640    86072056.504  
G 7  21105492.160   110910109.793                                  
G 8  22856525.420   120111776.793    22856527.040    89693854.211  
G 9  20293739.700   106644280.848    20293740.400    79636966.914  
G14  23962821.860   125925448.5902                                 
G16  23824650.300   125199366.879                                  
G27  23079271.620   121282332.801    23079272.680    90567975.098  
G30  22567081.500   118590756.480    22567083.060    88558032.098  
E 7  24213949.460   127245123.855    24213955.640    95020700.383  
E19  26772584.100   140690845.609    26772589.480   105061333.453  
E21  26248398.200   137936225.543    26248404.740   103004313.953  
E27  23249251.400   122175618.445    23249256.700    91235033.727  
E30  24167817.020   127002708.039    24167822.600    94839676.629  
> 2021  1  4 21 42 33.0000000  0 13       0.000000000000
G 4  21934019.520   115264028.418    21934022.800    86073795.547  
G 7  21105354.520   110909386.480                                  
G 8  22856101.020   120109546.641    22856102.660    89692188.836  
G 9  20293797.900   106644586.629    20293798.600    79637195.258  
G14  23962138.820   125921859.2272                                 
G16  23825332.520   125202952.035                                  
G27  23079194.280   121281926.434    23079195.360    90567671.641  
G30  22566693.940   118588719.883    22566695.520    88556511.262  
E 7  24214250.280   127246704.648    24214256.440    95021880.848  
E19  26772088.720   140688242.371    26772094.100   105059389.484  
E21  26247940.500   137933820.336    26247947.040   103002517.863  
E27  23249195.720   122175325.785    23249201.020    91234815.188  
E30  24168229.700   127004876.660    24168235.260    94841296.059  
> 2021  1  4 21 42 35.0000000  0 13       0.000000000000
G 4  21934906.040   115268687.133    21934909.320    86077274.457  
G 7  21105079.340   110907940.406                                  
G 8  22855252.480   120105087.516    22855254.100    89688858.973  
G 9  20293914.560   106645199.715    20293915.260    79637653.078  
G14  23960772.840   125914680.9692                                 
G16  23826697.120   125210122.992                                  
G27  23079040.000   121281115.641    23079041.060    90567066.180  
G30  22565918.920   118584647.152    22565920.500    88553469.938  
E 7  24214852.080   127249867.199    24214858.260    95024242.496  
E19  26771098.000   140683036.133    26771103.380   105055501.715  
E21  26247025.240   137929010.574    26247031.780   102998926.160  
E27  23249084.540   122174741.539    23249089.840    91234378.902  
E30  24169055.140   127009214.387    24169060.700    94844535.273  
> 2021  1  4 21 42 36.0000000  0 13       0.000000000000
G 4  21935349.420   115271017.055    21935352.680    86079014.332  
G 7  21104941.800   110907217.664                                  
G 8  22854828.320   120102858.559    22854829.960    89687194.492  
G 9  20293973.040   106645507.012    20293973.740    79637882.555  
G14  23960089.920   125911092.1132                                 
G16  23827379.480   125213708.793                                  
G27  23078963.020   121280711.191    23078964.100    90566764.156  
G30  22565531.460   118582611.047    22565533.040    88551949.473  
E 7  24215153.080   127251448.973    24215159.260    95025423.691  
E19  26770602.660   140680433.1332   26770608.040   105053557.9182 
E21  26246567.660   137926606.012    26246574.200   102997130.551  
E27  23249029.060   122174449.965    23249034.340    91234161.172  
E30  24169467.920   127011383.492    24169473.480    94846155.063  
> 2021  1  4 21 42 37.0000000  0 13       0.000000000000
G 4  21935792.860   115273347.348    21935796.140    86080754.484  
G 7  21104804.300   110906495.102                                  
G 8  22854404.240   120100630.016    22854405.880    89685530.320  
G 9  20294031.620   106645814.824    20294032.300    79638112.414  
G14  23959407.000   125907503.3982                                 
G16  23828061.860   125217294.805                                  
G27  23078886.180   121280307.402    23078887.260    90566462.625  
G30  22565144.040   118580575.102    22565145.600    88550429.125  
E 7  24215454.160   127253031.078    24215460.320    95026605.141  
E19  26770107.340   140677830.2032   26770112.720   105051614.1762 
E21  26246110.140   137924201.699    26246116.680   102995335.125  
E27  23248973.640   122174158.762    23248978.940    91233943.719  
E30  24169880.720   127013552.770    24169886.280    94847774.980  
> 2021  1  4 21 42 38.0000000  0 13       0.000000000000
G 4  21936236.360   115275678.000    21936239.640    86082494.906  
G 7  21104666.840   110905772.742                                  
G 8  22853980.240   120098401.871    22853981.860    89683866.449  
G 9  20294090.280   106646123.148    20294090.980    79638342.656  
G14  23958724.120   125903914.8522                                 
G16  23828744.300   125220881.027                                  
G27  23078809.480   121279904.250    23078810.540    90566161.570  
G30  22564756.640   118578539.313    22564758.220    88548908.891  
E 7  24215755.280   127254613.523    24215761.460    95027786.840  
E19  26769612.040   140675227.3442   26769617.400   105049670.4882 
E21  26245652.640   137921797.574    26245659.180   102993539.844  
E27  23248918.300   122173867.918    23248923.580    91233726.535  
E30  24170293.540   127015722.199    24170299.100    94849395.012  
> 2021  1  4 21 42 39.0000000  0 13       0.000000000000
G 4  21936679.940   115278009.012    21936683.220    86084235.598  
G 7  21104529.420   110905050.566                                  
G 8  22853556.320   120096174.102    22853557.940    89682202.855  
G 9  20294149.060   106646431.980    20294149.740    79638573.281  
G14  23958041.280   125900326.4772                                 
G16  23829426.780   125224467.465                                  
G27  23078732.880   121279501.734    23078733.940    90565860.992  
G30  22564369.280   118576503.688    22564370.840    88547388.781  
E 7  24216056.480   127256196.289    24216062.640    95028968.777  
E19  26769116.740   140672624.5662   26769122.120   105047726.8592 
E21  26245195.200   137919393.688    26245201.740   102991744.738  
E27  23248863.020   122173577.441    23248868.300    91233509.625  
E30  24170706.400   127017891.801    24170711.960    94851015.172  
> 2021  1  4 21 42 40.0000000  0 13       0.000000000000
G 4  21937123.580   115280340.402    21937126.860    86085976.570  
G 7  21104392.040   110904328.582                                  
G 8  22853132.460   120093946.727    22853134.080    89680539.559  
G 9  20294207.920   106646741.320    20294208.620    79638804.277  
G14  23957358.460   125896738.2812                                 
G16  23830109.300   125228054.109                                  
G27  23078656.400   121279099.867    23078657.480    90565560.898  
G30  22563981.940   118574468.242    22563983.520    88545868.809  
E 7  24216357.720   127257779.379    24216363.900    95030150.961  
E19  26768621.460   140670021.8522   26768626.820   105045783.2772 
E21  26244737.800   137916990.031    26244744.340   102989949.805  
E27  23248807.800   122173287.324    23248813.100    91233292.984  
E30  24171119.300   127020061.559    24171124.860    94852635.449  
> 2021  1  4 21 42 41.0000000  0 13       0.000000000000
G 4  21937567.300   115282672.160    21937570.580    86087717.816  
G 7  21104254.680   110903606.781                                  
G 8  22852708.680   120091719.727    22852710.300    89678876.539  
G 9  20294266.880   106647051.164    20294267.580    79639035.656  
G14  23956675.680   125893150.2422                                 
G16  23830791.860   125231640.969                                  
G27  23078580.040   121278698.629    23078581.120    90565261.270  
G30  22563594.640   118572432.961    22563596.200    88544348.953  
E 7  24216659.040   127259362.813    24216665.220    95031333.398  
E19  26768126.200   140667419.2342   26768131.560   105043839.7702 
E21  26244280.440   137914586.582    26244286.980   102988155.027  
E27  23248752.680   122172997.582    23248757.960    91233076.617  
E30  24171532.220   127022231.484    24171537.780    94854255.855  
> 2021  1  4 21 42 42.0000000  0 13       0.000000000000
G 4  21938011.100   115285004.285    21938014.380    86089459.336  
G 7  21104117.360   110902885.180                                  
G 8  22852284.960   120089493.125    22852286.580    89677213.820  
G 9  20294325.940   106647361.520    20294326.640    79639267.414  
G14  23955992.940   125889562.3592                                 
G16  23831474.460   125235228.035                                  
G27  23078503.820   121278298.043    23078504.900    90564962.133  
G30  22563207.360   118570397.824    22563208.940    88542829.211  
E 7  24216960.420   127260946.566    24216966.600    95032516.078  
E19  26767630.940   140664816.6842   26767636.320   105041896.3132 
E21  26243823.120   137912183.359    26243829.660   102986360.414  
E27  23248697.600   122172708.199    23248702.900    91232860.527  
E30  24171945.180   127024401.574    24171950.740    94855876.379  
> 2021  1  4 21 42 44.0000000  0 13       0.000000000000
G 4  21938898.880   115289669.645    21938902.160    86092943.207  
G 7  21103842.840   110901442.547                                  
G 8  22851437.780   120085041.121    22851439.400    89673889.273  
G 9  20294444.340   106647983.766    20294445.040    79639732.078  
G14  23954627.520   125882387.1252                                 
G16  23832839.780   125242402.816                                  
G27  23078351.720   121277498.781    23078352.800    90564365.281  
G30  22562432.920   118566328.078    22562434.480    88539790.113  
E 7  24217563.360   127264115.082    24217569.540    95034882.180  
E19  26766640.500   140659611.8012   26766645.860   105038009.5592 
E21  26242908.600   137907377.578    26242915.140   102982771.688  
E27  23248587.680   122172130.531    23248592.960    91232429.156  
E30  24172771.180   127028742.246    24172776.740    94859117.793  
> 2021  1  4 21 42 45.0000000  0 13       0.000000000000
G 4  21939342.880   115292002.879    21939346.160    86094685.555  
G 7  21103705.640   110900721.516                                  
G 8  22851014.300   120082815.707    22851015.920    89672227.438  
G 9  20294503.700   106648295.656    20294504.400    79639964.984  
G14  23953944.880   125878799.7502                                 
G16  23833522.500   125245990.531                                  
G27  23078275.860   121277100.117    23078276.940    90564067.578  
G30  22562045.740   118564293.449    22562047.300    88538270.750  
E 7  24217864.940   127265699.832    24217871.100    95036065.598  
E19  26766145.280   140657009.4772   26766150.640   105036066.2702 
E21  26242451.420   137904975.000    26242457.940   102980977.559  
E27  23248532.820   122171842.246    23248538.100    91232213.883  
E30  24173184.220   127030912.832    24173189.780    94860738.688  
> 2021  1  4 21 42 46.0000000  0 13       0.000000000000
G 4  21939786.960   115294336.492    21939790.240    86096428.188  
G 7  21103568.460   110900000.680                                  
G 8  22850590.880   120080590.691    22850592.500    89670565.902  
G 9  20294563.140   106648608.055    20294563.840    79640198.270  
G14  23953262.240   125875212.5272                                 
G16  23834205.260   125249578.461                                  
G27  23078200.120   121276702.098    23078201.200    90563770.355  
G30  22561658.600   118562258.992    22561660.160    88536751.516  
E 7  24218166.560   127267284.918    24218172.740    95037249.270  
E19  26765650.100   140654407.2272   26765655.460   105034123.0312 
E21  26241994.260   137902572.668    26242000.800   102979183.613  
E27  23248478.040   122171554.328    23248483.320    91231998.883  
E30  24173597.300   127033083.578    24173602.860    94862359.699  
> 2021  1  4 21 42 47.0000000  0 13       0.000000000000
G 4  21940231.100   115296670.461    21940234.380    86098171.086  
G 7  21103431.320   110899280.023                                  
G 8  22850167.560   120078366.070    22850169.180    89668904.664  
G 9  20294622.680   106648920.957    20294623.380    79640431.930  
G14  23952579.660   125871625.5002                                 
G16  23834888.060   125253166.594                                  
G27  23078124.500   121276304.715    23078125.580    90563473.609  
G30  22561271.480   118560224.684    22561273.040    88535232.391  
E 7  24218468.260   127268870.332    24218474.440    95038433.188  
E19  26765154.920   140651805.0512   26765160.280   105032179.8552 
E21  26241537.160   137900170.531    26241543.680   102977389.816  
E27  23248423.320   122171266.773    23248428.600    91231784.156  
E30  24174010.420   127035254.484    24174015.980    94863980.836  
> 2021  1  4 21 42 48.0000000  0 13       0.000000000000
G 4  21940675.300   115299004.789    21940678.580    86099914.254  
G 7  21103294.220   110898559.563                                  
G 8  22849744.300   120076141.863    22849745.920    89667243.730  
G 9  20294682.320   106649234.367    20294683.020    79640665.973  
G14  23951897.100   125868038.6252                                 
G16  23835570.900   125256754.949                                  
G27  23078049.000   121275907.980    23078050.080    90563177.348  
G30  22560884.400   118558190.559    22560885.960    88533713.398  
E 7  24218770.020   127270456.074    24218776.180    95039617.348  
E19  26764659.760   140649202.9612   26764665.120   105030236.7422 
E21  26241080.080   137897768.637    26241086.620   102975596.199  
E27  23248368.660   122170979.586    23248373.940    91231569.699  
E30  24174423.560   127037425.551    24174429.120    94865602.090  
> 2021  1  4 21 42 49.0000000  0 13       0.000000000000
G 4  21941119.580   115301339.496    21941122.860    86101657.703  
G 7  21103157.160   110897839.293                                  
G 8  22849321.120   120073918.047    22849322.740    89665583.090  
G 9  20294742.060   106649548.289    20294742.760    79640900.391  
G14  23951214.560   125864451.9262                                 
G16  23836253.780   125260343.504                                  
G27  23077973.640   121275511.883    23077974.700    90562881.559  
G30  22560497.340   118556156.570    22560498.920    88532194.512  
E 7  24219071.840   127272042.145    24219078.000    95040801.758  
E19  26764164.600   140646600.9382   26764169.960   105028293.6802 
E21  26240623.060   137895366.949    26240629.580   102973802.738  
E27  23248314.080   122170692.754    23248319.360    91231355.508  
E30  24174836.720   127039596.773    24174842.280    94867223.461  
> 2021  1  4 21 42 50.0000000  0 13       0.000000000000
G 4  21941563.940   115303674.570    21941567.220    86103401.426  
G 7  21103020.140   110897119.219                                  
G 8  22848898.020   120071694.621    22848899.640    89663922.738  
G 9  20294801.900   106649862.723    20294802.600    79641135.195  
G14  23950532.080   125860865.3832                                 
G16  23836936.700   125263932.273                                  
G27  23077898.380   121275116.438    23077899.460    90562586.258  
G30  22560110.320   118554122.777    22560111.900    88530675.773  
E 7  24219373.720   127273628.547    24219379.880    95041986.410  
E19  26763669.460   140643998.9962   26763674.820   105026350.6762 
E21  26240166.080   137892965.496    26240172.600   102972009.449  
E27  23248259.560   122170406.293    23248264.840    91231141.598  
E30  24175249.940   127041768.168    24175255.480    94868844.961  
> 2021  1  4 21 42 51.0000000  0 13       0.000000000000
G 4  21942008.360   115306010.016    21942011.640    86105145.430  
G 7  21102883.140   110896399.332                                  
G 8  22848475.000   120069471.617    22848476.620    89662262.703  
G 9  20294861.840   106650177.668    20294862.540    79641370.383  
G14  23949849.620   125857279.0232                                 
G16  23837619.660   125267521.254                                  
G27  23077823.240   121274721.617    23077824.320    90562291.426  
G30  22559723.340   118552089.125    22559724.900    88529157.137  
E 7  24219675.660   127275215.281    24219681.840    95043171.313  
E19  26763174.360   140641397.1412   26763179.700   105024407.7342 
E21  26239709.140   137890564.258    26239715.660   102970216.320  
E27  23248205.120   122170120.199    23248210.400    91230927.961  
E30  24175663.160   127043939.727    24175668.720    94870466.582  
> 2021  1  4 21 42 52.0000000  0 13       0.000000000000
G 4  21942452.840   115308345.836    21942456.140    86106889.707  
G 7  21102746.200   110895679.637                                  
G 8  22848052.040   120067248.984    22848053.660    89660602.945  
G 9  20294921.860   106650493.117    20294922.560    79641605.945  
G14  23949167.180   125853692.8202                                 
G16  23838302.660   125271110.453                                  
G27  23077748.240   121274327.449    23077749.320    90561997.082  
G30  22559336.380   118550055.656    22559337.940    88527638.637  
E 7  24219977.680   127276802.355    24219983.840    95044356.469  
E19  26762679.240   140638795.3522   26762684.600   105022464.8442 
E21  26239252.240   137888163.238    26239258.760   102968423.355  
E27  23248150.760   122169834.465    23248156.040    91230714.594  
E30  24176076.440   127046111.441    24176081.980    94872088.324  
> 2021  1  4 21 42 53.0000000  0 13       0.000000000000
G 4  21942897.400   115310682.012    21942900.700    86108634.254  
G 7  21102609.280   110894960.125                                  
G 8  22847629.160   120065026.770    22847630.780    89658943.500  
G 9  20294981.980   106650809.070    20294982.680    79641841.883  
G14  23948484.780   125850106.7852                                 
G16  23838985.700   125274699.863                                  
G27  23077673.360   121273933.926    23077674.420    90561703.215  
G30  22558949.440   118548022.332    22558951.020    88526120.246  
E 7  24220279.740   127278389.742    24220285.900    95045541.859  
E19  26762184.160   140636193.6332   26762189.500   105020522.0082 
E21  26238795.380   137885762.438    26238801.900   102966630.555  
E27  23248096.440   122169549.102    23248101.720    91230501.500  
E30  24176489.720   127048283.324    24176495.280    94873710.184  
> 2021  1  4 21 42 54.0000000  0 13       0.000000000000
G 4  21943342.040   115313018.566    21943345.320    86110379.082  
G 7  21102472.400   110894240.809                                  
G 8  22847206.360   120062804.922    22847207.980    89657284.332  
G 9  20295042.200   106651125.539    20295042.900    79642078.207  
G14  23947802.400   125846520.9182                                 
G16  23839668.780   125278289.469                                  
G27  23077598.580   121273541.035    23077599.660    90561409.824  
G30  22558562.560   118545989.188    22558564.120    88524601.988  
E 7  24220581.880   127279977.469    24220588.040    95046727.500  
E19  26761689.080   140633591.9882   26761694.440   105018579.2272 
E21  26238338.560   137883361.848    26238345.080   102964837.910  
E27  23248042.220   122169264.090    23248047.500    91230288.672  
E30  24176903.060   127050455.363    24176908.600    94875332.164  
> 2021  1  4 21 42 55.0000000  0 13       0.000000000000
G 4  21943786.740   115315355.492    21943790.020    86112124.191  
G 7  21102335.540   110893521.688                                  
G 8  22846783.640   120060583.477    22846785.260    89655625.461  
G 9  20295102.520   106651442.527    20295103.220    79642314.922  
G14  23947120.080   125842935.2152                                 
G16  23840351.900   125281879.309                                  
G27  23077523.940   121273148.789    23077525.020    90561116.914  
G30  22558175.680   118543956.203    22558177.260    88523083.852  
E 7  24220884.080   127281565.531    24220890.240    95047913.395  
E19  26761194.020   140630990.4342   26761199.360   105016636.5122 
E21  26237881.800   137880961.508    26237888.320   102963045.453  
E27  23247988.040   122168979.461    23247993.320    91230076.125  
E30  24177316.420   127052627.574    24177321.960    94876954.273  
> 2021  1  4 21 42 56.0000000  0 13       0.000000000000
G 4  21944231.520   115317692.773    21944234.800    86113869.559  
G 7  21102198.740   110892802.746                                  
G 8  22846360.980   120058362.449    22846362.600    89653966.902  
G 9  20295162.940   106651760.008    20295163.640    79642552.000  
G14  23946437.760   125839349.6802                                 
G16  23841035.080   125285469.348                                  
G27  23077449.420   121272757.184    23077450.500    90560824.480  
G30  22557788.860   118541923.379    22557790.420    88521565.836  
E 7  24221186.340   127283153.918    24221192.500    95049099.535  
E19  26760698.960   140628388.9412   26760704.320   105014693.8442 
E21  26237425.060   137878561.363    26237431.580   102961253.141  
E27  23247933.960   122168695.180    23247939.240    91229863.844  
E30  24177729.800   127054799.945    24177735.340    94878576.500  
> 2021  1  4 21 42 57.0000000  0 13       0.000000000000
G 4  21944676.360   115320030.438    21944679.640    86115615.215  
G 7  21102061.960   110892083.992                                  
G 8  22845938.400   120056141.809    22845940.020    89652308.633  
G 9  20295223.460   106652078.012    20295224.160    79642789.469  
G14  23945755.500   125835764.3322                                 
G16  23841718.280   125289059.605                                  
G27  23077375.020   121272366.219    23077376.100    90560532.523  
G30  22557402.060   118539890.730    22557403.620    88520047.949  
E 7  24221488.660   127284742.633    24221494.820    95050285.914  
E19  26760203.940   140625787.5352   26760209.280   105012751.2382 
E21  26236968.380   137876161.441    26236974.900   102959461.000  
E27  23247879.920   122168411.277    23247885.200    91229651.840  
E30  24178143.220   127056972.477    24178148.760    94880198.852  
> 2021  1  4 21 42 58.0000000  0 13       0.000000000000
G 4  21945121.260   115322368.465    21945124.560    86117361.145  
G 7  21101925.220   110891365.441                                  
G 8  22845515.900   120053921.566    22845517.520    89650650.660  
G 9  20295284.060   106652396.516    20295284.760    79643027.313  
G14  23945073.260   125832179.1132                                 
G16  23842401.520   125292650.070                                  
G27  23077300.760   121271975.902    23077301.820    90560241.055  
G30  22557015.280   118537858.238    22557016.840    88518530.180  
E 7  24221791.040   127286331.676    24221797.200    95051472.539  
E19  26759708.920   140623186.2032   26759714.260   105010808.6912 
E21  26236511.720   137873761.742    26236518.240   102957669.016  
E27  23247825.980   122168127.734    23247831.240    91229440.109  
E30  24178556.660   127059145.168    24178562.220    94881821.316  
> 2021  1  4 21 42 59.0000000  0 13       0.000000000000
G 4  21945566.260   115324706.852    21945569.540    86119107.344  
G 7  21101788.520   110890647.074                                  
G 8  22845093.480   120051701.703    22845095.100    89648992.973  
G 9  20295344.780   106652715.535    20295345.480    79643265.543  
G14  23944391.040   125828594.0902                                 
G16  23843084.800   125296240.766                                  
G27  23077226.600   121271586.223    23077227.680    90559950.063  
G30  22556628.540   118535825.891    22556630.100    88517012.520  
E 7  24222093.500   127287921.055    24222099.660    95052659.418  
E19  26759213.920   140620584.9452   26759219.260   105008866.1992 
E21  26236055.120   137871362.266    26236061.640   102955877.207  
E27  23247772.080   122167844.559    23247777.360    91229228.652  
E30  24178970.140   127061318.020    24178975.700    94883443.906  
> 2021  1  4 21 43  0.0000000  0 13       0.000000000000
G 4  21946011.300   115327045.609    21946014.580    86120853.820  
G 7  21101651.860   110889928.891                                  
G 8  22844671.140   120049482.262    22844672.760    89647335.598  
G 9  20295405.580   106653035.055    20295406.280    79643504.145  
G14  23943708.860   125825009.2272                                 
G16  23843768.140   125299831.664                                  
G27  23077152.580   121271197.195    23077153.640    90559659.555  
G30  22556241.840   118533793.734    22556243.400    88515495.000  
E 7  24222396.000   127289510.762    24222402.160    95053846.543  
E19  26758718.920   140617983.7582   26758724.280   105006923.7582 
E21  26235598.560   137868963.016    26235605.080   102954085.563  
E27  23247718.260   122167561.738    23247723.540    91229017.457  
E30  24179383.660   127063491.035    24179389.200    94885066.613  
> 2021  1  4 21 43  1.0000000  0 13       0.000000000000
G 4  21946456.420   115329384.734    21946459.700    86122600.566  
G 7  21101515.240   110889210.906                                  
G 8  22844248.860   120047263.223    22844250.480    89645678.523  
G 9  20295466.480   106653355.090    20295467.180    79643743.133  
G14  23943026.720   125821424.5392                                 
G16  23844451.500   125303422.785                                  
G27  23077078.660   121270808.789    23077079.740    90559369.512  
G30  22555855.160   118531761.750    22555856.720    88513977.609  
E 7  24222698.580   127291100.789    24222704.740    95055033.902  
E19  26758223.960   140615382.6602   26758229.300   105004981.3832 
E21  26235142.040   137866563.984    26235148.540   102952294.082  
E27  23247664.520   122167279.285    23247669.780    91228806.539  
E30  24179797.200   127065664.207    24179802.740    94886689.441  
> 2021  1  4 21 43  2.0000000  0 13       0.000000000000
G 4  21946901.620   115331724.234    21946904.900    86124347.594  
G 7  21101378.640   110888493.121                                  
G 8  22843826.680   120045044.586    22843828.300    89644021.754  
G 9  20295527.480   106653675.645    20295528.180    79643982.508  
G14  23942344.600   125817840.0082                                 
G16  23845134.900   125307014.109                                  
G27  23077004.880   121270421.035    23077005.940    90559079.957  
G30  22555468.520   118529729.914    22555470.080    88512460.328  
E 7  24223001.220   127292691.152    24223007.380    95056221.516  
E19  26757729.000   140612781.6292   26757734.340   105003039.0632 
E21  26234685.560   137864165.160    26234692.060   102950502.758  
E27  23247610.840   122166997.199    23247616.100    91228595.895  
E30  24180210.780   127067837.551    24180216.320    94888312.398  
> 2021  1  4 21 43  3.0000000  0 13       0.000000000000
G 4  21947346.880   115334064.094    21947350.160    86126094.891  
G 7  21101242.080   110887775.512                                  
G 8  22843404.560   120042826.355    22843406.180    89642365.281  
G 9  20295588.560   106653996.695    20295589.260    79644222.254  
G14  23941662.520   125814255.6482                                 
G16  23845818.360   125310605.641                                  
G27  23076931.200   121270033.930    23076932.280    90558790.883  
G30  22555081.900   118527698.242    22555083.460    88510943.172  
E 7  24223303.920   127294281.852    24223310.080    95057409.379  
E19  26757234.040   140610180.6762   26757239.380   105001096.7972 
E21  26234229.120   137861766.566    26234235.620   102948711.605  
E27  23247557.220   122166715.477    23247562.500    91228385.520  
E30  24180624.380   127070011.055    24180629.920    94889935.473  
> 2021  1  4 21 43  4.0000000  0 13       0.000000000000
G 4  21947792.220   115336404.340    21947795.500    86127842.477  
G 7  21101105.560   110887058.102                                  
G 8  22842982.500   120040608.488    22842984.120    89640709.086  
G 9  20295649.760   106654318.262    20295650.460    79644462.387  
G14  23940980.480   125810671.4772                                 
G16  23846501.840   125314197.387                                  
G27  23076857.660   121269647.465    23076858.740    90558502.289  
G30  22554695.320   118525666.734    22554696.880    88509426.137  
E 7  24223606.680   127295872.883    24223612.840    95058597.488  
E19  26756739.120   140607579.8092   26756744.460   104999154.5982 
E21  26233772.720   137859368.203    26233779.240   102946920.625  
E27  23247503.680   122166434.125    23247508.960    91228175.426  
E30  24181038.020   127072184.719    24181043.560    94891558.668  
> 2021  1  4 21 43  6.0000000  0 13       0.000000000000
G 4  21948683.080   115341085.898    21948686.360    86131338.441  
G 7  21100832.640   110885623.840                                  
G 8  22842138.640   120036173.969    22842140.260    89637397.594  
G 9  20295772.440   106654962.914    20295773.140    79644943.781  
G14  23939616.480   125803503.6052                                 
G16  23847868.940   125321381.4882                                 
G27  23076710.940   121268876.469    23076712.020    90557926.543  
G30  22553922.240   118521604.215    22553923.800    88506392.438  
E 7  24224212.400   127299055.922    24224218.540    95060974.438  
E19  26755749.300   140602378.2892   26755754.640   104995270.3522 
E21  26232860.060   137854572.129    26232866.560   102943339.145  
E27  23247396.820   122165872.504    23247402.080    91227756.035  
E30  24181865.380   127076532.527    24181870.920    94894805.410  
> 2021  1  4 21 43  7.0000000  0 13       0.000000000000
G 4  21949128.620   115343427.238    21949131.920    86133086.844  
G 7  21100696.220   110884906.996                                  
G 8  22841716.840   120033957.309    22841718.440    89635742.297  
G 9  20295833.920   106655286.000    20295834.620    79645185.047  
G14  23938934.520   125799919.9302                                 
G16  23848552.540   125324973.8672                                 
G27  23076637.780   121268491.938    23076638.840    90557639.395  
G30  22553535.760   118519573.207    22553537.320    88504875.777  
E 7  24224515.340   127300647.938    24224521.500    95062163.285  
E19  26755254.420   140599777.6482   26755259.760   104993328.3162 
E21  26232403.780   137852174.422    26232410.300   102941548.656  
E27  23247343.480   122165592.246    23247348.760    91227546.758  
E30  24182279.100   127078706.676    24182284.640    94896428.965  
> 2021  1  4 21 43  8.0000000  0 13       0.000000000000
G 4  21949574.240   115345768.941    21949577.520    86134835.520  
G 7  21100559.860   110884190.352                                  
G 8  22841295.080   120031741.031    22841296.700    89634087.285  
G 9  20295895.500   106655609.605    20295896.200    79645426.699  
G14  23938252.600   125796336.4182                                 
G16  23849236.200   125328566.4492                                 
G27  23076564.720   121268108.047    23076565.800    90557352.727  
G30  22553149.300   118517542.359    22553150.860    88503359.234  
E 7  24224818.360   127302240.289    24224824.500    95063352.383  
E19  26754759.540   140597177.0742   26754764.880   104991386.3362 
E21  26231947.560   137849776.945    26231954.080   102939758.336  
E27  23247290.220   122165312.352    23247295.480    91227337.746  
E30  24182692.860   127080880.988    24182698.400    94898052.645  
> 2021  1  4 21 43  9.0000000  0 13       0.000000000000
G 4  21950019.920   115348111.027    21950023.200    86136584.480  
G 7  21100423.520   110883473.898                                  
G 8  22840873.420   120029525.172    22840875.040    89632432.590  
G 9  20295957.180   106655933.723    20295957.880    79645668.734  
G14  23937570.720   125792753.0632                                 
G16  23849919.880   125332159.2462                                 
G27  23076491.800   121267724.793    23076492.860    90557066.531  
G30  22552762.860   118515511.676    22552764.440    88501842.816  
E 7  24225121.440   127303832.973    24225127.580    95064541.727  
E19  26754264.680   140594576.5902   26754270.020   104989444.4222 
E21  26231491.380   137847379.676    26231497.880   102937968.172  
E27  23247237.020   122165032.820    23247242.300    91227129.012  
E30  24183106.660   127083055.469    24183112.180    94899676.445  
> 2021  1  4 21 43 10.0000000  0 13       0.000000000000
G 4  21950465.680   115350453.461    21950468.960    86138333.699  
G 7  21100287.220   110882757.617                                  
G 8  22840451.840   120027309.711    22840453.440    89630778.188  
G 9  20296018.940   106656258.344    20296019.640    79645911.148  
G14  23936888.860   125789169.8982                                 
G16  23850603.600   125335752.2462                                 
G27  23076418.980   121267342.184    23076420.060    90556780.813  
G30  22552376.480   118513481.168    22552378.040    88500326.527  
E 7  24225424.580   127305425.977    24225430.720    95065731.313  
E19  26753769.840   140591976.1882   26753775.180   104987502.5662 
E21  26231035.240   137844982.641    26231041.740   102936178.180  
E27  23247183.900   122164753.648    23247189.160    91226920.543  
E30  24183520.460   127085230.098    24183526.000    94901300.359  
> 2021  1  4 21 43 11.0000000  0 13       0.000000000000
G 4  21950911.500   115352796.285    21950914.780    86140083.211  
G 7  21100150.940   110882041.551                                  
G 8  22840030.320   120025094.664    22840031.940    89629124.094  
G 9  20296080.820   106656583.484    20296081.520    79646153.945  
G14  23936207.040   125785586.8952                                 
G16  23851287.380   125339345.4652                                 
G27  23076346.300   121266960.230    23076347.380    90556495.590  
G30  22551990.120   118511450.820    22551991.680    88498810.359  
E 7  24225727.780   127307019.320    24225733.920    95066921.152  
E19  26753275.020   140589375.8522   26753280.340   104985560.7622 
E21  26230579.140   137842585.813    26230585.640   102934388.348  
E27  23247130.860   122164474.852    23247136.120    91226712.355  
E30  24183934.320   127087404.902    24183939.860    94902924.406  
> 2021  1  4 21 43 12.0000000  0 13       0.000000000000
G 4  21951357.400   115355139.477    21951360.680    86141832.992  
G 7  21100014.720   110881325.668                                  
G 8  22839608.880   120022880.000    22839610.500    89627470.289  
G 9  20296142.780   106656909.137    20296143.480    79646397.129  
G14  23935525.240   125782004.0552                                 
G16  23851971.180   125342938.8872                                 
G27  23076273.740   121266578.906    23076274.800    90556210.836  
G30  22551603.780   118509420.637    22551605.340    88497294.316  
E 7  24226031.040   127308612.988    24226037.180    95068111.230  
E19  26752780.200   140586775.5942   26752785.540   104983619.0162 
E21  26230123.080   137840189.215    26230129.580   102932598.688  
E27  23247077.860   122164196.410    23247083.120    91226504.430  
E30  24184348.200   127089579.863    24184353.740    94904548.566  
> 2021  1  4 21 43 13.0000000  0 13       0.000000000000
G 4  21951803.360   115357483.020    21951806.640    86143583.043  
G 7  21099878.520   110880609.969                                  
G 8  22839187.520   120020665.711    22839189.140    89625816.766  
G 9  20296204.860   106657235.281    20296205.540    79646640.680  
G14  23934843.480   125778421.3912                                 
G16  23852655.020   125346532.5202                                 
G27  23076201.300   121266198.227    23076202.360    90555926.563  
G30  22551217.480   118507390.602    22551219.040    88495778.383  
E 7  24226334.380   127310206.984    24226340.520    95069301.555  
E19  26752285.400   140584175.4222   26752290.740   104981677.3322 
E21  26229667.060   137837792.840    26229673.560   102930809.188  
E27  23247024.940   122163918.332    23247030.200    91226296.777  
E30  24184762.120   127091754.977    24184767.640    94906172.844  
> 2021  1  4 21 43 14.0000000  0 13       0.000000000000
G 4  21952249.380   115359826.941    21952252.680    86145333.375  
G 7  21099742.380   110879894.465                                  
G 8  22838766.240   120018451.848    22838767.840    89624163.555  
G 9  20296267.020   106657561.949    20296267.720    79646884.621  
G14  23934161.760   125774838.8872                                 
G16  23853338.900   125350126.3522                                 
G27  23076128.980   121265818.184    23076130.040    90555642.766  
G30  22550831.200   118505360.750    22550832.780    88494262.586  
E 7  24226637.760   127311801.309    24226643.900    95070492.125  
E19  26751790.620   140581575.3202   26751795.960   104979735.7072 
E21  26229211.080   137835396.688    26229217.580   102929019.859  
E27  23246972.100   122163640.625    23246977.360    91226089.406  
E30  24185176.060   127093930.266    24185181.580    94907797.254  
> 2021  1  4 21 43 15.0000000  0 13       0.000000000000
G 4  21952695.480   115362171.219    21952698.780    86147083.973  
G 7  21099606.240   110879179.141                                  
G 8  22838345.020   120016238.383    22838346.640    89622510.645  
G 9  20296329.280   106657889.117    20296329.960    79647128.938  
G14  23933480.060   125771256.5512                                 
G16  23854022.840   125353720.4022                                 
G27  23076056.780   121265438.785    23076057.840    90555359.449  
G30  22550444.960   118503331.051    22550446.540    88492746.902  
E 7  24226941.220   127313395.969    24226947.360    95071682.945  
E19  26751295.860   140578975.3092   26751301.180   104977794.1412 
E21  26228755.160   137833000.750    26228761.660   102927230.688  
E27  23246919.320   122163363.277    23246924.580    91225882.301  
E30  24185590.040   127096105.707    24185595.560    94909421.773  
> 2021  1  4 21 43 16.0000000  0 13       0.000000000000
G 4  21953141.660   115364515.871    21953144.960    86148834.848  
G 7  21099470.160   110878464.008                                  
G 8  22837923.880   120014025.305    22837925.500    89620858.023  
G 9  20296391.620   106658216.793    20296392.320    79647373.625  
G14  23932798.400   125767674.3952                                 
G16  23854706.800   125357314.6602                                 
G27  23075984.700   121265060.023    23075985.780    90555076.609  
G30  22550058.760   118501301.520    22550060.320    88491231.344  
E 7  24227244.740   127314990.953    24227250.880    95072874.008  
E19  26750801.100   140576375.3592   26750806.420   104975852.6252 
E21  26228299.260   137830605.027    26228305.760   102925441.680  
E27  23246866.620   122163086.289    23246871.880    91225675.461  
E30  24186004.040   127098281.309    24186009.560    94911046.414  
> 2021  1  4 21 43 17.0000000  0 13       0.000000000000
G 4  21953587.900   115366860.887    21953591.200    86150585.992  
G 7  21099334.120   110877749.074                                  
G 8  22837502.840   120011812.652    22837504.440    89619205.719  
G 9  20296454.080   106658544.988    20296454.780    79647618.707  
G14  23932116.760   125764092.3952                                 
G16  23855390.800   125360909.1252                                 
G27  23075912.760   121264681.918    23075913.820    90554794.258  
G30  22549672.580   118499272.156    22549674.140    88489715.910  
E 7  24227548.320   127316586.277    24227554.460    95074065.328  
E19  26750306.360   140573775.4922   26750311.680   104973911.1722 
E21  26227843.420   137828209.535    26227849.920   102923652.844  
E27  23246813.980   122162809.672    23246819.240    91225468.898  
E30  24186418.080   127100457.078    24186423.600    94912671.180  
> 2021  1  4 21 43 18.0000000  0 13       0.000000000000
G 4  21954034.240   115369206.227    21954037.500    86152337.422  
G 7  21099198.040   110877034.676                                  
G 8  22837081.860   120009600.379    22837083.440    89617553.766  
G 9  20296516.640   106658873.629    20296517.320    79647864.160  
G14  23931435.020   125760511.2892                                 
G16  23856074.780   125364504.203                                  
G27  23075840.920   121264304.488    23075841.960    90554512.504  
G30  22549286.460   118497242.875    22549288.020    88488200.570  
E 7  24227851.960   127318181.914    24227858.100    95075256.863  
E19  26749811.600   140571175.902    26749816.900   104971970.039  
E21  26227387.600   137825814.289    26227394.100   102921864.195  
E27  23246761.400   122162533.418    23246766.660    91225262.605  
E30  24186832.140   127102633.012    24186837.660    94914296.066  
> 2021  1  4 21 43 19.0000000  0 13       0.000000000000
G 4  21954480.620   115371551.973    21954483.900    86154089.117  
G 7  21099062.060   110876320.117                                  
G 8  22836660.940   120007388.508    22836662.540    89615902.047  
G 9  20296579.280   106659202.840    20296579.980    79648110.000  
G14  23930753.460   125756929.6292                                 
G16  23856758.860   125368099.086                                  
G27  23075769.200   121263927.656    23075770.260    90554231.105  
G30  22548900.340   118495213.832    22548901.900    88486685.371  
E 7  24228155.660   127319777.902    24228161.800    95076448.672  
E19  26749316.880   140568576.195    26749322.180   104970028.699  
E21  26226931.840   137823419.238    26226938.340   102920075.684  
E27  23246708.900   122162257.539    23246714.160    91225056.590  
E30  24187246.220   127104809.105    24187251.760    94915921.070  
> 2021  1  4 21 43 20.0000000  0 13       0.000000000000
G 4  21954927.060   115373898.102    21954930.340    86155841.094  
G 7  21098926.120   110875605.746                                  
G 8  22836240.120   120005177.051    22836241.720    89614250.637  
G 9  20296642.040   106659532.555    20296642.720    79648356.219  
G14  23930071.940   125753348.1562                                 
G16  23857442.980   125371694.172                                  
G27  23075697.620   121263551.473    23075698.680    90553950.191  
G30  22548514.260   118493184.945    22548515.820    88485170.297  
E 7  24228459.420   127321374.219    24228465.580    95077640.727  
E19  26748822.200   140565976.566    26748827.480   104968087.418  
E21  26226476.120   137821024.414    26226482.620   102918287.340  
E27  23246656.480   122161982.016    23246661.740    91224850.844  
E30  24187660.360   127106985.359    24187665.880    94917546.195  
> 2021  1  4 21 43 21.0000000  0 13       0.000000000000
G 4  21955373.600   115376244.594    21955376.880    86157593.344  
G 7  21098790.220   110874891.566                                  
G 8  22835819.380   120002965.988    22835820.960    89612599.520  
G 9  20296704.880   106659862.781    20296705.560    79648602.813  
G14  23929390.420   125749766.8162                                 
G16  23858127.140   125375289.469                                  
G27  23075626.160   121263175.934    23075627.200    90553669.754  
G30  22548128.220   118491156.246    22548129.780    88483655.359  
E 7  24228763.260   127322970.859    24228769.400    95078833.023  
E19  26748327.520   140563377.016    26748332.800   104966146.199  
E21  26226020.440   137818629.805    26226026.940   102916499.160  
E27  23246604.120   122161706.855    23246609.360    91224645.367  
E30  24188074.520   127109161.777    24188080.040    94919171.441  
> 2021  1  4 21 43 22.0000000  0 13       0.000000000000
G 4  21955820.180   115378591.438    21955823.460    86159345.859  
G 7  21098654.360   110874177.574                                  
G 8  22835398.700   120000755.332    22835400.300    89610948.703  
G 9  20296767.820   106660193.523    20296768.500    79648849.797  
G14  23928708.960   125746185.6762                                 
G16  23858811.360   125378884.984                                  
G27  23075554.820   121262801.039    23075555.880    90553389.801  
G30  22547742.200   118489127.688    22547743.760    88482140.527  
E 7  24229067.140   127324567.836    24229073.300    95080025.570  
E19  26747832.840   140560777.535    26747838.140   104964205.027  
E21  26225564.800   137816235.418    26225571.300   102914711.141  
E27  23246551.820   122161432.066    23246557.080    91224440.168  
E30  24188488.700   127111338.355    24188494.220    94920796.809  
> 2021  1  4 21 43 23.0000000  0 13       0.000000000000
G 4  21956266.860   115380938.656    21956270.120    86161098.648  
G 7  21098518.520   110873463.770                                  
G 8  22834978.100   119998545.074    22834979.700    89609298.191  
G 9  20296830.860   106660524.762    20296831.540    79649097.152  
G14  23928027.520   125742604.6912                                 
G16  23859495.600   125382480.699                                  
G27  23075483.600   121262426.785    23075484.660    90553110.324  
G30  22547356.200   118487099.305    22547357.760    88480625.824  
E 7  24229371.100   127326165.137    24229377.240    95081218.359  
E19  26747338.200   140558178.148    26747343.480   104962263.926  
E21  26225109.200   137813841.262    26225115.700   102912923.301  
E27  23246499.600   122161157.637    23246504.860    91224235.234  
E30  24188902.920   127113515.090    24188908.440    94922422.293  
> 2021  1  4 21 43 24.0000000  0 13       0.000000000000
G 4  21956713.580   115383286.238    21956716.860    86162851.715  
G 7  21098382.740   110872750.164                                  
G 8  22834557.580   119996335.242    22834559.180    89607647.992  
G 9  20296893.980   106660856.527    20296894.680    79649344.895  
G14  23927346.120   125739023.8672                                 
G16  23860179.880   125386076.625                                  
G27  23075412.520   121262053.164    23075413.560    90552831.324  
G30  22546970.260   118485071.086    22546971.800    88479111.246  
E 7  24229675.120   127327762.770    24229681.260    95082411.398  
E19  26746843.560   140555578.828    26746848.860   104960322.875  
E21  26224653.660   137811447.316    26224660.140   102911135.613  
E27  23246447.440   122160883.574    23246452.700    91224030.578  
E30  24189317.160   127115691.988    24189322.700    94924047.898  
> 2021  1  4 21 43 25.0000000  0 13       0.000000000000
G 4  21957160.380   115385634.203    21957163.660    86164605.063  
G 7  21098246.980   110872036.734                                  
G 8  22834137.160   119994125.816    22834138.740    89605998.094  
G 9  20296957.220   106661188.785    20296957.900    79649593.012  
G14  23926664.740   125735443.2382                                 
G16  23860864.200   125389672.758                                  
G27  23075341.540   121261680.199    23075342.580    90552552.809  
G30  22546584.320   118483043.027    22546585.880    88477596.789  
E 7  24229979.200   127329360.730    24229985.340    95083604.680  
E19  26746348.940   140552979.586    26746354.220   104958381.887  
E21  26224198.140   137809053.602    26224204.640   102909348.098  
E27  23246395.360   122160609.875    23246400.620    91223826.191  
E30  24189731.440   127117869.047    24189736.980    94925673.621  
> 2021  1  4 21 43 26.0000000  0 13       0.000000000000
G 4  21957607.260   115387982.520    21957610.540    86166358.676  
G 7  21098111.260   110871323.508                                  
G 8  22833716.780   119991916.773    22833718.380    89604348.488  
G 9  20297020.540   106661521.559    20297021.220    79649841.512  
G14  23925983.400   125731862.7582                                 
G16  23861548.580   125393269.098                                  
G27  23075270.700   121261307.863    23075271.740    90552274.770  
G30  22546198.420   118481015.121    22546199.980    88476082.445  
E 7  24230283.340   127330959.027    24230289.480    95084798.211  
E19  26745854.340   140550380.422    26745859.620   104956440.953  
E21  26223742.680   137806660.109    26223749.160   102907560.754  
E27  23246343.340   122160336.535    23246348.600    91223622.074  
E30  24190145.760   127120046.266    24190151.280    94927299.465  
> 2021  1  4 21 43 27.0000000  0 13       0.000000000000
G 4  21958054.200   115390331.223    21958057.480    86168112.574  
G 7  21097975.580   110870610.473                                  
G 8  22833296.500   119989708.113    22833298.080    89602699.164  
G 9  20297083.960   106661854.859    20297084.660    79650090.402  
G14  23925302.100   125728282.4532                                 
G16  23862232.980   125396865.652                                  
G27  23075199.960   121260936.195    23075201.020    90551997.223  
G30  22545812.560   118478987.391    22545814.120    88474568.230  
E 7  24230587.560   127332557.652    24230593.700    95085991.992  
E19  26745359.740   140547781.344    26745365.040   104954500.086  
E21  26223287.240   137804266.836    26223293.740   102905773.570  
E27  23246291.400   122160063.570    23246296.660    91223418.238  
E30  24190560.100   127122223.648    24190565.620    94928925.434  
> 2021  1  4 21 43 28.0000000  0 13       0.000000000000
G 4  21958501.220   115392680.281    21958504.500    86169866.742  
G 7  21097839.920   110869897.621                                  
G 8  22832876.280   119987499.855    22832877.860    89601050.141  
G 9  20297147.500   106662188.656    20297148.180    79650339.668  
G14  23924620.820   125724702.3202                                 
G16  23862917.420   125400462.426                                  
G27  23075129.360   121260565.164    23075130.400    90551720.156  
G30  22545426.740   118476959.832    22545428.300    88473054.145  
E 7  24230891.820   127334156.613    24230897.960    95087186.020  
E19  26744865.160   140545182.340    26744870.460   104952559.270  
E21  26222831.860   137801873.785    26222838.360   102903986.551  
E27  23246239.520   122159790.961    23246244.780    91223214.664  
E30  24190974.460   127124401.195    24190980.000    94930551.523  
> 2021  1  4 21 43 29.0000000  0 13       0.000000000000
G 4  21958948.300   115395029.719    21958951.580    86171621.191  
G 7  21097704.300   110869184.961                                  
G 8  22832456.140   119985292.000    22832457.720    89599401.418  
G 9  20297211.100   106662522.965    20297211.800    79650589.313  
G14  23923939.580   125721122.3632                                 
G16  23863601.900   125404059.395                                  
G27  23075058.880   121260194.758    23075059.920    90551443.551  
G30  22545040.940   118474932.430    22545042.500    88471540.176  
E 7  24231196.160   127335755.898    24231202.300    95088380.289  
E19  26744370.600   140542583.418    26744375.900   104950618.516  
E21  26222376.520   137799480.957    26222383.020   102902199.699  
E27  23246187.700   122159518.711    23246192.960    91223011.363  
E30  24191388.860   127126578.895    24191394.400    94932177.727  
> 2021  1  4 21 43 30.0000000  0 13       0.000000000000
G 4  21959395.460   115397379.500    21959398.740    86173375.898  
G 7  21097568.740   110868472.484                                  
G 8  22832036.080   119983084.535    22832037.660    89597752.988  
G 9  20297274.820   106662857.785    20297275.520    79650839.344  
G14  23923258.360   125717542.5552                                 
G16  23864286.420   125407656.563                                  
G27  23074988.520   121259825.004    23074989.560    90551167.441  
G30  22544655.160   118472905.195    22544656.720    88470026.332  
E 7  24231500.540   127337355.504    24231506.700    95089574.801  
E19  26743876.060   140539984.570    26743881.340   104948677.820  
E21  26221921.220   137797088.340    26221927.700   102900413.004  
E27  23246135.960   122159246.832    23246141.220    91222808.336  
E30  24191803.300   127128756.758    24191808.820    94933804.051  
> 2021  1  4 21 43 31.0000000  0 13       0.000000000000
G 4  21959842.680   115399729.664    21959845.960    86175130.887  
G 7  21097433.200   110867760.203                                  
G 8  22831616.080   119980877.477    22831617.680    89596104.863  
G 9  20297338.640   106663193.121    20297339.320    79651089.754  
G14  23922577.200   125713962.9412                                 
G16  23864971.000   125411253.957                                  
G27  23074918.280   121259455.898    23074919.320    90550891.809  
G30  22544269.440   118470878.129    22544270.980    88468512.613  
E 7  24231805.000   127338955.445    24231811.140    95090769.563  
E19  26743381.520   140537385.797    26743386.820   104946737.180  
E21  26221465.960   137794695.949    26221472.440   102898626.480  
E27  23246084.300   122158975.313    23246089.560    91222605.578  
E30  24192217.760   127130934.777    24192223.300    94935430.496  
> 2021  1  4 21 43 32.0000000  0 13       0.000000000000
G 4  21960289.980   115402080.199    21960293.260    86176886.156  
G 7  21097297.680   110867048.113                                  
G 8  22831196.180   119978670.824    22831197.760    89594457.039  
G 9  20297402.540   106663528.961    20297403.240    79651340.547  
G14  23921896.040   125710383.4882                                 
G16  23865655.600   125414851.543                                  
G27  23074848.160   121259087.434    23074849.220    90550616.656  
G30  22543883.720   118468851.219    22543885.280    88466999.016  
E 7  24232109.520   127340555.723    24232115.660    95091964.574  
E19  26742887.000   140534787.109    26742892.300   104944796.602  
E21  26221010.740   137792303.793    26221017.240   102896840.129  
E27  23246032.700   122158704.164    23246037.960    91222403.098  
E30  24192632.260   127133112.965    24192637.780    94937057.063  
> 2021  1  4 21 43 33.0000000  0 13       0.000000000000
G 4  21960737.340   115404431.098    21960740.620    86178641.699  
G 7  21097162.220   110866336.211                                  
G 8  22830776.340   119976464.563    22830777.920    89592809.504  
G 9  20297466.560   106663865.313    20297467.240    79651591.715  
G14  23921214.940   125706804.2112                                 
G16  23866340.240   125418449.348                                  
G27  23074778.180   121258719.605    23074779.220    90550341.980  
G30  22543498.060   118466824.488    22543499.600    88465485.547  
E 7  24232414.100   127342156.328    24232420.260    95093159.832  
E19  26742392.500   140532188.480    26742397.800   104942856.066  
E21  26220555.560   137789911.840    26220562.060   102895053.934  
E27  23245981.160   122158433.371    23245986.420    91222200.883  
E30  24193046.780   127135291.305    24193052.300    94938683.746  
> 2021  1  4 21 43 34.0000000  0 13       0.000000000000
G 4  21961184.780   115406782.367    21961188.060    86180397.516  
G 7  21097026.780   110865624.500                                  
G 8  22830356.580   119974258.727    22830358.180    89591162.293  
G 9  20297530.660   106664202.180    20297531.360    79651843.273  
G14  23920533.860   125703225.1052                                 
G16  23867024.920   125422047.348                                  
G27  23074708.300   121258352.426    23074709.360    90550067.789  
G30  22543112.420   118464797.906    22543113.960    88463972.191  
E 7  24232718.760   127343757.262    24232724.900    95094355.332  
E19  26741898.020   140529589.953    26741903.300   104940915.609  
E21  26220100.440   137787520.121    26220106.920   102893267.910  
E27  23245929.700   122158162.953    23245934.960    91221998.945  
E30  24193461.340   127137469.816    24193466.860    94940310.555  
> 2021  1  4 21 43 35.0000000  0 13       0.000000000000
G 4  21961632.280   115409134.004    21961635.560    86182153.605  
G 7  21096891.400   110864912.984                                  
G 8  22829936.900   119972053.281    22829938.480    89589515.371  
G 9  20297594.860   106664539.535    20297595.540    79652095.195  
G14  23919852.800   125699646.1602                                 
G16  23867709.640   125425645.559                                  
G27  23074638.560   121257985.898    23074639.600    90549794.082  
G30  22542726.800   118462771.508    22542728.360    88462458.969  
E 7  24233023.460   127345358.527    24233029.600    95095551.082  
E19  26741403.540   140526991.496    26741408.840   104938975.207  
E21  26219645.340   137785128.617    26219651.840   102891482.047  
E27  23245878.320   122157892.895    23245883.560    91221797.277  
E30  24193875.920   127139648.473    24193881.440    94941937.473  
> 2021  1  4 21 43 37.0000000  0 13       0.000000000000
G 4  21962527.500   115413838.387    21962530.780    86185666.617  
G 7  21096620.700   110863490.531                                  
G 8  22829097.760   119967643.613    22829099.360    89586222.438  
G 9  20297723.560   106665215.813    20297724.240    79652600.207  
G14  23918490.800   125692488.8132                                 
G16  23869079.200   125432842.602                                  
G27  23074499.440   121257254.766    23074500.480    90549248.105  
G30  22541955.660   118458719.176    22541957.220    88459432.879  
E 7  24233633.080   127348562.039    24233639.220    95097943.316  
E19  26740414.640   140521794.816    26740419.940   104935094.570  
E21  26218735.300   137780346.289    26218741.780   102887910.828  
E27  23245775.740   122157353.863    23245781.000    91221394.754  
E30  24194705.180   127144006.281    24194710.700    94945191.680  
> 2021  1  4 21 43 38.0000000  0 13       0.000000000000
G 4  21962975.200   115416191.117    21962978.480    86187423.523  
G 7  21096485.420   110862779.594                                  
G 8  22828678.320   119965439.371    22828679.900    89584576.414  
G 9  20297788.040   106665554.719    20297788.740    79652853.285  
G14  23917809.860   125688910.3872                                 
G16  23869764.020   125436441.430                                  
G27  23074430.060   121256890.172    23074431.100    90548975.848  
G30  22541570.160   118456693.254    22541571.700    88457920.020  
E 7  24233937.960   127350164.289    24233944.120    95099139.801  
E19  26739920.220   140519196.609    26739925.500   104933154.352  
E21  26218280.320   137777955.453    26218286.820   102886125.465  
E27  23245724.560   122157084.895    23245729.800    91221193.902  
E30  24195119.860   127146185.426    24195125.380    94946818.961  
> 2021  1  4 21 43 39.0000000  0 13       0.000000000000
G 4  21963423.000   115418544.246    21963426.280    86189180.730  
G 7  21096350.180   110862068.844                                  
G 8  22828258.940   119963235.563    22828260.540    89582930.715  
G 9  20297852.640   106665894.129    20297853.320    79653106.738  
G14  23917128.940   125685332.1292                                 
G16  23870448.900   125440040.461                                  
G27  23074360.800   121256526.219    23074361.840    90548704.063  
G30  22541184.660   118454667.504    22541186.220    88456407.285  
E 7  24234242.920   127351766.887    24234249.080    95100336.543  
E19  26739425.800   140516598.457    26739431.100   104931214.172  
E21  26217825.400   137775564.840    26217831.900   102884340.266  
E27  23245673.440   122156816.289    23245678.700    91220993.320  
E30  24195534.560   127148364.734    24195540.100    94948446.367  
> 2021  1  4 21 43 40.0000000  0 13       0.000000000000
G 4  21963870.840   115420897.715    21963874.140    86190938.191  
G 7  21096214.960   110861358.270                                  
G 8  22827839.640   119961032.133    22827841.240    89581285.297  
G 9  20297917.320   106666234.059    20297918.020    79653360.582  
G14  23916448.060   125681754.0472                                 
G16  23871133.820   125443639.711                                  
G27  23074291.660   121256162.910    23074292.700    90548432.762  
G30  22540799.200   118452641.918    22540800.760    88454894.668  
E 7  24234547.960   127353369.793    24234554.100    95101533.520  
E19  26738931.400   140514000.402    26738936.700   104929274.070  
E21  26217370.540   137773174.465    26217377.020   102882555.250  
E27  23245622.380   122156548.043    23245627.640    91220793.008  
E30  24195949.300   127150544.195    24195954.820    94950073.887  
> 2021  1  4 21 43 41.0000000  0 13       0.000000000000
G 4  21964318.780   115423251.547    21964322.060    86192695.922  
G 7  21096079.780   110860647.895                                  
G 8  22827420.420   119958829.113    22827422.020    89579640.184  
G 9  20297982.120   106666574.488    20297982.800    79653614.801  
G14  23915767.200   125678176.1372                                 
G16  23871818.780   125447239.156                                  
G27  23074222.660   121255800.250    23074223.700    90548161.945  
G30  22540413.780   118450616.492    22540415.340    88453382.176  
E 7  24234853.040   127354973.039    24234859.180    95102730.746  
E19  26738437.020   140511402.418    26738442.320   104927334.016  
E21  26216915.700   137770784.281    26216922.180   102880770.371  
E27  23245571.400   122156280.168    23245576.660    91220592.969  
E30  24196364.060   127152723.820    24196369.600    94951701.527  
> 2021  1  4 21 43 42.0000000  0 13       0.000000000000
G 4  21964766.760   115425605.754    21964770.040    86194453.934  
G 7  21095944.640   110859937.715                                  
G 8  22827001.280   119956626.484    22827002.880    89577995.367  
G 9  20298047.000   106666915.438    20298047.680    79653869.406  
G14  23915086.380   125674598.4022                                 
G16  23872503.780   125450838.820                                  
G27  23074153.760   121255438.219    23074154.800    90547891.598  
G30  22540028.400   118448591.234    22540029.940    88451869.813  
E 7  24235158.180   127356576.617    24235164.320    95103928.223  
E19  26737942.660   140508804.520    26737947.940   104925394.031  
E21  26216460.900   137768394.340    26216467.400   102878985.676  
E27  23245520.500   122156012.656    23245525.760    91220393.203  
E30  24196778.860   127154903.609    24196784.400    94953329.293  
> 2021  1  4 21 43 43.0000000  0 13       0.000000000000
G 4  21965214.820   115427960.332    21965218.100    86196212.219  
G 7  21095809.540   110859227.723                                  
G 8  22826582.220   119954424.273    22826583.800    89576350.859  
G 9  20298111.980   106667256.895    20298112.660    79654124.391  
G14  23914405.600   125671020.8322                                 
G16  23873188.800   125454438.684                                  
G27  23074085.000   121255076.832    23074086.040    90547621.730  
G30  22539643.040   118446566.141    22539644.580    88450357.566  
E 7  24235463.400   127358180.516    24235469.540    95105125.941  
E19  26737448.300   140506206.680    26737453.600   104923454.086  
E21  26216006.140   137766004.613    26216012.640   102877201.141  
E27  23245469.660   122155745.508    23245474.920    91220193.711  
E30  24197193.680   127157083.551    24197199.220    94954957.172  
> 2021  1  4 21 43 44.0000000  0 13       0.000000000000
G 4  21965662.960   115430315.273    21965666.240    86197970.781  
G 7  21095674.460   110858517.914                                  
G 8  22826163.220   119952222.461    22826164.820    89574706.648  
G 9  20298177.040   106667598.855    20298177.740    79654379.750  
G14  23913724.840   125667443.4342                                 
G16  23873873.880   125458038.754                                  
G27  23074016.360   121254716.098    23074017.400    90547352.348  
G30  22539257.700   118444541.199    22539259.260    88448845.434  
E 7  24235768.660   127359784.742    24235774.820    95106323.902  
E19  26736953.960   140503608.941    26736959.260   104921514.215  
E21  26215551.440   137763615.098    26215557.920   102875416.762  
E27  23245418.900   122155478.723    23245424.160    91219994.488  
E30  24197608.540   127159263.652    24197614.080    94956585.164  
> 2021  1  4 21 43 45.0000000  0 13       0.000000000000
G 4  21966111.160   115432670.590    21966114.440    86199729.621  
G 7  21095539.420   110857808.293                                  
G 8  22825744.320   119950021.070    22825745.900    89573062.754  
G 9  20298242.220   106667941.344    20298242.920    79654635.504  
G14  23913044.120   125663866.2112                                 
G16  23874559.000   125461639.031                                  
G27  23073947.820   121254356.008    23073948.880    90547083.453  
G30  22538872.400   118442516.441    22538873.960    88447333.438  
E 7  24236074.000   127361389.313    24236080.160    95107522.121  
E19  26736459.640   140501011.270    26736464.940   104919574.395  
E21  26215096.780   137761225.828    26215103.260   102873632.566  
E27  23245368.200   122155212.297    23245373.440    91219795.535  
E30  24198023.440   127161443.918    24198028.960    94958213.285  
> 2021  1  4 21 43 46.0000000  0 13       0.000000000000
G 4  21966559.440   115435026.266    21966562.720    86201488.727  
G 7  21095404.440   110857098.863                                  
G 8  22825325.480   119947820.063    22825327.080    89571419.148  
G 9  20298307.500   106668284.332    20298308.180    79654891.633  
G14  23912363.420   125660289.1562                                 
G16  23875244.140   125465239.520                                  
G27  23073879.440   121253996.566    23073880.480    90546815.039  
G30  22538487.140   118440491.840    22538488.680    88445821.563  
E 7  24236379.400   127362994.207    24236385.540    95108720.578  
E19  26735965.340   140498413.688    26735970.620   104917634.645  
E21  26214642.140   137758836.766    26214648.640   102871848.531  
E27  23245317.560   122154946.242    23245322.820    91219596.855  
E30  24198438.360   127163624.352    24198443.900    94959841.531  
> 2021  1  4 21 43 47.0000000  0 13       0.000000000000
G 4  21967007.780   115437382.297    21967011.060    86203248.102  
G 7  21095269.480   110856389.629                                  
G 8  22824906.720   119945619.453    22824908.300    89569775.836  
G 9  20298372.860   106668627.824    20298373.540    79655148.137  
G14  23911682.760   125656712.2702                                 
G16  23875929.340   125468840.203                                  
G27  23073811.160   121253637.758    23073812.200    90546547.098  
G30  22538101.900   118438467.395    22538103.460    88444309.805  
E 7  24236684.860   127364599.430    24236691.020    95109919.285  
E19  26735471.040   140495816.180    26735476.340   104915694.949  
E21  26214187.560   137756447.934    26214194.060   102870064.660  
E27  23245267.000   122154680.547    23245272.260    91219398.449  
E30  24198853.300   127165804.930    24198858.840    94961469.883  
> 2021  1  4 21 43 48.0000000  0 13       0.000000000000
G 4  21967456.200   115439738.715    21967459.480    86205007.762  
G 7  21095134.540   110855680.582                                  
G 8  22824488.040   119943419.246    22824489.620    89568132.824  
G 9  20298438.320   106668971.840    20298439.020    79655405.027  
G14  23911002.140   125653135.5662                                 
G16  23876614.560   125472441.102                                  
G27  23073743.000   121253279.609    23073744.040    90546279.648  
G30  22537716.700   118436443.125    22537718.240    88442798.172  
E 7  24236990.400   127366204.984    24236996.540    95111118.238  
E19  26734976.780   140493218.750    26734982.060   104913755.309  
E21  26213733.020   137754059.320    26213739.520   102868280.957  
E27  23245216.500   122154415.215    23245221.760    91219200.309  
E30  24199268.280   127167985.672    24199273.820    94963098.359  
> 2021  1  4 21 43 49.0000000  0 13       0.000000000000
G 4  21967904.680   115442095.492    21967907.960    86206767.688  
G 7  21094999.660   110854971.730                                  
G 8  22824069.420   119941219.445    22824071.020    89566490.113  
G 9  20298503.880   106669316.371    20298504.580    79655662.305  
G14  23910321.560   125649559.0312                                 
G16  23877299.840   125476042.207                                  
G27  23073674.960   121252922.090    23073676.020    90546012.664  
G30  22537331.520   118434419.031    22537333.080    88441286.668  
E 7  24237295.980   127367810.867    24237302.120    95112317.434  
E19  26734482.500   140490621.395    26734487.800   104911815.730  
E21  26213278.520   137751670.922    26213285.020   102866497.414  
E27  23245166.080   122154150.242    23245171.340    91219002.441  
E30  24199683.300   127170166.570    24199688.820    94964726.953  
> 2021  1  4 21 43 50.0000000  0 13       0.000000000000
G 4  21968353.220   115444452.648    21968356.500    86208527.895  
G 7  21094864.800   110854263.074                                  
G 8  22823650.900   119939020.066    22823652.480    89564847.715  
G 9  20298569.540   106669661.406    20298570.240    79655919.957  
G14  23909641.000   125645982.6722                                 
G16  23877985.140   125479643.508                                  
G27  23073607.060   121252565.230    23073608.100    90545746.176  
G30  22536946.380   118432395.082    22536947.940    88439775.277  
E 7  24237601.620   127369417.074    24237607.780    95113516.875  
E19  26733988.260   140488024.113    26733993.540   104909876.199  
E21  26212824.060   137749282.762    26212830.560   102864714.047  
E27  23245115.720   122153885.637    23245120.980    91218804.844  
E30  24200098.340   127172347.629    24200103.860    94966355.664  
> 2021  1  4 21 43 51.0000000  0 13       0.000000000000
G 4  21968801.840   115446810.156    21968805.140    86210288.371  
G 7  21094729.980   110853554.602                                  
G 8  22823232.440   119936821.082    22823234.040    89563205.617  
G 9  20298635.300   106670006.957    20298636.000    79656177.996  
G14  23908960.460   125642406.4692                                 
G16  23878670.500   125483245.031                                  
G27  23073539.280   121252209.020    23073540.320    90545480.168  
G30  22536561.260   118430371.320    22536562.820    88438264.023  
E 7  24237907.340   127371023.629    24237913.480    95114716.574  
E19  26733494.020   140485426.930    26733499.320   104907936.746  
E21  26212369.660   137746894.809    26212376.140   102862930.836  
E27  23245065.440   122153621.402    23245070.700    91218607.527  
E30  24200513.400   127174528.855    24200518.940    94967984.504  
> 2021  1  4 21 43 52.0000000  0 13       0.000000000000
G 4  21969250.540   115449168.035    21969253.820    86212049.117  
G 7  21094595.200   110852846.328                                  
G 8  22822814.080   119934622.500    22822815.660    89561563.816  
G 9  20298701.160   106670353.020    20298701.840    79656436.414  
G14  23908279.980   125638830.4652                                 
G16  23879355.880   125486846.754                                  
G27  23073471.620   121251853.434    23073472.660    90545214.633  
G30  22536176.180   118428347.715    22536177.740    88436752.883  
E 7  24238213.120   127372630.496    24238219.260    95115916.508  
E19  26732999.820   140482829.820    26733005.100   104905997.348  
E21  26211915.280   137744507.078    26211921.780   102861147.793  
E27  23245015.220   122153357.527    23245020.480    91218410.480  
E30  24200928.500   127176710.234    24200934.040    94969613.453  
> 2021  1  4 21 43 53.0000000  0 13       0.000000000000
G 4  21969699.300   115451526.293    21969702.580    86213810.152  
G 7  21094460.460   110852138.242                                  
G 8  22822395.780   119932424.328    22822397.360    89559922.320  
G 9  20298767.100   106670699.582    20298767.800    79656695.207  
G14  23907599.500   125635254.6132                                 
G16  23880041.300   125490448.684                                  
G27  23073404.060   121251498.508    23073405.120    90544949.586  
G30  22535791.140   118426324.266    22535792.700    88435241.863  
E 7  24238518.960   127374237.699    24238525.100    95117116.691  
E19  26732505.600   140480232.773    26732510.900   104904057.996  
E21  26211460.960   137742119.590    26211467.440   102859364.926  
E27  23244965.080   122153094.008    23244970.340    91218213.695  
E30  24201343.640   127178891.773    24201349.180    94971242.523  
> 2021  1  4 21 43 54.0000000  0 13       0.000000000000
G 4  21970148.120   115453884.918    21970151.420    86215571.453  
G 7  21094325.760   110851430.340                                  
G 8  22821977.540   119930226.566    22821979.140    89558281.129  
G 9  20298833.160   106671046.664    20298833.840    79656954.387  
G14  23906919.080   125631678.9492                                 
G16  23880726.760   125494050.816                                  
G27  23073336.640   121251144.211    23073337.700    90544685.008  
G30  22535406.120   118424300.977    22535407.680    88433730.965  
E 7  24238824.860   127375845.227    24238831.000    95118317.117  
E19  26732011.420   140477635.832    26732016.700   104902118.719  
E21  26211006.660   137739732.309    26211013.160   102857582.219  
E27  23244915.000   122152830.855    23244920.260    91218017.188  
E30  24201758.800   127181073.469    24201764.340    94972871.711  
> 2021  1  4 21 43 55.0000000  0 13       0.000000000000
G 4  21970597.020   115456243.902    21970600.320    86217333.031  
G 7  21094191.080   110850722.633                                  
G 8  22821559.400   119928029.207    22821561.000    89556640.242  
G 9  20298899.300   106671394.262    20298900.000    79657213.953  
G14  23906238.680   125628103.4452                                 
G16  23881412.260   125497653.152                                  
G27  23073269.360   121250790.570    23073270.400    90544420.926  
G30  22535021.140   118422277.867    22535022.700    88432220.195  
E 7  24239130.820   127377453.090    24239136.960    95119517.797  
E19  26731517.260   140475038.957    26731522.540   104900179.496  
E21  26210552.420   137737345.250    26210558.920   102855799.676  
E27  23244865.000   122152568.066    23244870.240    91217820.945  
E30  24202174.000   127183255.328    24202179.520    94974501.023  
> 2021  1  4 21 43 56.0000000  0 13       0.000000000000
G 4  21971046.000   115458603.250    21971049.300    86219094.879  
G 7  21094056.440   110850015.113                                  
G 8  22821141.340   119925832.250    22821142.920    89554999.656  
G 9  20298965.540   106671742.363    20298966.240    79657473.898  
G14  23905558.320   125624528.1252                                 
G16  23882097.820   125501255.691                                  
G27  23073202.180   121250437.574    23073203.240    90544157.316  
G30  22534636.180   118420254.914    22534637.740    88430709.547  
E 7  24239436.840   127379061.281    24239443.000    95120718.715  
E19  26731023.100   140472442.156    26731028.380   104898240.332  
E21  26210098.220   137734958.406    26210104.700   102854017.293  
E27  23244815.060   122152305.641    23244820.300    91217624.980  
E30  24202589.220   127185437.348    24202594.760    94976130.449  
> 2021  1  4 21 43 57.0000000  0 13       0.000000000000
G 4  21971495.040   115460962.977    21971498.340    86220857.004  
G 7  21093921.840   110849307.789                                  
G 8  22820723.340   119923635.699    22820724.940    89553359.371  
G 9  20299031.880   106672090.988    20299032.580    79657734.230  
G14  23904878.000   125620952.9692                                 
G16  23882783.400   125504858.445                                  
G27  23073135.140   121250085.234    23073136.180    90543894.203  
G30  22534251.260   118418232.129    22534252.820    88429199.023  
E 7  24239742.940   127380669.805    24239749.080    95121919.887  
E19  26730528.960   140469845.441    26730534.240   104896301.227  
E21  26209644.060   137732571.805    26209650.560   102852235.090  
E27  23244765.180   122152043.594    23244770.440    91217429.293  
E30  24203004.480   127187619.531    24203010.000    94977760.004  
> 2021  1  4 21 43 58.0000000  0 13       0.000000000000
G 4  21971944.140   115463323.059    21971947.440    86222619.398  
G 7  21093787.280   110848600.641                                  
G 8  22820305.420   119921439.531    22820307.020    89551719.375  
G 9  20299098.320   106672440.113    20299099.020    79657994.934  
G14  23904197.700   125617377.9842                                 
G16  23883469.020   125508461.418                                  
G27  23073068.200   121249733.520    23073069.260    90543631.555  
G30  22533866.360   118416209.508    22533867.920    88427688.617  
E 7  24240049.100   127382278.648    24240055.240    95123121.293  
E19  26730034.820   140467248.809    26730040.120   104894362.180  
E21  26209189.940   137730185.406    26209196.440   102850453.039  
E27  23244715.380   122151781.883    23244720.640    91217233.859  
E30  24203419.760   127189801.859    24203425.280    94979389.664  
> 2021  1  4 21 43 59.0000000  0 13       0.000000000000
G 4  21972393.320   115465683.512    21972396.620    86224382.070  
G 7  21093652.740   110847893.691                                  
G 8  22819887.600   119919243.785    22819889.180    89550079.688  
G 9  20299164.860   106672789.762    20299165.560    79658256.031  
G14  23903517.440   125613803.1802                                 
G16  23884154.680   125512064.582                                  
G27  23073001.400   121249382.457    23073002.460    90543369.398  
G30  22533481.500   118414187.055    22533483.060    88426178.344  
E 7  24240355.300   127383887.832    24240361.460    95124322.957  
E19  26729540.720   140464652.262    26729546.000   104892423.203  
E21  26208735.880   137727799.250    26208742.360   102848671.172  
E27  23244665.640   122151520.555    23244670.900    91217038.715  
E30  24203835.060   127191984.359    24203840.600    94981019.453  
> 2021  1  4 21 44  0.0000000  0 13       0.000000000000
G 4  21972842.580   115468044.332    21972845.880    86226145.016  
G 7  21093518.260   110847186.934                                  
G 8  22819469.840   119917048.434    22819471.420    89548440.305  
G 9  20299231.480   106673139.906    20299232.180    79658517.496  
G14  23902837.200   125610228.5272                                 
G16  23884840.380   125515667.945                                  
G27  23072934.720   121249032.047    23072935.780    90543107.719  
G30  22533096.680   118412164.762    22533098.240    88424668.184  
E 7  24240661.580   127385497.348    24240667.740    95125524.867  
E19  26729046.620   140462055.785    26729051.900   104890484.273  
E21  26208281.840   137725413.309    26208288.320   102846889.461  
E27  23244615.980   122151259.586    23244621.240    91216843.836  
E30  24204250.420   127194167.012    24204255.940    94982649.355  
> 2021  1  4 21 44  1.0000000  0 13       0.000000000000
G 4  21973291.900   115470405.527    21973295.200    86227908.242  
G 7  21093383.800   110846480.367                                  
G 8  22819052.140   119914853.512    22819053.740    89546801.230  
G 9  20299298.200   106673490.559    20299298.920    79658779.348  
G14  23902157.000   125606654.0632                                 
G16  23885526.120   125519271.520                                  
G27  23072868.160   121248682.266    23072869.220    90542846.520  
G30  22532711.880   118410142.633    22532713.440    88423158.152  
E 7  24240967.920   127387107.180    24240974.080    95126727.016  
E19  26728552.540   140459459.398    26728557.820   104888545.418  
E21  26207827.840   137723027.574    26207834.340   102845107.906  
E27  23244566.400   122150998.977    23244571.640    91216649.223  
E30  24204665.780   127196349.820    24204671.320    94984279.375  
> 2021  1  4 21 44  2.0000000  0 13       0.000000000000
G 4  21973741.280   115472767.074    21973744.580    86229671.730  
G 7  21093249.380   110845773.988                                  
G 8  22818634.540   119912658.988    22818636.140    89545162.461  
G 9  20299365.040   106673841.738    20299365.740    79659041.586  
G14  23901476.840   125603079.7622                                 
G16  23886211.900   125522875.297                                  
G27  23072801.720   121248333.141    23072802.780    90542585.801  
G30  22532327.100   118408120.676    22532328.680    88421648.242  
E 7  24241274.320   127388717.340    24241280.480    95127929.410  
E19  26728058.480   140456863.066    26728063.760   104886606.598  
E21  26207373.900   137720642.066    26207380.380   102843326.523  
E27  23244516.860   122150738.730    23244522.120    91216454.883  
E30  24205081.180   127198532.789    24205086.720    94985909.512  
> 2021  1  4 21 44  3.0000000  0 13       0.000000000000
G 4  21974190.740   115475128.996    21974194.040    86231435.500  
G 7  21093115.000   110845067.797                                  
G 8  22818217.020   119910464.871    22818218.620    89543523.996  
G 9  20299431.960   106674193.410    20299432.660    79659304.195  
G14  23900796.700   125599505.6452                                 
G16  23886897.700   125526479.273                                  
G27  23072735.400   121247984.652    23072736.460    90542325.566  
G30  22531942.380   118406098.875    22531943.940    88420138.453  
E 7  24241580.800   127390327.844    24241586.940    95129132.055  
E19  26727564.420   140454266.836    26727569.720   104884667.855  
E21  26206920.000   137718256.801    26206926.480   102841545.320  
E27  23244467.420   122150478.852    23244472.660    91216260.820  
E30  24205496.620   127200715.918    24205502.160    94987539.770  
> 2021  1  4 21 44  4.0000000  0 13       0.000000000000
G 4  21974640.280   115477491.293    21974643.580    86233199.547  
G 7  21092980.660   110844361.809                                  
G 8  22817799.580   119908271.184    22817801.180    89541885.852  
G 9  20299498.980   106674545.613    20299499.680    79659567.199  
G14  23900116.600   125595931.7072                                 
G16  23887583.560   125530083.461                                  
G27  23072669.220   121247636.813    23072670.280    90542065.813  
G30  22531557.660   118404077.238    22531559.240    88418628.789  
E 7  24241887.320   127391938.672    24241893.460    95130334.949  
E19  26727070.400   140451670.684    26727075.680   104882729.172  
E21  26206466.140   137715871.746    26206472.620   102839764.270  
E27  23244418.020   122150219.336    23244423.280    91216067.023  
E30  24205912.080   127202899.207    24205917.620    94989170.145  
> 2021  1  4 21 44  5.0000000  0 13       0.000000000000
G 4  21975089.880   115479853.938    21975093.180    86234963.855  
G 7  21092846.340   110843656.000                                  
G 8  22817382.200   119906077.891    22817383.800    89540248.000  
G 9  20299566.100   106674898.313    20299566.800    79659830.574  
G14  23899436.540   125592357.9262                                 
G16  23888269.460   125533687.848                                  
G27  23072603.140   121247289.617    23072604.200    90541806.539  
G30  22531173.000   118402055.770    22531174.560    88417119.246  
E 7  24242193.920   127393549.824    24242200.060    95131538.078  
E19  26726576.380   140449074.605    26726581.660   104880790.543  
E21  26206012.300   137713486.898    26206018.800   102837983.379  
E27  23244368.700   122149960.176    23244373.960    91215873.496  
E30  24206327.580   127205082.648    24206333.120    94990800.641  
> 2021  1  4 21 44  6.0000000  0 13       0.000000000000
G 4  21975539.540   115482216.953    21975542.840    86236728.438  
G 7  21092712.060   110842950.375                                  
G 8  22816964.900   119903884.988    22816966.500    89538610.438  
G 9  20299633.320   106675251.523    20299634.020    79660094.332  
G14  23898756.500   125588784.3242                                 
G16  23888955.380   125537292.438                                  
G27  23072537.200   121246943.066    23072538.260    90541547.746  
G30  22530788.360   118400034.469    22530789.920    88415609.828  
E 7  24242500.560   127395161.309    24242506.720    95132741.461  
E19  26726082.380   140446478.613    26726087.660   104878851.977  
E21  26205558.520   137711102.281    26205565.020   102836202.660  
E27  23244319.460   122149701.379    23244324.720    91215680.238  
E30  24206743.100   127207266.250    24206748.640    94992431.250  
> 2021  1  4 21 44  8.0000000  0 13       0.000000000000
G 4  21976439.080   115486944.102    21976442.400    86240258.449  
G 7  21092443.620   110841539.719                                  
G 8  22816130.540   119899500.398    22816132.140    89535336.230  
G 9  20299768.040   106675959.504    20299768.740    79660623.016  
G14  23897396.540   125581637.6412                                 
G16  23890327.360   125544502.234                                  
G27  23072405.680   121246251.898    23072406.740    90541031.609  
G30  22530019.160   118395992.352    22530020.720    88412591.363  
E 7  24243114.060   127398385.266    24243120.200    95135148.961  
E19  26725094.420   140441286.863    26725099.700   104874975.023  
E21  26204651.100   137706333.723    26204657.580   102832641.723  
E27  23244221.160   122149184.879    23244226.420    91215294.543  
E30  24207574.240   127211633.938    24207579.780    94995692.832  
> 2021  1  4 21 44  9.0000000  0 13       0.000000000000
G 4  21976888.960   115489308.230    21976892.280    86242023.859  
G 7  21092309.460   110840834.684                                  
G 8  22815713.480   119897308.727    22815715.080    89533699.590  
G 9  20299835.540   106676314.254    20299836.240    79660887.922  
G14  23896716.600   125578064.5512                                 
G16  23891013.420   125548107.445                                  
G27  23072340.100   121245907.293    23072341.160    90540774.273  
G30  22529634.620   118393971.539    22529636.180    88411082.309  
E 7  24243420.900   127399997.738    24243427.060    95136353.078  
E19  26724600.460   140438691.109    26724605.740   104873036.637  
E21  26204197.440   137703949.770    26204203.940   102830861.500  
E27  23244172.120   122148927.180    23244177.380    91215102.102  
E30  24207989.860   127213818.020    24207995.400    94997323.801  
> 2021  1  4 21 44 10.0000000  0 13       0.000000000000
G 4  21977338.920   115491672.707    21977342.220    86243789.539  
G 7  21092175.340   110840129.824                                  
G 8  22815296.500   119895117.461    22815298.100    89532063.254  
G 9  20299903.140   106676669.508    20299903.860    79661153.203  
G14  23896036.700   125574491.6452                                 
G16  23891699.500   125551712.844                                  
G27  23072274.640   121245563.313    23072275.700    90540517.398  
G30  22529250.100   118391950.879    22529251.660    88409573.375  
E 7  24243727.800   127401610.535    24243733.960    95137557.441  
E19  26724106.500   140436095.434    26724111.800   104871098.309  
E21  26203743.840   137701566.055    26203750.320   102829081.453  
E27  23244123.160   122148669.832    23244128.420    91214909.926  
E30  24208405.500   127216002.250    24208411.040    94998954.883  
> 2021  1  4 21 44 11.0000000  0 13       0.000000000000
G 4  21977788.940   115494037.570    21977792.240    86245555.500  
G 7  21092041.240   110839425.172                                  
G 8  22814879.580   119892926.598    22814881.200    89530427.215  
G 9  20299970.840   106677025.281    20299971.560    79661418.879  
G14  23895356.820   125570918.9142                                 
G16  23892385.620   125555318.461                                  
G27  23072209.300   121245219.996    23072210.380    90540261.023  
G30  22528865.600   118389930.402    22528867.180    88408064.574  
E 7  24244034.780   127403223.664    24244040.920    95138762.051  
E19  26723612.580   140433499.828    26723617.860   104869160.031  
E21  26203290.260   137699182.551    26203296.760   102827301.563  
E27  23244074.260   122148412.855    23244079.500    91214718.031  
E30  24208821.180   127218186.645    24208826.720    95000586.086  
> 2021  1  4 21 44 12.0000000  0 13       0.000000000000
G 4  21978239.020   115496402.793    21978242.320    86247321.734  
G 7  21091907.180   110838720.703                                  
G 8  22814462.760   119890736.137    22814464.360    89528791.480  
G 9  20300038.640   106677381.574    20300039.360    79661684.938  
G14  23894676.980   125567346.3482                                 
G16  23893071.800   125558924.289                                  
G27  23072144.100   121244877.313    23072145.160    90540005.121  
G30  22528481.160   118387910.082    22528482.720    88406555.891  
E 7  24244341.800   127404837.133    24244347.960    95139966.914  
E19  26723118.660   140430904.328    26723123.940   104867221.836  
E21  26202836.740   137696799.277    26202843.240   102825521.848  
E27  23244025.420   122148156.242    23244030.680    91214526.402  
E30  24209236.880   127220371.203    24209242.420    95002217.414  
> 2021  1  4 21 44 13.0000000  0 13       0.000000000000
G 4  21978689.180   115498768.375    21978692.480    86249088.238  
G 7  21091773.160   110838016.418                                  
G 8  22814046.000   119888546.109    22814047.620    89527156.066  
G 9  20300106.540   106677738.367    20300107.260    79661951.367  
G14  23893997.180   125563773.9532                                 
G16  23893758.000   125562530.313                                  
G27  23072079.000   121244535.285    23072080.080    90539749.707  
G30  22528096.740   118385889.926    22528098.300    88405047.328  
E 7  24244648.900   127406450.930    24244655.040    95141172.020  
E19  26722624.780   140428308.891    26722630.060   104865283.684  
E21  26202383.260   137694416.211    26202389.740   102823742.285  
E27  23243976.660   122147899.988    23243981.900    91214335.043  
E30  24209652.620   127222555.914    24209658.160    95003848.852  
> 2021  1  4 21 44 14.0000000  0 13       0.000000000000
G 4  21979139.400   115501134.320    21979142.720    86250855.016  
G 7  21091639.180   110837312.281                                  
G 8  22813629.300   119886356.594    22813630.900    89525521.117  
G 9  20300174.540   106678095.668    20300175.240    79662218.180  
G14  23893317.400   125560201.8092                                 
G16  23894444.200   125566136.742                                  
G27  23072014.020   121244194.004    23072015.080    90539494.918  
G30  22527712.340   118383869.910    22527713.920    88403538.859  
E 7  24244956.060   127408065.012    24244962.220    95142377.316  
E19  26722130.840   140425713.777    26722136.100   104863345.914  
E21  26201929.820   137692033.359    26201936.300   102821962.875  
E27  23243927.960   122147644.094    23243933.220    91214143.953  
E30  24210068.380   127224740.793    24210073.920    95005480.422  
> 2021  1  4 21 44 15.0000000  0 13       0.000000000000
G 4  21979589.700   115503500.645    21979593.020    86252622.074  
G 7  21091505.240   110836608.379                                  
G 8  22813212.720   119884167.355    22813214.300    89523886.301  
G 9  20300242.620   106678453.484    20300243.340    79662485.383  
G14  23892637.660   125556629.7772                                 
G16  23895130.480   125569743.168                                  
G27  23071949.180   121243853.266    23071950.240    90539240.469  
G30  22527327.980   118381850.074    22527329.560    88402030.543  
E 7  24245263.280   127409679.465    24245269.440    95143582.914  
E19  26721636.980   140423118.508    26721642.220   104861407.891  
E21  26201476.420   137689650.758    26201482.920   102820183.660  
E27  23243879.340   122147388.582    23243884.580    91213953.148  
E30  24210484.180   127226925.832    24210489.720    95007112.105  
> 2021  1  4 21 44 16.0000000  0 13       0.000000000000
G 4  21980040.060   115505867.328    21980043.380    86254389.402  
G 7  21091371.320   110835904.656                                  
G 8  22812796.180   119881978.516    22812797.780    89522251.777  
G 9  20300310.820   106678811.809    20300311.540    79662752.961  
G14  23891957.960   125553057.8912                                 
G16  23895816.800   125573349.793                                  
G27  23071884.480   121243513.164    23071885.520    90538986.496  
G30  22526943.660   118379830.426    22526945.240    88400522.363  
E 7  24245570.560   127411294.246    24245576.720    95144788.754  
E19  26721143.120   140420523.316    26721148.380   104859469.926  
E21  26201023.060   137687268.371    26201029.560   102818404.605  
E27  23243830.780   122147133.422    23243836.020    91213762.609  
E30  24210900.000   127229111.020    24210905.540    95008743.898  
> 2021  1  4 21 44 17.0000000  0 13       0.000000000000
G 4  21980490.500   115508234.375    21980493.820    86256157.000  
G 7  21091237.460   110835201.121                                  
G 8  22812379.740   119879790.090    22812381.320    89520617.563  
G 9  20300379.100   106679170.641    20300379.820    79663020.918  
G14  23891278.280   125549486.1842                                 
G16  23896503.160   125576956.617                                  
G27  23071819.880   121243173.711    23071820.920    90538733.008  
G30  22526559.360   118377810.914    22526560.940    88399014.289  
E 7  24245877.900   127412909.348    24245884.060    95145994.840  
E19  26720649.300   140417928.203    26720654.540   104857532.016  
E21  26200569.760   137684886.211    26200576.240   102816625.723  
E27  23243782.280   122146878.617    23243787.540    91213572.332  
E30  24211315.860   127231296.363    24211321.400    95010375.813  
> 2021  1  4 21 44 18.0000000  0 13       0.000000000000
G 4  21980941.020   115510601.801    21980944.320    86257924.883  
G 7  21091103.620   110834497.785                                  
G 8  22811963.380   119877602.035    22811964.960    89518983.629  
G 9  20300447.480   106679530.000    20300448.200    79663289.273  
G14  23890598.640   125545914.6642                                 
G16  23897189.560   125580563.648                                  
G27  23071755.400   121242834.902    23071756.460    90538480.004  
G30  22526175.100   118375791.586    22526176.680    88397506.348  
E 7  24246185.320   127414524.797    24246191.460    95147201.180  
E19  26720155.480   140415333.184    26720160.720   104855594.176  
E21  26200116.480   137682504.281    26200122.980   102814847.008  
E27  23243733.860   122146624.188    23243739.120    91213382.336  
E30  24211731.740   127233481.871    24211737.280    95012007.844  
> 2021  1  4 21 44 19.0000000  0 13       0.000000000000
G 4  21981391.580   115512969.578    21981394.900    86259693.027  
G 7  21090969.820   110833794.637                                  
G 8  22811547.080   119875414.387    22811548.660    89517349.996  
G 9  20300515.980   106679889.863    20300516.680    79663558.000  
G14  23889919.040   125542343.3162                                 
G16  23897876.000   125584170.879                                  
G27  23071691.060   121242496.738    23071692.100    90538227.480  
G30  22525790.860   118373772.414    22525792.440    88395998.527  
E 7  24246492.780   127416140.566    24246498.940    95148407.766  
E19  26719661.680   140412738.230    26719666.920   104853656.395  
E21  26199663.260   137680122.570    26199669.740   102813068.461  
E27  23243685.520   122146370.113    23243690.780    91213192.609  
E30  24212147.660   127235667.531    24212153.200    95013639.996  
> 2021  1  4 21 44 20.0000000  0 13       0.000000000000
G 4  21981842.240   115515337.719    21981845.540    86261461.445  
G 7  21090836.040   110833091.680                                  
G 8  22811130.860   119873227.145    22811132.440    89515716.668  
G 9  20300584.540   106680250.230    20300585.260    79663827.109  
G14  23889239.480   125538772.1292                                 
G16  23898562.480   125587778.309                                  
G27  23071626.840   121242159.223    23071627.880    90537975.438  
G30  22525406.660   118371753.406    22525408.240    88394490.828  
E 7  24246800.320   127417756.652    24246806.460    95149614.586  
E19  26719167.880   140410143.355    26719173.120   104851718.664  
E21  26199210.080   137677741.055    26199216.560   102811290.063  
E27  23243637.240   122146116.391    23243642.480    91213003.145  
E30  24212563.620   127237853.340    24212569.140    95015272.262  
> 2021  1  4 21 44 21.0000000  0 13       0.000000000000
G 4  21982292.940   115517706.242    21982296.260    86263230.145  
G 7  21090702.320   110832388.910                                  
G 8  22810714.740   119871040.340    22810716.320    89514083.664  
G 9  20300653.220   106680611.129    20300653.940    79664096.609  
G14  23888559.940   125535201.1452                                 
G16  23899248.980   125591385.953                                  
G27  23071562.720   121241822.348    23071563.780    90537723.875  
G30  22525022.500   118369734.574    22525024.060    88392983.258  
E 7  24247107.900   127419373.086    24247114.060    95150821.664  
E19  26718674.120   140407548.574    26718679.360   104849781.008  
E21  26198756.940   137675359.789    26198763.420   102809511.848  
E27  23243589.020   122145863.047    23243594.280    91212813.965  
E30  24212979.600   127240039.320    24212985.120    95016904.652  
> 2021  1  4 21 44 22.0000000  0 13       0.000000000000
G 4  21982743.740   115520075.129    21982747.060    86264999.117  
G 7  21090568.620   110831686.324                                  
G 8  22810298.660   119868853.914    22810300.240    89512450.941  
G 9  20300722.000   106680972.512    20300722.720    79664366.473  
G14  23887880.420   125531630.3012                                 
G16  23899935.540   125594993.773                                  
G27  23071498.740   121241486.109    23071499.800    90537472.785  
G30  22524638.340   118367715.883    22524639.920    88391475.793  
E 7  24247415.560   127420989.832    24247421.720    95152028.980  
E19  26718180.360   140404953.863    26718185.600   104847843.406  
E21  26198303.840   137672978.715    26198310.320   102807733.777  
E27  23243540.880   122145610.051    23243546.140    91212625.039  
E30  24213395.600   127242225.445    24213401.140    95018537.152  
> 2021  1  4 21 44 23.0000000  0 13       0.000000000000
G 4  21983194.600   115522444.367    21983197.900    86266768.355  
G 7  21090434.960   110830983.938                                  
G 8  22809882.680   119866667.910    22809884.260    89510818.539  
G 9  20300790.880   106681334.430    20300791.580    79664636.734  
G14  23887200.960   125528059.6412                                 
G16  23900622.120   125598601.820                                  
G27  23071434.900   121241150.539    23071435.940    90537222.203  
G30  22524254.240   118365697.375    22524255.820    88389968.465  
E 7  24247723.280   127422606.914    24247729.440    95153236.543  
E19  26717686.620   140402359.230    26717691.840   104845905.859  
E21  26197850.780   137670597.895    26197857.260   102805955.898  
E27  23243492.800   122145357.422    23243498.060    91212436.395  
E30  24213811.640   127244411.742    24213817.160    95020169.781  
> 2021  1  4 21 44 24.0000000  0 13       0.000000000000
G 4  21983645.520   115524813.984    21983648.840    86268537.875  
G 7  21090301.340   110830281.738                                  
G 8  22809466.780   119864482.320    22809468.360    89509186.445  
G 9  20300859.840   106681696.852    20300860.560    79664907.375  
G14  23886521.520   125524489.1802                                 
G16  23901308.760   125602210.059                                  
G27  23071371.160   121240815.602    23071372.200    90536972.086  
G30  22523870.160   118363679.031    22523871.740    88388461.262  
E 7  24248031.080   127424224.328    24248037.220    95154444.355  
E19  26717192.880   140399764.688    26717198.120   104843968.379  
E21  26197397.760   137668217.289    26197404.240   102804178.180  
E27  23243444.800   122145105.160    23243450.060    91212248.020  
E30  24214227.700   127246598.180    24214233.240    95021802.512  
> 2021  1  4 21 44 25.0000000  0 13       0.000000000000
G 4  21984096.500   115527183.961    21984099.820    86270307.660  
G 7  21090167.760   110829579.719                                  
G 8  22809050.960   119862297.137    22809052.540    89507554.652  
G 9  20300928.900   106682059.789    20300929.620    79665178.398  
G14  23885842.120   125520918.8712                                 
G16  23901995.420   125605818.504                                  
G27  23071307.540   121240481.320    23071308.600    90536722.461  
G30  22523486.120   118361660.836    22523487.700    88386954.168  
E 7  24248338.920   127425842.066    24248345.060    95155652.414  
E19  26716699.180   140397170.230    26716704.420   104842030.969  
E21  26196944.780   137665836.910    26196951.260   102802400.625  
E27  23243396.860   122144853.258    23243402.120    91212059.914  
E30  24214643.800   127248784.789    24214649.340    95023435.371  
> 2021  1  4 21 44 26.0000000  0 13       0.000000000000
G 4  21984547.580   115529554.324    21984550.900    86272077.734  
G 7  21090034.200   110828877.902                                  
G 8  22808635.220   119860112.367    22808636.800    89505923.168  
G 9  20300998.060   106682423.242    20300998.780    79665449.809  
G14  23885162.740   125517348.7342                                 
G16  23902682.120   125609427.152                                  
G27  23071244.060   121240147.684    23071245.120    90536473.313  
G30  22523102.100   118359642.824    22523103.680    88385447.211  
E 7  24248646.820   127427460.148    24248652.980    95156860.723  
E19  26716205.480   140394575.836    26716210.720   104840093.602  
E21  26196491.860   137663456.746    26196498.340   102800623.234  
E27  23243349.000   122144601.719    23243354.260    91211872.082  
E30  24215059.920   127250971.547    24215065.460    95025068.344  
> 2021  1  4 21 44 27.0000000  0 13       0.000000000000
G 4  21984998.700   115531925.035    21985002.020    86273848.066  
G 7  21089900.680   110828176.266                                  
G 8  22808219.540   119857927.988    22808221.120    89504291.973  
G 9  20301067.320   106682787.195    20301068.040    79665721.586  
G14  23884483.400   125513778.7932                                 
G16  23903368.880   125613036.000                                  
G27  23071180.700   121239814.699    23071181.740    90536224.652  
G30  22522718.120   118357624.977    22522719.700    88383940.375  
E 7  24248954.800   127429078.547    24248960.940    95158069.273  
E19  26715711.800   140391981.531    26715717.040   104838156.301  
E21  26196038.980   137661076.816    26196045.460   102798846.020  
E27  23243301.200   122144350.543    23243306.460    91211684.520  
E30  24215476.080   127253158.469    24215481.620    95026701.438  
> 2021  1  4 21 44 28.0000000  0 13       0.000000000000
G 4  21985449.920   115534296.117    21985453.220    86275618.672  
G 7  21089767.200   110827474.828                                  
G 8  22807803.940   119855744.023    22807805.520    89502661.086  
G 9  20301136.680   106683151.672    20301137.400    79665993.758  
G14  23883804.100   125510209.0162                                 
G16  23904055.660   125616645.063                                  
G27  23071117.460   121239482.352    23071118.500    90535976.465  
G30  22522334.160   118355607.293    22522335.740    88382433.656  
E 7  24249262.840   127430697.285    24249268.980    95159278.074  
E19  26715218.140   140389387.301    26715223.360   104836219.055  
E21  26195586.120   137658697.102    26195592.600   102797068.965  
E27  23243253.480   122144099.730    23243258.720    91211497.227  
E30  24215892.280   127255345.543    24215897.800    95028334.648  
> 2021  1  4 21 44 29.0000000  0 13       0.000000000000
G 4  21985901.180   115536667.574    21985904.500    86277389.563  
G 7  21089633.760   110826773.578                                  
G 8  22807388.420   119853560.480    22807390.020    89501030.516  
G 9  20301206.140   106683516.656    20301206.860    79666266.305  
G14  23883124.820   125506639.4182                                 
G16  23904742.480   125620254.324                                  
G27  23071054.340   121239150.652    23071055.380    90535728.766  
G30  22521950.240   118353589.777    22521951.820    88380927.066  
E 7  24249570.920   127432316.332    24249577.080    95160487.105  
E19  26714724.480   140386793.176    26714729.720   104834281.887  
E21  26195133.320   137656317.609    26195139.800   102795292.078  
E27  23243205.820   122143849.281    23243211.060    91211310.207  
E30  24216308.480   127257532.773    24216314.020    95029967.973  
> 2021  1  4 21 44 30.0000000  0 13       0.000000000000
G 4  21986352.520   115539039.395    21986355.840    86279160.723  
G 7  21089500.360   110826072.520                                  
G 8  22806973.000   119851377.355    22806974.580    89499400.258  
G 9  20301275.700   106683882.156    20301276.420    79666539.242  
G14  23882445.580   125503070.0002                                 
G16  23905429.340   125623863.785                                  
G27  23070991.340   121238819.602    23070992.380    90535481.547  
G30  22521566.360   118351572.418    22521567.940    88379420.594  
E 7  24249879.100   127433935.730    24249885.240    95161696.402  
E19  26714230.860   140384199.117    26714236.080   104832344.770  
E21  26194680.560   137653938.344    26194687.040   102793515.355  
E27  23243158.220   122143599.188    23243163.480    91211123.453  
E30  24216724.740   127259720.164    24216730.260    95031601.414  
> 2021  1  4 21 44 31.0000000  0 13       0.000000000000
G 4  21986803.940   115541411.578    21986807.260    86280932.152  
G 7  21089366.980   110825371.641                                  
G 8  22806557.640   119849194.625    22806559.220    89497770.293  
G 9  20301345.340   106684248.160    20301346.060    79666812.551  
G14  23881766.380   125499500.7422                                 
G16  23906116.240   125627473.457                                  
G27  23070928.460   121238489.184    23070929.520    90535234.805  
G30  22521182.500   118349555.219    22521184.080    88377914.242  
E 7  24250187.320   127435555.441    24250193.460    95162905.930  
E19  26713737.240   140381605.133    26713742.460   104830407.707  
E21  26194227.840   137651559.301    26194234.320   102791738.801  
E27  23243110.700   122143349.457    23243115.940    91210936.973  
E30  24217141.020   127261907.707    24217146.540    95033234.977  
> 2021  1  4 21 44 32.0000000  0 13       0.000000000000
G 4  21987255.420   115543784.117    21987258.740    86282703.852  
G 7  21089233.640   110824670.957                                  
G 8  22806142.340   119847012.297    22806143.940    89496140.633  
G 9  20301415.080   106684614.688    20301415.800    79667086.250  
G14  23881087.200   125495931.6682                                 
G16  23906803.160   125631083.305                                  
G27  23070865.700   121238159.426    23070866.760    90534988.555  
G30  22520798.660   118347538.188    22520800.240    88376408.012  
E 7  24250495.600   127437175.480    24250501.740    95164115.703  
E19  26713243.620   140379011.234    26713248.860   104828470.711  
E21  26193775.180   137649180.473    26193781.640   102789962.410  
E27  23243063.260   122143100.086    23243068.500    91210750.758  
E30  24217557.320   127264095.406    24217562.840    95034868.648  
> 2021  1  4 21 44 33.0000000  0 13       0.000000000000
G 4  21987706.960   115546157.027    21987710.300    86284475.824  
G 7  21089100.340   110823970.457                                  
G 8  22805727.140   119844830.402    22805728.740    89494511.293  
G 9  20301484.920   106684981.707    20301485.660    79667360.320  
G14  23880408.060   125492362.7542                                 
G16  23907490.140   125634693.367                                  
G27  23070803.080   121237830.313    23070804.140    90534742.781  
G30  22520414.860   118345521.320    22520416.440    88374901.910  
E 7  24250803.940   127438795.855    24250810.080    95165325.723  
E19  26712750.040   140376417.406    26712755.260   104826533.766  
E21  26193322.540   137646801.871    26193329.020   102788186.188  
E27  23243015.860   122142851.086    23243021.100    91210564.816  
E30  24217973.660   127266283.262    24217979.180    95036502.441  
> 2021  1  4 21 44 34.0000000  0 13       0.000000000000
G 4  21988158.600   115548530.305    21988161.920    86286248.070  
G 7  21088967.080   110823270.152                                  
G 8  22805312.020   119842648.926    22805313.620    89492882.262  
G 9  20301554.880   106685349.258    20301555.600    79667634.789  
G14  23879728.960   125488794.0272                                 
G16  23908177.140   125638303.629                                  
G27  23070740.580   121237501.855    23070741.640    90534497.504  
G30  22520031.100   118343504.617    22520032.680    88373395.926  
E 7  24251112.360   127440416.566    24251118.500    95166536.000  
E19  26712256.460   140373823.684    26712261.700   104824596.898  
E21  26192869.940   137644423.496    26192876.420   102786410.129  
E27  23242968.560   122142602.445    23242973.800    91210379.148  
E30  24218390.020   127268471.277    24218395.540    95038136.352  
> 2021  1  4 21 44 35.0000000  0 13       0.000000000000
G 4  21988610.280   115550903.949    21988613.600    86288020.594  
G 7  21088833.860   110822570.031                                  
G 8  22804896.980   119840467.863    22804898.560    89491253.547  
G 9  20301624.920   106685717.313    20301625.640    79667909.633  
G14  23879049.880   125485225.4732                                 
G16  23908864.200   125641914.090                                  
G27  23070678.200   121237174.027    23070679.260    90534252.691  
G30  22519647.360   118341488.086    22519648.960    88371890.070  
E 7  24251420.820   127442037.590    24251426.960    95167746.508  
E19  26711762.920   140371230.023    26711768.140   104822660.082  
E21  26192417.400   137642045.340    26192423.860   102784634.238  
E27  23242921.300   122142354.160    23242926.540    91210193.746  
E30  24218806.420   127270659.449    24218811.940    95039770.379  
> 2021  1  4 21 44 36.0000000  0 13       0.000000000000
G 4  21989062.040   115553277.973    21989065.380    86289793.395  
G 7  21088700.660   110821870.102                                  
G 8  22804482.020   119838287.223    22804483.600    89489625.145  
G 9  20301695.040   106686085.879    20301695.780    79668184.852  
G14  23878370.840   125481657.0942                                 
G16  23909551.280   125645524.746                                  
G27  23070615.920   121236846.840    23070617.000    90534008.359  
G30  22519263.660   118339471.723    22519265.240    88370384.340  
E 7  24251729.360   127443658.953    24251735.500    95168957.270  
E19  26711269.360   140368636.441    26711274.600   104820723.320  
E21  26191964.900   137639667.398    26191971.360   102782858.508  
E27  23242874.140   122142106.246    23242879.360    91210008.617  
E30  24219222.840   127272847.773    24219228.360    95041404.516  
> 2021  1  4 21 44 37.0000000  0 13       0.000000000000
G 4  21989513.880   115555652.355    21989517.200    86291566.469  
G 7  21088567.500   110821170.359                                  
G 8  22804067.120   119836106.973    22804068.720    89487997.031  
G 9  20301765.280   106686454.965    20301766.000    79668460.465  
G14  23877691.840   125478088.9062                                 
G16  23910238.400   125649135.617                                  
G27  23070553.800   121236520.316    23070554.860    90533764.527  
G30  22518880.000   118337455.512    22518881.580    88368878.727  
E 7  24252037.960   127445280.648    24252044.100    95170168.277  
E19  26710775.840   140366042.965    26710781.060   104818786.637  
E21  26191512.440   137637289.688    26191518.900   102781082.949  
E27  23242827.020   122141858.684    23242832.260    91209823.754  
E30  24219639.300   127275036.262    24219644.820    95043038.781  
> 2021  1  4 21 44 39.0000000  0 13       0.000000000000
G 4  21990417.740   115560402.207    21990421.080    86295113.434  
G 7  21088301.300   110819771.465                                  
G 8  22803237.580   119831747.633    22803239.160    89484741.680  
G 9  20301906.040   106687194.668    20301906.760    79669012.840  
G14  23876333.920   125470953.0392                                 
G16  23911612.780   125656357.949                                  
G27  23070429.880   121235869.199    23070430.960    90533278.297  
G30  22518112.740   118333423.590    22518114.320    88365867.875  
E 7  24252655.340   127448525.016    24252661.480    95172591.023  
E19  26709788.840   140360856.230    26709794.060   104814913.434  
E21  26190607.640   137632534.938    26190614.100   102777532.328  
E27  23242733.020   122141364.664    23242738.240    91209454.848  
E30  24220472.300   127279413.711    24220477.820    95046307.656  
> 2021  1  4 21 44 40.0000000  0 13       0.000000000000
G 4  21990869.780   115562777.684    21990873.120    86296887.324  
G 7  21088168.260   110819072.293                                  
G 8  22802822.920   119829568.578    22802824.500    89483114.457  
G 9  20301976.560   106687565.289    20301977.300    79669289.598  
G14  23875655.020   125467385.3672                                 
G16  23912300.020   125659969.410                                  
G27  23070368.120   121235544.613    23070369.180    90533035.906  
G30  22517729.160   118331407.887    22517730.760    88364362.637  
E 7  24252964.120   127450147.699    24252970.260    95173802.770  
E19  26709295.360   140358262.996    26709300.580   104812976.930  
E21  26190155.300   137630157.898    26190161.760   102775757.270  
E27  23242686.120   122141118.207    23242691.340    91209270.809  
E30  24220888.840   127281602.668    24220894.360    95047942.270  
> 2021  1  4 21 44 41.0000000  0 13       0.000000000000
G 4  21991321.880   115565153.527    21991325.220    86298661.488  
G 7  21088035.240   110818373.309                                  
G 8  22802408.340   119827389.945    22802409.920    89481487.555  
G 9  20302047.200   106687936.422    20302047.920    79669566.738  
G14  23874976.140   125463817.8712                                 
G16  23912987.300   125663581.086                                  
G27  23070306.480   121235220.668    23070307.540    90532793.996  
G30  22517345.620   118329392.344    22517347.200    88362857.520  
E 7  24253272.980   127451770.703    24253279.120    95175014.758  
E19  26708801.900   140355669.840    26708807.120   104811040.488  
E21  26189703.000   137627781.098    26189709.460   102773982.391  
E27  23242639.280   122140872.102    23242644.520    91209087.031  
E30  24221305.420   127283791.785    24221310.940    95049577.004  
> 2021  1  4 21 44 42.0000000  0 13       0.000000000000
G 4  21991774.060   115567529.746    21991777.400    86300435.930  
G 7  21087902.260   110817674.527                                  
G 8  22801993.820   119825211.719    22801995.420    89479860.957  
G 9  20302117.920   106688308.063    20302118.640    79669844.258  
G14  23874297.300   125460250.5392                                 
G16  23913674.620   125667192.965                                  
G27  23070244.960   121234897.379    23070246.020    90532552.578  
G30  22516962.100   118327376.965    22516963.700    88361352.527  
E 7  24253581.880   127453394.047    24253588.020    95176227.000  
E19  26708308.460   140353076.750    26708313.680   104809104.098  
E21  26189250.760   137625404.504    26189257.220   102772207.664  
E27  23242592.520   122140626.359    23242597.760    91208903.527  
E30  24221722.020   127285981.055    24221727.540    95051211.852  
> 2021  1  4 21 44 43.0000000  0 13       0.000000000000
G 4  21992226.320   115569906.313    21992229.640    86302210.637  
G 7  21087769.320   110816975.926                                  
G 8  22801579.400   119823033.902    22801581.000    89478234.660  
G 9  20302188.740   106688680.223    20302189.460    79670122.164  
G14  23873618.500   125456683.3912                                 
G16  23914361.960   125670805.035                                  
G27  23070183.560   121234574.730    23070184.620    90532311.633  
G30  22516578.620   118325361.750    22516580.220    88359847.652  
E 7  24253890.860   127455017.707    24253897.000    95177439.477  
E19  26707815.020   140350483.766    26707820.240   104807167.781  
E21  26188798.540   137623028.145    26188805.000   102770433.117  
E27  23242545.820   122140380.977    23242551.060    91208720.289  
E30  24222138.660   127288170.480    24222144.180    95052846.816  
> 2021  1  4 21 44 44.0000000  0 13       0.000000000000
G 4  21992678.640   115572283.266    21992681.980    86303985.629  
G 7  21087636.420   110816277.523                                  
G 8  22801165.040   119820856.465    22801166.640    89476608.648  
G 9  20302259.660   106689052.891    20302260.380    79670400.453  
G14  23872939.720   125453116.4222                                 
G16  23915049.360   125674417.313                                  
G27  23070122.280   121234252.734    23070123.360    90532071.180  
G30  22516195.180   118323346.699    22516196.760    88358342.906  
E 7  24254199.900   127456641.703    24254206.020    95178652.203  
E19  26707321.600   140347890.848    26707326.820   104805231.516  
E21  26188346.380   137620652.004    26188352.840   102768658.730  
E27  23242499.200   122140135.965    23242504.440    91208537.328  
E30  24222555.320   127290360.066    24222560.840    95054481.898  
> 2021  1  4 21 44 45.0000000  0 13       0.000000000000
G 4  21993131.020   115574660.570    21993134.360    86305760.883  
G 7  21087503.560   110815579.309                                  
G 8  22800750.780   119818679.445    22800752.360    89474982.949  
G 9  20302330.660   106689426.082    20302331.400    79670679.129  
G14  23872261.000   125449549.6482                                 
G16  23915736.800   125678029.781                                  
G27  23070061.140   121233931.383    23070062.200    90531831.203  
G30  22515811.760   118321331.809    22515813.340    88356838.277  
E 7  24254509.000   127458266.047    24254515.140    95179865.191  
E19  26706828.220   140345298.020    26706833.420   104803295.320  
E21  26187894.260   137618276.094    26187900.720   102766884.516  
E27  23242452.640   122139891.320    23242457.880    91208354.645  
E30  24222972.020   127292549.813    24222977.540    95056117.105  
> 2021  1  4 21 44 46.0000000  0 13       0.000000000000
G 4  21993583.480   115577038.246    21993586.820    86307536.418  
G 7  21087370.720   110814881.270                                  
G 8  22800336.580   119816502.824    22800338.180    89473357.547  
G 9  20302401.780   106689799.773    20302402.520    79670958.180  
G14  23871582.280   125445983.0232                                 
G16  23916424.260   125681642.449                                  
G27  23070000.100   121233610.668    23070001.180    90531591.707  
G30  22515428.360   118319317.090    22515429.960    88355333.773  
E 7  24254818.160   127459890.695    24254824.280    95181078.406  
E19  26706334.820   140342705.270    26706340.040   104801359.180  
E21  26187442.180   137615900.383    26187448.640   102765110.449  
E27  23242406.160   122139647.020    23242411.380    91208172.215  
E30  24223388.740   127294739.703    24223394.260    95057752.414  
> 2021  1  4 21 44 47.0000000  0 13       0.000000000000
G 4  21994036.000   115579416.289    21994039.340    86309312.223  
G 7  21087237.940   110814183.434                                  
G 8  22799922.460   119814326.629    22799924.060    89471732.465  
G 9  20302472.980   106690173.977    20302473.720    79671237.613  
G14  23870903.620   125442416.5702                                 
G16  23917111.780   125685255.324                                  
G27  23069939.200   121233290.594    23069940.260    90531352.688  
G30  22515045.000   118317302.527    22515046.600    88353829.391  
E 7  24255127.380   127461515.676    24255133.520    95182291.871  
E19  26705841.460   140340112.594    26705846.660   104799423.094  
E21  26186990.140   137613524.914    26186996.600   102763336.566  
E27  23242359.740   122139403.090    23242364.960    91207990.063  
E30  24223805.500   127296929.758    24223811.000    95059387.848  
> 2021  1  4 21 44 48.0000000  0 13       0.000000000000
G 4  21994488.600   115581794.684    21994491.940    86311088.293  
G 7  21087105.180   110813485.785                                  
G 8  22799508.420   119812150.852    22799510.020    89470107.695  
G 9  20302544.300   106690548.695    20302545.020    79671517.434  
G14  23870224.980   125438850.3132                                 
G16  23917799.320   125688868.402                                  
G27  23069878.420   121232971.188    23069879.480    90531114.164  
G30  22514661.680   118315288.129    22514663.280    88352325.129  
E 7  24255436.680   127463140.992    24255442.800    95183505.582  
E19  26705348.100   140337520.012    26705353.320   104797487.078  
E21  26186538.140   137611149.676    26186544.600   102761562.852  
E27  23242313.380   122139159.516    23242318.620    91207808.180  
E30  24224222.280   127299119.961    24224227.800    95061023.395  
> 2021  1  4 21 44 49.0000000  0 13       0.000000000000
G 4  21994941.260   115584173.457    21994944.600    86312864.645  
G 7  21086972.460   110812788.328                                  
G 8  22799094.460   119809975.500    22799096.060    89468483.238  
G 9  20302615.700   106690923.926    20302616.440    79671797.633  
G14  23869546.360   125435284.2232                                 
G16  23918486.900   125692481.680                                  
G27  23069817.760   121232652.414    23069818.820    90530876.117  
G30  22514278.380   118313273.902    22514279.980    88350820.996  
E 7  24255746.020   127464766.637    24255752.140    95184719.543  
E19  26704854.760   140334927.512    26704859.980   104795551.125  
E21  26186086.200   137608774.656    26186092.660   102759789.305  
E27  23242267.100   122138916.316    23242272.340    91207626.574  
E30  24224639.100   127301310.332    24224644.600    95062659.063  
> 2021  1  4 21 44 50.0000000  0 13       0.000000000000
G 4  21995394.000   115586552.594    21995397.340    86314641.266  
G 7  21086839.760   110812091.059                                  
G 8  22798680.580   119807800.551    22798682.180    89466859.086  
G 9  20302687.200   106691299.672    20302687.940    79672078.223  
G14  23868867.800   125431718.3132                                 
G16  23919174.520   125696095.148                                  
G27  23069757.220   121232334.289    23069758.300    90530638.551  
G30  22513895.120   118311259.828    22513896.720    88349316.977  
E 7  24256055.440   127466392.602    24256061.560    95185933.742  
E19  26704361.440   140332335.086    26704366.640   104793615.230  
E21  26185634.280   137606399.859    26185640.740   102758015.922  
E27  23242220.900   122138673.473    23242226.120    91207445.230  
E30  24225055.940   127303500.855    24225061.440    95064294.848  
> 2021  1  4 21 44 51.0000000  0 13       0.000000000000
G 4  21995846.800   115588932.086    21995850.140    86316418.156  
G 7  21086707.120   110811393.977                                  
G 8  22798266.780   119805626.023    22798268.380    89465235.246  
G 9  20302758.800   106691675.922    20302759.540    79672359.184  
G14  23868189.260   125428152.5782                                 
G16  23919862.180   125699708.824                                  
G27  23069696.800   121232016.813    23069697.880    90530401.473  
G30  22513511.880   118309245.914    22513513.480    88347813.074  
E 7  24256364.900   127468018.906    24256371.040    95187148.191  
E19  26703868.140   140329742.746    26703873.340   104791679.395  
E21  26185182.420   137604025.281    26185188.880   102756242.703  
E27  23242174.760   122138430.988    23242179.980    91207264.160  
E30  24225472.800   127305691.527    24225478.320    95065930.742  
> 2021  1  4 21 44 52.0000000  0 13       0.000000000000
G 4  21996299.680   115591311.961    21996303.020    86318195.328  
G 7  21086574.500   110810697.090                                  
G 8  22797853.060   119803451.898    22797854.660    89463611.711  
G 9  20302830.500   106692052.691    20302831.240    79672640.531  
G14  23867510.760   125424587.0232                                 
G16  23920549.880   125703322.688                                  
G27  23069636.500   121231699.973    23069637.580    90530164.867  
G30  22513128.680   118307232.191    22513130.280    88346309.316  
E 7  24256674.440   127469645.535    24256680.580    95188362.887  
E19  26703374.840   140327150.508    26703380.060   104789743.641  
E21  26184730.600   137601650.934    26184737.040   102754469.652  
E27  23242128.680   122138188.867    23242133.900    91207083.359  
E30  24225889.700   127307882.359    24225895.220    95067566.758  
> 2021  1  4 21 44 53.0000000  0 13       0.000000000000
G 4  21996752.620   115593692.191    21996755.960    86319972.770  
G 7  21086441.920   110810000.383                                  
G 8  22797439.420   119801278.184    22797441.020    89461988.477  
G 9  20302902.280   106692429.973    20302903.020    79672922.266  
G14  23866832.280   125421021.6412                                 
G16  23921237.620   125706936.762                                  
G27  23069576.340   121231383.801    23069577.420    90529928.762  
G30  22512745.520   118305218.625    22512747.100    88344805.676  
E 7  24256984.040   127471272.496    24256990.160    95189577.828  
E19  26702881.580   140324558.320    26702886.780   104787807.918  
E21  26184278.820   137599276.809    26184285.260   102752696.773  
E27  23242082.680   122137947.109    23242087.900    91206902.828  
E30  24226306.640   127310073.352    24226312.140    95069202.887  
> 2021  1  4 21 44 54.0000000  0 13       0.000000000000
G 4  21997205.640   115596072.789    21997208.980    86321750.484  
G 7  21086309.380   110809303.863                                  
G 8  22797025.860   119799104.887    22797027.460    89460365.559  
G 9  20302974.180   106692807.777    20302974.920    79673204.387  
G14  23866153.860   125417456.4412                                 
G16  23921925.400   125710551.031                                  
G27  23069516.300   121231068.270    23069517.380    90529693.133  
G30  22512362.380   118303205.219    22512363.980    88343302.156  
E 7  24257293.700   127472899.781    24257299.840    95190793.012  
E19  26702388.320   140321966.246    26702393.520   104785872.285  
E21  26183827.080   137596902.898    26183833.520   102750924.051  
E27  23242036.740   122137705.715    23242041.960    91206722.570  
E30  24226723.600   127312264.496    24226729.100    95070839.137  
> 2021  1  4 21 44 55.0000000  0 13       0.000000000000
G 4  21997658.720   115598453.758    21997662.060    86323528.480  
G 7  21086176.880   110808607.531                                  
G 8  22796612.380   119796932.012    22796613.980    89458742.957  
G 9  20303046.180   106693186.086    20303046.920    79673486.891  
G14  23865475.440   125413891.4022                                 
G16  23922613.200   125714165.500                                  
G27  23069456.380   121230753.383    23069457.460    90529457.992  
G30  22511979.260   118301191.969    22511980.860    88341798.754  
E 7  24257603.440   127474527.391    24257609.560    95192008.441  
E19  26701895.080   140319374.234    26701900.280   104783936.695  
E21  26183375.380   137594529.203    26183381.820   102749151.492  
E27  23241990.860   122137464.676    23241996.100    91206542.578  
E30  24227140.600   127314455.793    24227146.100    95072475.500  
> 2021  1  4 21 44 56.0000000  0 13       0.000000000000
G 4  21998111.860   115600835.082    21998115.220    86325306.742  
G 7  21086044.400   110807911.395                                  
G 8  22796198.960   119794759.543    22796200.560    89457120.660  
G 9  20303118.260   106693564.902    20303119.000    79673769.773  
G14  23864797.080   125410326.5392                                 
G16  23923301.060   125717780.164                                  
G27  23069396.580   121230439.145    23069397.660    90529223.332  
G30  22511596.180   118299178.891    22511597.780    88340295.480  
E 7  24257913.220   127476155.340    24257919.340    95193224.117  
E19  26701401.840   140316782.309    26701407.040   104782001.172  
E21  26182923.720   137592155.750    26182930.160   102747379.113  
E27  23241945.080   122137224.000    23241950.300    91206362.859  
E30  24227557.620   127316647.250    24227563.120    95074111.980  
> 2021  1  4 21 44 57.0000000  0 13       0.000000000000
G 4  21998565.100   115603216.777    21998568.440    86327085.277  
G 7  21085911.960   110807215.438                                  
G 8  22795785.640   119792587.488    22795787.240    89455498.672  
G 9  20303190.440   106693944.230    20303191.180    79674053.035  
G14  23864118.740   125406761.8632                                 
G16  23923988.940   125721395.023                                  
G27  23069336.900   121230125.555    23069337.980    90528989.156  
G30  22511213.140   118297165.984    22511214.740    88338792.336  
E 7  24258223.080   127477783.613    24258229.200    95194440.039  
E19  26700908.640   140314190.465    26700913.820   104780065.707  
E21  26182472.100   137589782.508    26182478.560   102745606.891  
E27  23241899.340   122136983.688    23241904.560    91206183.410  
E30  24227974.660   127318838.863    24227980.160    95075748.574  
> 2021  1  4 21 44 58.0000000  0 13       0.000000000000
G 4  21999018.380   115605598.832    21999021.740    86328864.082  
G 7  21085779.560   110806519.680                                  
G 8  22795372.380   119790415.828    22795373.980    89453876.980  
G 9  20303262.720   106694324.078    20303263.460    79674336.688  
G14  23863440.440   125403197.3712                                 
G16  23924676.860   125725010.090                                  
G27  23069277.360   121229812.613    23069278.440    90528755.469  
G30  22510830.140   118295153.234    22510831.720    88337289.313  
E 7  24258532.980   127479412.227    24258539.100    95195656.215  
E19  26700415.440   140311598.707    26700420.640   104778130.309  
E21  26182020.540   137587409.508    26182026.980   102743834.852  
E27  23241853.680   122136743.742    23241858.900    91206004.230  
E30  24228391.740   127321030.629    24228397.240    95077385.289  
> 2021  1  4 21 44 59.0000000  0 13       0.000000000000
G 4  21999471.740   115607981.262    21999475.100    86330643.168  
G 7  21085647.200   110805824.109                                  
G 8  22794959.200   119788244.578    22794960.800    89452255.594  
G 9  20303335.100   106694704.430    20303335.840    79674620.719  
G14  23862762.160   125399633.0472                                 
G16  23925364.820   125728625.352                                  
G27  23069217.920   121229500.313    23069219.000    90528522.254  
G30  22510447.140   118293140.656    22510448.740    88335786.414  
E 7  24258842.960   127481041.156    24258849.080    95196872.629  
E19  26699922.260   140309007.027    26699927.460   104776194.969  
E21  26181569.020   137585036.723    26181575.460   102742062.973  
E27  23241808.080   122136504.148    23241813.300    91205825.316  
E30  24228808.860   127323222.551    24228814.360    95079022.117  
> 2021  1  4 21 45  0.0000000  0 13       0.000000000000
G 4  21999925.180   115610364.055    21999928.520    86332422.527  
G 7  21085514.880   110805128.746                                  
G 8  22794546.120   119786073.773    22794547.720    89450634.539  
G 9  20303407.580   106695085.297    20303408.320    79674905.133  
G14  23862083.940   125396068.9142                                 
G16  23926052.820   125732240.813                                  
G27  23069158.620   121229188.672    23069159.700    90528289.535  
G30  22510064.200   118291128.238    22510065.800    88334283.633  
E 7  24259153.000   127482670.414    24259159.120    95198089.285  
E19  26699429.100   140306415.441    26699434.280   104774259.699  
E21  26181117.540   137582664.160    26181123.980   102740291.258  
E27  23241762.560   122136264.926    23241767.780    91205646.684  
E30  24229226.000   127325414.637    24229231.500    95080659.066  
> 2021  1  4 21 45  1.0000000  0 13       0.000000000000
G 4  22000378.680   115612747.203    22000382.020    86334202.152  
G 7  21085382.600   110804433.559                                  
G 8  22794133.100   119783903.367    22794134.700    89449013.781  
G 9  20303480.160   106695466.691    20303480.900    79675189.938  
G14  23861405.740   125392504.9412                                 
G16  23926740.860   125735856.473                                  
G27  23069099.440   121228877.664    23069100.520    90528057.289  
G30  22509681.280   118289116.000    22509682.880    88332780.988  
E 7  24259463.100   127484300.008    24259469.220    95199306.195  
E19  26698935.940   140303823.938    26698941.140   104772324.488  
E21  26180666.080   137580291.816    26180672.520   102738519.703  
E27  23241717.120   122136026.070    23241722.320    91205468.320  
E30  24229643.160   127327606.871    24229648.660    95082296.129  
> 2021  1  4 21 45  2.0000000  0 13       0.000000000000
G 4  22000832.240   115615130.723    22000835.600    86335982.051  
G 7  21085250.340   110803738.559                                  
G 8  22793720.160   119781733.359    22793721.760    89447393.320  
G 9  20303552.820   106695848.582    20303553.560    79675475.117  
G14  23860727.560   125388941.1522                                 
G16  23927428.940   125739472.324                                  
G27  23069040.380   121228567.309    23069041.460    90527825.531  
G30  22509298.380   118287103.891    22509299.980    88331278.438  
E 7  24259773.260   127485929.918    24259779.380    95200523.336  
E19  26698442.820   140301232.508    26698448.000   104770389.336  
E21  26180214.680   137577919.695    26180221.120   102736748.320  
E27  23241671.720   122135787.555    23241676.940    91205290.211  
E30  24230060.360   127329799.258    24230065.860    95083933.305  
> 2021  1  4 21 45  3.0000000  0 13       0.000000000000
G 4  22001285.880   115617514.617    22001289.240    86337762.230  
G 7  21085118.120   110803043.742                                  
G 8  22793307.300   119779563.742    22793308.900    89445773.152  
G 9  20303625.600   106696231.000    20303626.340    79675760.688  
G14  23860049.440   125385377.5432                                 
G16  23928117.060   125743088.387                                  
G27  23068981.440   121228257.598    23068982.520    90527594.254  
G30  22508915.540   118285091.977    22508917.140    88329776.035  
E 7  24260083.500   127487560.176    24260089.600    95201740.742  
E19  26697949.700   140298641.168    26697954.880   104768454.250  
E21  26179763.340   137575547.805    26179769.780   102734977.109  
E27  23241626.400   122135549.422    23241631.620    91205112.391  
E30  24230477.580   127331991.809    24230483.080    95085570.602  
> 2021  1  4 21 45  4.0000000  0 13       0.000000000000
G 4  22001739.600   115619898.867    22001742.940    86339542.680  
G 7  21084985.940   110802349.129                                  
G 8  22792894.500   119777394.535    22792896.100    89444153.293  
G 9  20303698.460   106696613.926    20303699.200    79676046.641  
G14  23859371.340   125381814.1172                                 
G16  23928805.200   125746704.633                                  
G27  23068922.640   121227948.539    23068923.720    90527363.465  
G30  22508532.700   118283080.211    22508534.300    88328273.746  
E 7  24260393.780   127489190.750    24260399.900    95202958.383  
E19  26697456.600   140296049.910    26697461.780   104766519.227  
E21  26179312.020   137573176.156    26179318.460   102733206.074  
E27  23241581.160   122135311.648    23241586.380    91204934.832  
E30  24230894.840   127334184.516    24230900.340    95087208.016  
> 2021  1  4 21 45  5.0000000  0 13       0.000000000000
G 4  22002193.380   115622283.488    22002196.720    86341323.398  
G 7  21084853.800   110801654.699                                  
G 8  22792481.800   119775225.754    22792483.400    89442533.750  
G 9  20303771.440   106696997.359    20303772.180    79676332.969  
G14  23858693.260   125378250.8522                                 
G16  23929493.400   125750321.074                                  
G27  23068863.940   121227640.129    23068865.020    90527133.156  
G30  22508149.920   118281068.613    22508151.520    88326771.578  
E 7  24260704.120   127490821.648    24260710.240    95204176.266  
E19  26696963.520   140293458.734    26696968.700   104764584.258  
E21  26178860.740   137570804.703    26178867.180   102731435.188  
E27  23241535.980   122135074.230    23241541.200    91204757.547  
E30  24231312.140   127336377.371    24231317.640    95088845.539  
> 2021  1  4 21 45  6.0000000  0 13       0.000000000000
G 4  22002647.220   115624668.473    22002650.580    86343104.395  
G 7  21084721.680   110800960.465                                  
G 8  22792069.180   119773057.383    22792070.760    89440914.512  
G 9  20303844.500   106697381.313    20303845.240    79676619.688  
G14  23858015.240   125374687.7852                                 
G16  23930181.620   125753937.719                                  
G27  23068805.380   121227332.363    23068806.460    90526903.332  
G30  22507767.160   118279057.180    22507768.740    88325269.535  
E 7  24261014.540   127492452.887    24261020.660    95205394.402  
E19  26696470.440   140290867.645    26696475.620   104762649.359  
E21  26178409.520   137568433.488    26178415.960   102729664.480  
E27  23241490.880   122134837.176    23241496.080    91204580.527  
E30  24231729.460   127338570.387    24231734.940    95090483.188  
> 2021  1  4 21 45  7.0000000  0 13       0.000000000000
G 4  22003101.140   115627053.832    22003104.500    86344885.668  
G 7  21084589.620   110800266.422                                  
G 8  22791656.620   119770889.422    22791658.220    89439295.582  
G 9  20303917.660   106697765.781    20303918.400    79676906.789  
G14  23857337.240   125371124.8832                                 
G16  23930869.880   125757554.566                                  
G27  23068746.940   121227025.254    23068748.020    90526674.000  
G30  22507384.420   118277045.918    22507386.020    88323767.621  
E 7  24261325.020   127494084.457    24261331.140    95206612.785  
E19  26695977.400   140288276.648    26695982.580   104760714.527  
E21  26177958.340   137566062.504    26177964.780   102727893.945  
E27  23241445.840   122134600.500    23241451.040    91204403.793  
E30  24232146.800   127340763.559    24232152.300    95092120.945  
> 2021  1  4 21 45  8.0000000  0 13       0.000000000000
G 4  22003555.120   115629439.543    22003558.480    86346667.203  
G 7  21084457.580   110799572.551                                  
G 8  22791244.160   119768721.875    22791245.740    89437676.961  
G 9  20303990.920   106698150.754    20303991.660    79677194.270  
G14  23856659.280   125367562.1522                                 
G16  23931558.180   125761171.598                                  
G27  23068688.620   121226718.785    23068689.700    90526445.145  
G30  22507001.720   118275034.816    22507003.320    88322265.820  
E 7  24261635.560   127495716.355    24261641.680    95207831.414  
E19  26695484.360   140285685.719    26695489.540   104758779.750  
E21  26177507.200   137563691.723    26177513.620   102726123.563  
E27  23241400.860   122134364.160    23241406.060    91204227.313  
E30  24232564.180   127342956.887    24232569.680    95093758.824  
> 2021  1  4 21 45 10.0000000  0 13       0.000000000000
G 4  22004463.300   115634212.070    22004466.660    86350231.102  
G 7  21084193.600   110798185.391                                  
G 8  22790419.440   119764388.027    22790421.040    89434440.648  
G 9  20304137.720   106698922.254    20304138.460    79677770.391  
G14  23855303.460   125360437.2462                                 
G16  23932934.900   125768406.277                                  
G27  23068572.360   121226107.789    23068573.420    90525988.879  
G30  22506236.420   118271013.109    22506238.000    88319262.602  
E 7  24262256.820   127498981.117    24262262.940    95210269.387  
E19  26694498.320   140280504.113    26694503.500   104754910.375  
E21  26176605.040   137558950.863    26176611.460   102722583.313  
E27  23241311.120   122133892.582    23241316.320    91203875.160  
E30  24233399.020   127347343.992    24233404.500    95097034.914  
> 2021  1  4 21 45 11.0000000  0 13       0.000000000000
G 4  22004917.500   115636598.895    22004920.840    86352013.484  
G 7  21084061.680   110797492.094                                  
G 8  22790007.220   119762221.664    22790008.820    89432822.887  
G 9  20304211.280   106699308.758    20304212.020    79678059.012  
G14  23854625.600   125356875.0512                                 
G16  23933623.300   125772023.926                                  
G27  23068514.400   121225803.242    23068515.480    90525761.449  
G30  22505853.800   118269002.500    22505855.400    88317761.172  
E 7  24262567.560   127500614.000    24262573.660    95211488.754  
E19  26694005.340   140277913.434    26694010.520   104752975.770  
E21  26176154.020   137556580.746    26176160.460   102720813.410  
E27  23241266.360   122133657.332    23241271.560    91203699.492  
E30  24233816.480   127349537.770    24233821.980    95098673.125  
> 2021  1  4 21 45 12.0000000  0 13       0.000000000000
G 4  22005371.760   115638986.066    22005375.100    86353796.113  
G 7  21083929.780   110796799.000                                  
G 8  22789595.060   119760055.773    22789596.660    89431205.504  
G 9  20304284.920   106699695.785    20304285.660    79678348.027  
G14  23853947.760   125353313.0432                                 
G16  23934311.760   125775641.785                                  
G27  23068456.580   121225499.367    23068457.660    90525534.527  
G30  22505471.240   118266992.066    22505472.820    88316259.875  
E 7  24262878.340   127502247.207    24262884.440    95212708.359  
E19  26693512.360   140275322.840    26693517.540   104751041.242  
E21  26175703.060   137554210.867    26175709.480   102719043.699  
E27  23241221.660   122133422.453    23241226.860    91203524.098  
E30  24234233.980   127351731.715    24234239.460    95100311.461  
> 2021  1  4 21 45 13.0000000  0 13       0.000000000000
G 4  22005826.100   115641373.613    22005829.440    86355579.020  
G 7  21083797.920   110796106.074                                  
G 8  22789182.980   119757890.297    22789184.580    89429588.426  
G 9  20304358.680   106700083.324    20304359.420    79678637.422  
G14  23853269.960   125349751.1992                                 
G16  23935000.260   125779259.820                                  
G27  23068398.880   121225196.137    23068399.960    90525308.090  
G30  22505088.680   118264981.770    22505090.280    88314758.684  
E 7  24263189.200   127503880.746    24263195.300    95213928.211  
E19  26693019.400   140272732.328    26693024.600   104749106.766  
E21  26175252.120   137551841.211    26175258.560   102717274.152  
E27  23241177.040   122133187.930    23241182.240    91203348.965  
E30  24234651.500   127353925.809    24234657.000    95101949.910  
> 2021  1  4 21 45 14.0000000  0 13       0.000000000000
G 4  22006280.500   115643761.508    22006283.840    86357362.188  
G 7  21083666.100   110795413.355                                  
G 8  22788770.980   119755725.227    22788772.580    89427971.652  
G 9  20304432.520   106700471.383    20304433.260    79678927.203  
G14  23852592.200   125346189.5472                                 
G16  23935688.780   125782878.066                                  
G27  23068341.300   121224893.551    23068342.380    90525082.133  
G30  22504706.180   118262971.664    22504707.780    88313257.629  
E 7  24263500.100   127505514.613    24263506.220    95215148.305  
E19  26692526.460   140270141.910    26692531.640   104747172.367  
E21  26174801.240   137549471.781    26174807.660   102715504.773  
E27  23241132.480   122132953.762    23241137.680    91203174.102  
E30  24235069.040   127356120.063    24235074.540    95103588.477  
> 2021  1  4 21 45 15.0000000  0 13       0.000000000000
G 4  22006734.980   115646149.781    22006738.320    86359145.637  
G 7  21083534.320   110794720.813                                  
G 8  22788359.060   119753560.574    22788360.660    89426355.195  
G 9  20304506.460   106700859.934    20304507.200    79679217.355  
G14  23851914.480   125342628.0632                                 
G16  23936377.360   125786496.512                                  
G27  23068283.840   121224591.625    23068284.920    90524856.668  
G30  22504323.700   118260961.707    22504325.280    88311756.688  
E 7  24263811.080   127507148.805    24263817.200    95216368.645  
E19  26692033.540   140267551.563    26692038.720   104745238.016  
E21  26174350.400   137547102.582    26174356.820   102713735.566  
E27  23241087.980   122132719.961    23241093.180    91202999.512  
E30  24235486.640   127358314.469    24235492.120    95105227.152  
> 2021  1  4 21 45 16.0000000  0 13       0.000000000000
G 4  22007189.520   115648538.414    22007192.860    86360929.355  
G 7  21083402.560   110794028.461                                  
G 8  22787947.220   119751396.348    22787948.820    89424739.051  
G 9  20304580.500   106701249.027    20304581.240    79679507.914  
G14  23851236.780   125339066.7732                                 
G16  23937065.960   125790115.145                                  
G27  23068226.500   121224290.340    23068227.580    90524631.684  
G30  22503941.240   118258951.926    22503942.840    88310255.875  
E 7  24264122.120   127508783.328    24264128.240    95217589.227  
E19  26691540.640   140264961.309    26691545.820   104743303.738  
E21  26173899.600   137544733.613    26173906.020   102711966.531  
E27  23241043.560   122132486.520    23241048.760    91202825.188  
E30  24235904.240   127360509.035    24235909.740    95106865.953  
> 2021  1  4 21 45 17.0000000  0 13       0.000000000000
G 4  22007644.120   115650927.414    22007647.480    86362713.348  
G 7  21083270.860   110793336.305                                  
G 8  22787535.460   119749232.508    22787537.060    89423123.199  
G 9  20304654.640   106701638.613    20304655.380    79679798.836  
G14  23850559.120   125335505.6482                                 
G16  23937754.600   125793733.969                                  
G27  23068169.300   121223989.699    23068170.380    90524407.180  
G30  22503558.820   118256942.305    22503560.420    88308755.188  
E 7  24264433.220   127510418.172    24264439.340    95218810.055  
E19  26691047.740   140262371.137    26691052.920   104741369.520  
E21  26173448.840   137542364.855    26173455.260   102710197.656  
E27  23240999.200   122132253.445    23241004.400    91202651.137  
E30  24236321.880   127362703.754    24236327.380    95108504.863  
> 2021  1  4 21 45 18.0000000  0 13       0.000000000000
G 4  22008098.800   115653316.777    22008102.160    86364497.609  
G 7  21083139.180   110792644.336                                  
G 8  22787123.760   119747069.082    22787125.360    89421507.652  
G 9  20304728.880   106702028.723    20304729.620    79680090.156  
G14  23849881.500   125331944.7192                                 
G16  23938443.280   125797352.992                                  
G27  23068112.220   121223689.707    23068113.280    90524183.160  
G30  22503176.440   118254932.836    22503178.040    88307254.609  
E 7  24264744.400   127512053.355    24264750.500    95220031.129  
E19  26690554.860   140259781.043    26690560.040   104739435.359  
E21  26172998.120   137539996.328    26173004.540   102708428.949  
E27  23240954.920   122132020.727    23240960.120    91202477.355  
E30  24236739.560   127364898.621    24236745.040    95110143.891  
> 2021  1  4 21 45 19.0000000  0 13       0.000000000000
G 4  22008553.560   115655706.500    22008556.900    86366282.145  
G 7  21083007.540   110791952.551                                  
G 8  22786712.160   119744906.078    22786713.760    89419892.426  
G 9  20304803.200   106702419.344    20304803.940    79680381.852  
G14  23849203.900   125328383.9412                                 
G16  23939132.000   125800972.211                                  
G27  23068055.240   121223390.363    23068056.320    90523959.625  
G30  22502794.080   118252923.543    22502795.680    88305754.164  
E 7  24265055.620   127513688.863    24265061.720    95221252.449  
E19  26690062.000   140257191.043    26690067.180   104737501.266  
E21  26172547.440   137537628.016    26172553.880   102706660.406  
E27  23240910.700   122131788.371    23240915.900    91202303.844  
E30  24237157.260   127367093.641    24237162.740    95111783.027  
> 2021  1  4 21 45 20.0000000  0 13       0.000000000000
G 4  22009008.380   115658096.605    22009011.740    86368066.961  
G 7  21082875.920   110791260.957                                  
G 8  22786300.640   119742743.492    22786302.240    89418277.508  
G 9  20304877.640   106702810.461    20304878.380    79680673.918  
G14  23848526.360   125324823.3632                                 
G16  23939820.740   125804591.617                                  
G27  23067998.400   121223091.668    23067999.480    90523736.574  
G30  22502411.760   118250914.418    22502413.340    88304253.844  
E 7  24265366.900   127515324.695    24265373.020    95222474.016  
E19  26689569.160   140254601.121    26689574.340   104735567.238  
E21  26172096.820   137535259.941    26172103.240   102704892.039  
E27  23240866.560   122131556.375    23240871.760    91202130.598  
E30  24237574.980   127369288.820    24237580.480    95113422.281  
> 2021  1  4 21 45 21.0000000  0 13       0.000000000000
G 4  22009463.260   115660487.063    22009466.620    86369852.043  
G 7  21082744.360   110790569.555                                  
G 8  22785889.180   119740581.320    22785890.780    89416662.898  
G 9  20304952.160   106703202.121    20304952.900    79680966.395  
G14  23847848.820   125321262.9412                                 
G16  23940509.540   125808211.242                                  
G27  23067941.700   121222793.625    23067942.780    90523514.008  
G30  22502029.460   118248905.449    22502031.060    88302753.645  
E 7  24265678.260   127516960.871    24265684.360    95223695.832  
E19  26689076.320   140252011.285    26689081.500   104733633.270  
E21  26171646.220   137532892.086    26171652.660   102703123.836  
E27  23240822.480   122131324.750    23240827.680    91201957.633  
E30  24237992.740   127371484.160    24237998.240    95115061.660  
> 2021  1  4 21 45 22.0000000  0 13       0.000000000000
G 4  22009918.220   115662877.879    22009921.580    86371637.395  
G 7  21082612.820   110789878.336                                  
G 8  22785477.820   119738419.570    22785479.420    89415048.605  
G 9  20305026.780   106703594.277    20305027.520    79681259.238  
G14  23847171.340   125317702.7072                                 
G16  23941198.360   125811831.043                                  
G27  23067885.100   121222496.223    23067886.180    90523291.922  
G30  22501647.200   118246896.641    22501648.800    88301253.555  
E 7  24265989.680   127518597.363    24265995.780    95224917.891  
E19  26688583.500   140249421.527    26688588.680   104731699.359  
E21  26171195.680   137530524.453    26171202.100   102701355.797  
E27  23240778.480   122131093.477    23240783.680    91201784.926  
E30  24238410.540   127373679.648    24238416.020    95116701.148  
> 2021  1  4 21 45 23.0000000  0 13       0.000000000000
G 4  22010373.260   115665269.066    22010376.600    86373423.020  
G 7  21082481.320   110789187.305                                  
G 8  22785066.540   119736258.230    22785068.120    89413434.621  
G 9  20305101.520   106703986.953    20305102.260    79681552.469  
G14  23846493.880   125314142.6682                                 
G16  23941887.220   125815451.051                                  
G27  23067828.620   121222199.480    23067829.700    90523070.328  
G30  22501264.960   118244888.016    22501266.560    88299753.613  
E 7  24266301.160   127520234.184    24266307.260    95226140.191  
E19  26688090.700   140246831.855    26688095.880   104729765.516  
E21  26170745.180   137528157.055    26170751.600   102699587.934  
E27  23240734.520   122130862.559    23240739.740    91201612.488  
E30  24238828.340   127375875.293    24238833.840    95118340.750  
> 2021  1  4 21 45 24.0000000  0 13       0.000000000000
G 4  22010828.360   115667660.617    22010831.700    86375208.914  
G 7  21082349.860   110788496.473                                  
G 8  22784655.320   119734097.332    22784656.920    89411820.961  
G 9  20305176.340   106704380.141    20305177.080    79681846.082  
G14  23845816.460   125310582.7892                                 
G16  23942576.120   125819071.246                                  
G27  23067772.280   121221903.363    23067773.360    90522849.203  
G30  22500882.760   118242879.543    22500884.360    88298253.777  
E 7  24266612.700   127521871.336    24266618.800    95227362.738  
E19  26687597.920   140244242.273    26687603.100   104727831.734  
E21  26170294.720   137525789.855    26170301.140   102697820.223  
E27  23240690.660   122130632.012    23240695.860    91201440.328  
E30  24239246.200   127378071.082    24239251.680    95119980.461  
> 2021  1  4 21 45 25.0000000  0 13       0.000000000000
G 4  22011283.520   115670052.543    22011286.880    86376995.094  
G 7  21082218.440   110787805.824                                  
G 8  22784244.200   119731936.848    22784245.800    89410207.613  
G 9  20305251.240   106704773.836    20305252.000    79682140.074  
G14  23845139.080   125307023.1022                                 
G16  23943265.060   125822691.637                                  
G27  23067716.060   121221607.922    23067717.140    90522628.582  
G30  22500500.600   118240871.234    22500502.200    88296754.070  
E 7  24266924.300   127523508.824    24266930.400    95228585.535  
E19  26687105.160   140241652.770    26687110.340   104725898.020  
E21  26169844.300   137523422.902    26169850.720   102696052.695  
E27  23240646.860   122130401.820    23240652.060    91201268.434  
E30  24239664.060   127380267.031    24239669.560    95121620.297  
> 2021  1  4 21 45 26.0000000  0 13       0.000000000000
G 4  22011738.760   115672444.813    22011742.100    86378781.527  
G 7  21082087.040   110787115.367                                  
G 8  22783833.140   119729776.762    22783834.740    89408594.566  
G 9  20305326.260   106705168.047    20305327.000    79682434.453  
G14  23844461.720   125303463.5902                                 
G16  23943954.040   125826312.227                                  
G27  23067659.960   121221313.113    23067661.040    90522408.434  
G30  22500118.460   118238863.094    22500120.060    88295254.484  
E 7  24267235.960   127525146.629    24267242.060    95229808.574  
E19  26686612.420   140239063.371    26686617.600   104723964.375  
E21  26169393.920   137521056.160    26169400.360   102694285.320  
E27  23240603.120   122130171.992    23240608.320    91201096.809  
E30  24240081.980   127382463.141    24240087.480    95123260.246  
> 2021  1  4 21 45 27.0000000  0 13       0.000000000000
G 4  22012194.060   115674837.469    22012197.420    86380568.250  
G 7  21081955.700   110786425.105                                  
G 8  22783422.160   119727617.070    22783423.760    89406981.813  
G 9  20305401.380   106705562.777    20305402.120    79682729.219  
G14  23843784.400   125299904.2462                                 
G16  23944643.060   125829933.008                                  
G27  23067603.980   121221018.957    23067605.060    90522188.770  
G30  22499736.360   118236855.117    22499737.960    88293755.020  
E 7  24267547.680   127526784.770    24267553.800    95231031.859  
E19  26686119.680   140236474.023    26686124.860   104722030.773  
E21  26168943.580   137518689.648    26168950.020   102692518.121  
E27  23240559.460   122129942.531    23240564.660    91200925.457  
E30  24240499.900   127384659.398    24240505.400    95124900.309  
> 2021  1  4 21 45 28.0000000  0 13       0.000000000000
G 4  22012649.440   115677230.488    22012652.800    86382355.246  
G 7  21081824.380   110785735.023                                  
G 8  22783011.280   119725457.797    22783012.860    89405369.367  
G 9  20305476.600   106705958.016    20305477.340    79683024.363  
G14  23843107.120   125296345.1022                                 
G16  23945332.100   125833553.984                                  
G27  23067548.120   121220725.445    23067549.200    90521969.590  
G30  22499354.280   118234847.316    22499355.880    88292255.691  
E 7  24267859.480   127528423.234    24267865.580    95232255.391  
E19  26685626.960   140233884.789    26685632.140   104720097.258  
E21  26168493.300   137516323.367    26168499.720   102690751.094  
E27  23240515.860   122129713.426    23240521.060    91200754.371  
E30  24240917.880   127386855.816    24240923.380    95126540.488  
> 2021  1  4 21 45 29.0000000  0 13       0.000000000000
G 4  22013104.880   115679623.863    22013108.240    86384142.504  
G 7  21081693.100   110785045.129                                  
G 8  22782600.460   119723298.957    22782602.060    89403757.246  
G 9  20305551.900   106706353.766    20305552.640    79683319.895  
G14  23842429.860   125292786.1412                                 
G16  23946021.200   125837175.164                                  
G27  23067492.400   121220432.594    23067493.480    90521750.902  
G30  22498972.240   118232839.672    22498973.840    88290756.473  
E 7  24268171.340   127530062.035    24268177.440    95233479.168  
E19  26685134.260   140231295.641    26685139.440   104718163.801  
E21  26168043.060   137513957.320    26168049.480   102688984.242  
E27  23240472.320   122129484.684    23240477.540    91200583.559  
E30  24241335.860   127389052.383    24241341.360    95128180.781  
> 2021  1  4 21 45 30.0000000  0 13       0.000000000000
G 4  22013560.400   115682017.605    22013563.760    86385930.039  
G 7  21081561.840   110784355.430                                  
G 8  22782189.720   119721140.535    22782191.320    89402145.438  
G 9  20305627.300   106706750.035    20305628.040    79683615.809  
G14  23841752.660   125289227.3482                                 
G16  23946710.320   125840796.527                                  
G27  23067436.800   121220140.383    23067437.880    90521532.691  
G30  22498590.240   118230832.188    22498591.820    88289257.379  
E 7  24268483.240   127531701.164    24268489.360    95234703.191  
E19  26684641.580   140228706.559    26684646.760   104716230.398  
E21  26167592.840   137511591.477    26167599.280   102687217.543  
E27  23240428.860   122129256.305    23240434.080    91200413.016  
E30  24241753.880   127391249.105    24241759.380    95129821.191  
> 2021  1  4 21 45 31.0000000  0 13       0.000000000000
G 4  22014015.980   115684411.719    22014019.340    86387717.848  
G 7  21081430.640   110783665.910                                  
G 8  22781779.060   119718982.527    22781780.660    89400533.941  
G 9  20305702.820   106707146.813    20305703.560    79683912.105  
G14  23841075.460   125285668.7342                                 
G16  23947399.480   125844418.082                                  
G27  23067381.320   121219848.820    23067382.400    90521314.969  
G30  22498208.260   118228824.875    22498209.840    88287758.414  
E 7  24268795.220   127533340.617    24268801.340    95235927.457  
E19  26684148.900   140226117.574    26684154.080   104714297.066  
E21  26167142.680   137509225.867    26167149.120   102685451.016  
E27  23240385.480   122129028.281    23240390.680    91200242.738  
E30  24242171.940   127393445.984    24242177.440    95131461.715  
> 2021  1  4 21 45 32.0000000  0 13       0.000000000000
G 4  22014471.640   115686806.184    22014475.000    86389505.922  
G 7  21081299.460   110782976.586                                  
G 8  22781368.500   119716824.930    22781370.080    89398922.746  
G 9  20305778.420   106707544.109    20305779.160    79684208.785  
G14  23840398.320   125282110.2932                                 
G16  23948088.680   125848039.848                                  
G27  23067325.960   121219557.906    23067327.040    90521097.727  
G30  22497826.300   118226817.715    22497827.900    88286259.563  
E 7  24269107.260   127534980.395    24269113.380    95237151.965  
E19  26683656.260   140223528.664    26683661.420   104712363.789  
E21  26166692.580   137506860.484    26166699.000   102683684.656  
E27  23240342.160   122128800.625    23240347.360    91200072.734  
E30  24242590.020   127395643.016    24242595.520    95133102.355  
> 2021  1  4 21 45 33.0000000  0 13       0.000000000000
G 4  22014927.360   115689201.020    22014930.720    86391294.273  
G 7  21081168.320   110782287.445                                  
G 8  22780958.000   119714667.746    22780959.580    89397311.867  
G 9  20305854.120   106707941.918    20305854.860    79684505.852  
G14  23839721.200   125278552.0392                                 
G16  23948777.920   125851661.789                                  
G27  23067270.720   121219267.645    23067271.800    90520880.973  
G30  22497444.380   118224810.730    22497445.980    88284760.840  
E 7  24269419.360   127536620.500    24269425.480    95238376.719  
E19  26683163.620   140220939.840    26683168.800   104710430.578  
E21  26166242.500   137504495.316    26166248.920   102681918.461  
E27  23240298.900   122128573.324    23240304.100    91199902.996  
E30  24243008.140   127397840.203    24243013.640    95134743.113  
> 2021  1  4 21 45 34.0000000  0 13       0.000000000000
G 4  22015383.160   115691596.215    22015386.500    86393082.895  
G 7  21081037.220   110781598.496                                  
G 8  22780547.580   119712510.973    22780549.160    89395701.289  
G 9  20305929.920   106708340.238    20305930.660    79684803.297  
G14  23839044.120   125274993.9572                                 
G16  23949467.180   125855283.934                                  
G27  23067215.600   121218978.035    23067216.680    90520664.707  
G30  22497062.500   118222803.906    22497064.100    88283262.234  
E 7  24269731.540   127538260.941    24269737.640    95239601.727  
E19  26682671.000   140218351.102    26682676.180   104708497.430  
E21  26165792.460   137502130.395    26165798.900   102680152.449  
E27  23240255.720   122128346.387    23240260.920    91199733.531  
E30  24243426.280   127400037.535    24243431.780    95136383.977  
> 2021  1  4 21 45 35.0000000  0 13       0.000000000000
G 4  22015839.020   115693991.781    22015842.360    86394871.789  
G 7  21080906.160   110780909.742                                  
G 8  22780137.220   119710354.617    22780138.820    89394091.027  
G 9  20306005.820   106708739.082    20306006.560    79685101.137  
G14  23838367.080   125271436.0742                                 
G16  23950156.500   125858906.270                                  
G27  23067160.620   121218689.063    23067161.700    90520448.918  
G30  22496680.640   118220797.250    22496682.240    88281763.758  
E 7  24270043.760   127539901.707    24270049.860    95240826.973  
E19  26682178.380   140215762.449    26682183.560   104706564.348  
E21  26165342.480   137499765.672    26165348.900   102678386.586  
E27  23240212.600   122128119.805    23240217.800    91199564.328  
E30  24243844.440   127402235.020    24243849.940    95138024.957  
> 2021  1  4 21 45 36.0000000  0 13       0.000000000000
G 4  22016294.940   115696387.707    22016298.300    86396660.953  
G 7  21080775.120   110780221.172                                  
G 8  22779726.960   119708198.684    22779728.560    89392481.078  
G 9  20306081.800   106709138.434    20306082.540    79685399.352  
G14  23837690.080   125267878.3712                                 
G16  23950845.840   125862528.801                                  
G27  23067105.760   121218400.730    23067106.820    90520233.602  
G30  22496298.820   118218790.742    22496300.420    88280265.395  
E 7  24270356.040   127541542.801    24270362.160    95242052.465  
E19  26681685.800   140213173.883    26681690.980   104704631.328  
E21  26164892.520   137497401.180    26164898.960   102676620.895  
E27  23240169.560   122127893.586    23240174.760    91199395.398  
E30  24244262.640   127404432.664    24244268.140    95139666.051  
> 2021  1  4 21 45 37.0000000  0 13       0.000000000000
G 4  22016750.940   115698783.996    22016754.300    86398450.387  
G 7  21080644.140   110779532.789                                  
G 8  22779316.780   119706043.176    22779318.380    89390871.445  
G 9  20306157.900   106709538.293    20306158.640    79685697.949  
G14  23837013.100   125264320.8442                                 
G16  23951535.220   125866151.523                                  
G27  23067051.020   121218113.074    23067052.080    90520018.793  
G30  22495917.020   118216784.418    22495918.620    88278767.164  
E 7  24270668.400   127543184.219    24270674.520    95243278.195  
E19  26681193.220   140210585.406    26681198.400   104702698.375  
E21  26164442.620   137495036.930    26164449.040   102674855.383  
E27  23240126.580   122127667.730    23240131.780    91199226.742  
E30  24244680.860   127406630.461    24244686.360    95141307.262  
> 2021  1  4 21 45 38.0000000  0 13       0.000000000000
G 4  22017207.020   115701180.652    22017210.360    86400240.098  
G 7  21080513.180   110778844.602                                  
G 8  22778906.680   119703888.078    22778908.280    89389262.121  
G 9  20306234.080   106709938.668    20306234.820    79685996.930  
G14  23836336.160   125260763.4882                                 
G16  23952224.640   125869774.445                                  
G27  23066996.400   121217826.051    23066997.480    90519804.461  
G30  22495535.260   118214778.250    22495536.860    88277269.055  
E 7  24270980.820   127544825.973    24270986.920    95244504.180  
E19  26680700.680   140207997.008    26680705.840   104700765.480  
E21  26163992.760   137492672.891    26163999.180   102673090.031  
E27  23240083.660   122127442.234    23240088.860    91199058.352  
E30  24245099.120   127408828.414    24245104.620    95142948.590  
> 2021  1  4 21 45 39.0000000  0 13       0.000000000000
G 4  22017663.140   115703577.680    22017666.500    86402030.086  
G 7  21080382.240   110778156.586                                  
G 8  22778496.660   119701733.406    22778498.260    89387653.109  
G 9  20306310.380   106710339.559    20306311.120    79686296.297  
G14  23835659.240   125257206.3162                                 
G16  23952914.100   125873397.555                                  
G27  23066941.900   121217539.688    23066942.980    90519590.617  
G30  22495153.540   118212772.246    22495155.120    88275771.063  
E 7  24271293.300   127546468.063    24271299.400    95245730.418  
E19  26680208.140   140205408.699    26680213.300   104698832.652  
E21  26163542.940   137490309.066    26163549.360   102671324.836  
E27  23240040.820   122127217.105    23240046.020    91198890.238  
E30  24245517.420   127411026.520    24245522.900    95144590.031  
> 2021  1  4 21 45 41.0000000  0 13       0.000000000000
G 4  22018575.640   115708372.813    22018579.000    86405610.867  
G 7  21080120.520   110776781.141                                  
G 8  22777676.860   119697425.281    22777678.440    89384436.004  
G 9  20306463.240   106711142.883    20306463.980    79686896.184  
G14  23834305.520   125250092.5042                                 
G16  23954293.120   125880644.359                                  
G27  23066833.280   121216968.887    23066834.360    90519164.371  
G30  22494390.180   118208760.746    22494391.760    88272775.465  
E 7  24271918.440   127549753.207    24271924.540    95248183.609  
E19  26679223.100   140200232.336    26679228.280   104694967.188  
E21  26162643.420   137485582.117    26162649.860   102667794.977  
E27  23239955.340   122126767.926    23239960.560    91198554.809  
E30  24246354.060   127415423.188    24246359.560    95147873.258  
> 2021  1  4 21 45 42.0000000  0 13       0.000000000000
G 4  22019031.980   115710770.934    22019035.340    86407401.668  
G 7  21079989.700   110776093.703                                  
G 8  22777267.060   119695271.820    22777268.660    89382827.906  
G 9  20306539.820   106711545.316    20306540.560    79687196.699  
G14  23833628.720   125246535.8712                                 
G16  23954982.680   125884268.055                                  
G27  23066779.160   121216684.461    23066780.240    90518951.973  
G30  22494008.540   118206755.246    22494010.120    88271277.852  
E 7  24272231.100   127551396.266    24272237.220    95249410.570  
E19  26678730.620   140197644.277    26678735.780   104693034.547  
E21  26162193.740   137483218.988    26162200.160   102666030.297  
E27  23239912.700   122126543.871    23239917.920    91198387.496  
E30  24246772.440   127417621.746    24246777.940    95149515.039  
> 2021  1  4 21 45 43.0000000  0 13       0.000000000000
G 4  22019488.400   115713169.406    22019491.760    86409192.738  
G 7  21079858.920   110775406.453                                  
G 8  22776857.360   119693118.789    22776858.940    89381220.121  
G 9  20306616.500   106711948.262    20306617.240    79687497.602  
G14  23832951.960   125242979.4182                                 
G16  23955672.300   125887891.945                                  
G27  23066725.160   121216400.688    23066726.240    90518740.063  
G30  22493626.940   118204749.891    22493628.520    88269780.348  
E 7  24272543.840   127553039.664    24272549.940    95250637.781  
E19  26678238.140   140195056.309    26678243.320   104691101.977  
E21  26161744.100   137480856.070    26161750.520   102664265.781  
E27  23239870.140   122126320.180    23239875.340    91198220.453  
E30  24247190.840   127419820.461    24247196.340    95151156.938  
> 2021  1  4 21 45 44.0000000  0 13       0.000000000000
G 4  22019944.880   115715568.254    22019948.240    86410984.082  
G 7  21079728.180   110774719.398                                  
G 8  22776447.720   119690966.180    22776449.320    89379612.656  
G 9  20306693.280   106712351.719    20306694.020    79687798.883  
G14  23832275.220   125239423.1372                                 
G16  23956361.940   125891516.027                                  
G27  23066671.280   121216117.555    23066672.360    90518528.637  
G30  22493245.360   118202744.715    22493246.940    88268282.973  
E 7  24272856.620   127554683.387    24272862.740    95251865.234  
E19  26677745.680   140192468.426    26677750.860   104689169.465  
E21  26161294.480   137478493.395    26161300.920   102662501.445  
E27  23239827.640   122126096.848    23239832.840    91198053.680  
E30  24247609.280   127422019.336    24247614.780    95152798.949  
> 2021  1  4 21 45 45.0000000  0 13       0.000000000000
G 4  22020401.440   115717967.465    22020404.800    86412775.699  
G 7  21079597.460   110774032.539                                  
G 8  22776038.180   119688813.988    22776039.760    89378005.500  
G 9  20306770.140   106712755.691    20306770.880    79688100.551  
G14  23831598.520   125235867.0352                                 
G16  23957051.620   125895140.297                                  
G27  23066617.520   121215835.070    23066618.600    90518317.688  
G30  22492863.820   118200739.711    22492865.400    88266785.734  
E 7  24273169.480   127556327.441    24273175.580    95253092.938  
E19  26677253.240   140189880.617    26677258.400   104687237.012  
E21  26160844.920   137476130.922    26160851.360   102660737.266  
E27  23239785.220   122125873.879    23239790.420    91197887.176  
E30  24248027.740   127424218.352    24248033.240    95154441.074  
