     3.03           OBSERVATION DATA    M: Mixed            RINEX VERSION / TYPE
sbp2rinex v2.2 (RTKL                    20210504 171529 UTC PGM / RUN BY / DATE 
log: 202101052150-202101052210.sbp                          COMMENT             
format: Swift Navigation SBP, option: CONVBASE,EPHALL,OBSALLCOMMENT             
                                                            MARKER NAME         
                                                            MARKER NUMBER       
                                                            MARKER TYPE         
                                                            OBSERVER / AGENCY   
                                                            REC # / TYPE / VERS 
                                                            ANT # / TYPE        
 -2711595.6132 -4352800.3364  3779530.1283                  APPROX POSITION XYZ 
        0.0000        0.0000        0.0000                  ANTENNA: DELTA H/E/N
G    4 C1C L1C C5I L5I                                      SYS / # / OBS TYPES 
E    4 C1B L1B C5I L5I                                      SYS / # / OBS TYPES 
  2021     1     5    21    50   20.0000000     GPS         TIME OF FIRST OBS   
  2021     1     5    22    20   16.0000000     GPS         TIME OF LAST OBS    
G                                                           SYS / PHASE SHIFT   
E                                                           SYS / PHASE SHIFT   
  0                                                         GLONASS SLOT / FRQ #
 C1C    0.000 C1P    0.000 C2C    0.000 C2P    0.000        GLONASS COD/PHS/BIS 
                                                            END OF HEADER       
> 2021  1  5 21 50 20.0000000  0 16       0.000000000000
G 4  22269893.420   117029052.074    22269897.140    87391830.867  
G 5  24480830.300   128647596.3282                                 
G 7  21015499.040   110437193.016                                  
G 8  22574421.540   118629313.328    22574423.000    88586820.352  
G 9  20361144.640   106998492.055    20361145.660    79901473.906  
G14  23486724.220   123423527.6952                                 
G16  24322877.860   127817569.7772                                 
G27  23055397.180   121156870.961    23055398.360    90474285.629  
G28  23735953.460   124733248.8442                                 
G30  22301477.400   117194994.863    22301479.180    87515741.637  
E 2  23631489.300   124184292.984    23631494.320    92735016.496  
E 3  23534892.160   123676664.078    23534898.060    92355943.434  
E 5  26781411.140   140737214.945    26781418.660   105095959.035  
E 8  22733454.300   119465097.688    22733458.640    89210944.266  
E25  24137236.200   126842001.215    24137242.220    94719668.730  
E30  26373041.480   138591221.9842   26373048.440   103493431.6562 
> 2021  1  5 21 50 21.0000000  0 16       0.000000000000
G 4  22270385.580   117031638.430    22270389.320    87393762.238  
G 5  24480411.320   128645394.6022                                 
G 7  21015387.220   110436605.344                                  
G 8  22574055.620   118627390.391    22574057.080    88585384.395  
G 9  20361273.560   106999169.551    20361274.580    79901979.832  
G14  23486067.260   123420075.4102                                 
G16  24323584.160   127821281.4302                                 
G27  23055408.620   121156931.008    23055409.800    90474330.477  
G28  23735299.120   124729810.1762                                 
G30  22301111.940   117193074.445    22301113.740    87514307.563  
E 2  23631291.080   124183251.375    23631296.100    92734238.668  
E 3  23535054.720   123677518.320    23535060.620    92356581.340  
E 5  26781922.700   140739903.152    26781930.220   105097966.461  
E 8  22733114.640   119463312.746    22733118.980    89209611.355  
E25  24137518.800   126843486.230    24137524.800    94720777.672  
E30  26372546.960   138588623.2932   26372553.920   103491491.0742 
> 2021  1  5 21 50 22.0000000  0 16       0.000000000000
G 4  22270877.820   117034225.133    22270881.540    87395693.871  
G 5  24479992.440   128643193.3672                                 
G 7  21015275.420   110436017.863                                  
G 8  22573689.780   118625467.918    22573691.240    88583948.789  
G 9  20361402.580   106999847.570    20361403.620    79902486.152  
G14  23485410.360   123416623.3552                                 
G16  24324290.480   127824993.2152                                 
G27  23055420.160   121156991.723    23055421.340    90474375.816  
G28  23734644.800   124726371.7152                                 
G30  22300746.540   117191154.199    22300748.320    87512873.617  
E 2  23631092.940   124182210.109    23631097.960    92733461.098  
E 3  23535217.340   123678372.941    23535223.240    92357219.531  
E 5  26782434.280   140742591.535    26782441.800   105099974.020  
E 8  22732775.020   119461528.059    22732779.360    89208278.633  
E25  24137801.420   126844971.496    24137807.440    94721886.797  
E30  26372052.480   138586024.7622   26372059.440   103489550.6132 
> 2021  1  5 21 50 23.0000000  0 16       0.000000000000
G 4  22271370.120   117036812.188    22271373.840    87397625.766  
G 5  24479573.660   128640992.6212                                 
G 7  21015163.660   110435430.566                                  
G 8  22573324.040   118623545.926    22573325.500    88582513.539  
G 9  20361531.720   107000526.117    20361532.740    79902992.863  
G14  23484753.500   123413171.5042                                 
G16  24324996.840   127828705.1412                                 
G27  23055431.840   121157053.102    23055433.020    90474421.656  
G28  23733990.520   124722933.4532                                 
G30  22300381.160   117189234.109    22300382.940    87511439.789  
E 2  23630894.860   124181169.180    23630899.880    92732683.781  
E 3  23535380.040   123679227.949    23535385.940    92357858.012  
E 5  26782945.880   140745280.078    26782953.420   105101981.695  
E 8  22732435.460   119459743.633    22732439.800    89206946.109  
E25  24138084.120   126846457.000    24138090.120    94722996.102  
E30  26371558.020   138583426.3832   26371564.980   103487610.2662 
> 2021  1  5 21 50 24.0000000  0 16       0.000000000000
G 4  22271862.480   117039399.582    22271866.220    87399557.914  
G 5  24479154.960   128638792.3592                                 
G 7  21015051.940   110434843.453                                  
G 8  22572958.380   118621624.406    22572959.840    88581078.641  
G 9  20361660.940   107001205.188    20361661.960    79903499.961  
G14  23484096.680   123409719.8752                                 
G16  24325703.220   127832417.2072                                 
G27  23055443.660   121157115.145    23055444.840    90474467.992  
G28  23733336.280   124719495.4302                                 
G30  22300015.800   117187314.188    22300017.600    87510006.086  
E 2  23630696.840   124180128.602    23630701.860    92731906.730  
E 3  23535542.820   123680083.332    23535548.720    92358496.773  
E 5  26783457.540   140747968.797    26783465.060   105103989.504  
E 8  22732095.940   119457959.469    22732100.280    89205613.777  
E25  24138366.840   126847942.758    24138372.860    94724105.598  
E30  26371063.600   138580828.1522   26371070.560   103485670.0312 
> 2021  1  5 21 50 26.0000000  0 16       0.000000000000
G 4  22272847.420   117044575.418    22272851.140    87403422.988  
G 5  24478317.840   128634393.3012                                 
G 7  21014828.600   110433669.785                                  
G 8  22572227.360   118617782.809    22572228.820    88578209.922  
G 9  20361919.680   107002564.906    20361920.700    79904515.344  
G14  23482783.160   123402817.2732                                 
G16  24327116.080   127839841.7542                                 
G27  23055467.640   121157241.215    23055468.820    90474562.137  
G28  23732027.920   124712619.9842                                 
G30  22299285.200   117183474.828    22299286.980    87507139.035  
E 2  23630301.000   124178048.445    23630306.020    92730353.363  
E 3  23535868.580   123681795.250    23535874.500    92359775.152  
E 5  26784480.920   140753346.734    26784488.460   105108005.496  
E 8  22731417.060   119454391.910    22731421.400    89202949.691  
E25  24138932.440   126850914.977    24138938.440    94726325.109  
E30  26370074.820   138575632.1762   26370081.800   103481789.9182 
> 2021  1  5 21 50 27.0000000  0 16       0.000000000000
G 4  22273339.980   117047163.859    22273343.700    87405355.918  
G 5  24477899.420   128632194.5002                                 
G 7  21014716.980   110433083.238                                  
G 8  22571861.980   118615862.719    22571863.440    88576776.094  
G 9  20362049.200   107003245.551    20362050.220    79905023.617  
G14  23482126.460   123399366.2932                                 
G16  24327822.540   127843554.2302                                 
G27  23055479.820   121157305.262    23055481.000    90474609.969  
G28  23731373.800   124709182.5782                                 
G30  22298919.940   117181555.410    22298921.740    87505705.707  
E 2  23630103.180   124177008.875    23630108.200    92729577.066  
E 3  23536031.580   123682651.781    23536037.480    92360414.770  
E 5  26784992.660   140756035.965    26785000.200   105110013.684  
E 8  22731077.680   119452608.523    22731082.020    89201617.941  
E25  24139215.300   126852401.453    24139221.320    94727435.145  
E30  26369580.500   138573034.4182   26369587.460   103479850.0352 
> 2021  1  5 21 50 28.0000000  0 16       0.000000000000
G 4  22273832.620   117049752.656    22273836.340    87407289.113  
G 5  24477481.100   128629996.1802                                 
G 7  21014605.400   110432496.875                                  
G 8  22571496.680   118613943.109    22571498.140    88575342.625  
G 9  20362178.820   107003926.719    20362179.840    79905532.289  
G14  23481469.800   123395915.5552                                 
G16  24328529.020   127847266.8442                                 
G27  23055492.140   121157369.961    23055493.320    90474658.285  
G28  23730719.740   124705745.3982                                 
G30  22298554.720   117179636.137    22298556.500    87504272.488  
E 2  23629905.420   124175969.664    23629910.440    92728801.027  
E 3  23536194.640   123683508.707    23536200.560    92361054.680  
E 5  26785504.440   140758725.344    26785511.980   105112021.984  
E 8  22730738.380   119450825.402    22730742.700    89200286.395  
E25  24139498.220   126853888.188    24139504.240    94728545.363  
E30  26369086.180   138570436.8282   26369093.160   103477910.2772 
> 2021  1  5 21 50 29.0000000  0 16       0.000000000000
G 4  22274325.300   117052341.789    22274329.040    87409222.563  
G 5  24477062.860   128627798.3632                                 
G 7  21014493.860   110431910.707                                  
G 8  22571131.480   118612023.961    22571132.940    88573909.496  
G 9  20362308.540   107004608.406    20362309.560    79906041.344  
G14  23480813.180   123392465.0202                                 
G16  24329235.540   127850979.6022                                 
G27  23055504.580   121157435.316    23055505.760    90474707.098  
G28  23730065.700   124702308.3912                                 
G30  22298189.520   117177717.043    22298191.320    87502839.406  
E 2  23629707.720   124174930.785    23629712.760    92728025.242  
E 3  23536357.780   123684365.996    23536363.680    92361694.863  
E 5  26786016.260   140761414.914    26786023.780   105114030.430  
E 8  22730399.100   119449042.523    22730403.440    89198955.023  
E25  24139781.180   126855375.156    24139787.200    94729655.762  
E30  26368591.900   138567839.3832   26368598.880   103475970.6252 
> 2021  1  5 21 50 30.0000000  0 16       0.000000000000
G 4  22274818.080   117054931.281    22274821.800    87411156.273  
G 5  24476644.720   128625601.0272                                 
G 7  21014382.340   110431324.719                                  
G 8  22570766.380   118610105.281    22570767.820    88572476.723  
G 9  20362438.360   107005290.613    20362439.380    79906550.789  
G14  23480156.600   123389014.7072                                 
G16  24329942.080   127854692.5082                                 
G27  23055517.140   121157501.352    23055518.320    90474756.410  
G28  23729411.700   124698871.6172                                 
G30  22297824.360   117175798.098    22297826.140    87501406.430  
E 2  23629510.100   124173892.254    23629515.120    92727249.715  
E 3  23536521.000   123685223.676    23536526.900    92362335.336  
E 5  26786528.080   140764104.637    26786535.620   105116038.988  
E 8  22730059.880   119447259.914    22730064.220    89197623.852  
E25  24140064.180   126856862.371    24140070.200    94730766.348  
E30  26368097.660   138565242.0782   26368104.620   103474031.0822 
> 2021  1  5 21 50 31.0000000  0 16       0.000000000000
G 4  22275310.900   117057521.109    22275314.620    87413090.238  
G 5  24476226.680   128623404.1912                                 
G 7  21014270.880   110430738.914                                  
G 8  22570401.360   118608187.094    22570402.800    88571044.316  
G 9  20362568.280   107005973.348    20362569.300    79907060.625  
G14  23479500.080   123385564.6132                                 
G16  24330648.640   127858405.5512                                 
G27  23055529.840   121157568.043    23055531.020    90474806.219  
G28  23728757.740   124695435.0662                                 
G30  22297459.240   117173879.328    22297461.020    87499973.586  
E 2  23629312.540   124172854.047    23629317.560    92726474.430  
E 3  23536684.280   123686081.734    23536690.180    92362976.094  
E 5  26787039.960   140766794.531    26787047.500   105118047.672  
E 8  22729720.720   119445477.555    22729725.040    89196292.871  
E25  24140347.240   126858349.824    24140353.260    94731877.105  
E30  26367603.440   138562644.9452   26367610.400   103472091.6642 
> 2021  1  5 21 50 32.0000000  0 16       0.000000000000
G 4  22275803.800   117060111.293    22275807.520    87415024.473  
G 5  24475808.720   128621207.8282                                 
G 7  21014159.440   110430153.289                                  
G 8  22570036.420   118606269.367    22570037.860    88569612.250  
G 9  20362698.300   107006656.613    20362699.320    79907570.859  
G14  23478843.580   123382114.7302                                 
G16  24331355.240   127862118.7192                                 
G27  23055542.660   121157635.395    23055543.820    90474856.516  
G28  23728103.820   124691998.7072                                 
G30  22297094.140   117171960.723    22297095.920    87498540.867  
E 2  23629115.040   124171816.188    23629120.060    92725699.410  
E 3  23536847.640   123686940.168    23536853.540    92363617.133  
E 5  26787551.860   140769484.594    26787559.400   105120056.484  
E 8  22729381.580   119443695.461    22729385.920    89194962.086  
E25  24140630.340   126859837.516    24140636.360    94732988.043  
E30  26367109.260   138560047.9732   26367116.220   103470152.3672 
> 2021  1  5 21 50 33.0000000  0 16       0.000000000000
G 4  22276296.760   117062701.824    22276300.480    87416958.961  
G 5  24475390.860   128619011.9652                                 
G 7  21014048.040   110429567.871                                  
G 8  22569671.580   118604352.113    22569673.020    88568180.539  
G 9  20362828.420   107007340.398    20362829.440    79908081.484  
G14  23478187.140   123378665.0822                                 
G16  24332061.860   127865832.0432                                 
G27  23055555.600   121157703.430    23055556.780    90474907.324  
G28  23727449.940   124688562.5742                                 
G30  22296729.060   117170042.277    22296730.840    87497108.266  
E 2  23628917.620   124170778.684    23628922.640    92724924.648  
E 3  23537011.060   123687799.000    23537016.960    92364258.469  
E 5  26788063.800   140772174.840    26788071.340   105122065.434  
E 8  22729042.520   119441913.629    22729046.860    89193631.500  
E25  24140913.480   126861325.465    24140919.500    94734099.176  
E30  26366615.100   138557451.1562   26366622.060   103468213.1882 
> 2021  1  5 21 50 34.0000000  0 16       0.000000000000
G 4  22276789.780   117065292.703    22276793.500    87418893.711  
G 5  24474973.100   128616816.5942                                 
G 7  21013936.660   110428982.625                                  
G 8  22569306.820   118602435.344    22569308.280    88566749.191  
G 9  20362958.640   107008024.715    20362959.660    79908592.504  
G14  23477530.720   123375215.6482                                 
G16  24332768.520   127869545.5042                                 
G27  23055568.660   121157772.117    23055569.840    90474958.621  
G28  23726796.120   124685126.6332                                 
G30  22296364.040   117168124.016    22296365.820    87495675.801  
E 2  23628720.240   124169741.512    23628725.260    92724150.137  
E 3  23537174.560   123688658.203    23537180.460    92364900.082  
E 5  26788575.760   140774865.234    26788583.300   105124074.492  
E 8  22728703.500   119440132.059    22728707.820    89192301.105  
E25  24141196.680   126862813.648    24141202.700    94735210.480  
E30  26366120.960   138554854.4802   26366127.940   103466274.1132 
> 2021  1  5 21 50 35.0000000  0 16       0.000000000000
G 4  22277282.880   117067883.934    22277286.600    87420828.723  
G 5  24474555.420   128614621.7032                                 
G 7  21013825.340   110428397.574                                  
G 8  22568942.160   118600519.031    22568943.620    88565318.184  
G 9  20363088.960   107008709.555    20363089.980    79909103.910  
G14  23476874.360   123371766.4342                                 
G16  24333475.180   127873259.0902                                 
G27  23055581.860   121157841.461    23055583.040    90475010.410  
G28  23726142.320   124681690.9342                                 
G30  22295999.040   117166205.910    22296000.800    87494243.453  
E 2  23628522.940   124168704.684    23628527.960    92723375.883  
E 3  23537338.140   123689517.789    23537344.040    92365541.980  
E 5  26789087.760   140777555.809    26789095.300   105126083.688  
E 8  22728364.520   119438350.746    22728368.860    89190970.906  
E25  24141479.920   126864302.082    24141485.940    94736321.973  
E30  26365626.860   138552258.0082   26365633.840   103464335.1882 
> 2021  1  5 21 50 36.0000000  0 16       0.000000000000
G 4  22277776.040   117070475.504    22277779.760    87422763.992  
G 5  24474137.840   128612427.3012                                 
G 7  21013714.040   110427812.695                                  
G 8  22568577.580   118598603.172    22568579.040    88563887.512  
G 9  20363219.380   107009394.918    20363220.400    79909615.711  
G14  23476218.040   123368317.4452                                 
G16  24334181.880   127876972.8162                                 
G27  23055595.180   121157911.484    23055596.360    90475062.703  
G28  23725488.560   124678255.4142                                 
G30  22295634.060   117164287.949    22295635.840    87492811.215  
E 2  23628325.700   124167668.188    23628330.720    92722601.875  
E 3  23537501.780   123690377.754    23537507.680    92366184.164  
E 5  26789599.800   140780246.539    26789607.320   105128092.996  
E 8  22728025.600   119436569.684    22728029.940    89189640.895  
E25  24141763.200   126865790.746    24141769.220    94737433.637  
E30  26365132.800   138549661.6372   26365139.760   103462396.3402 
> 2021  1  5 21 50 37.0000000  0 16       0.000000000000
G 4  22278269.280   117073067.426    22278272.980    87424699.520  
G 5  24473720.360   128610233.3872                                 
G 7  21013602.760   110427228.008                                  
G 8  22568213.100   118596687.789    22568214.540    88562457.199  
G 9  20363349.900   107010080.797    20363350.920    79910127.898  
G14  23475561.760   123364868.6802                                 
G16  24334888.620   127880686.6882                                 
G27  23055608.640   121157982.156    23055609.800    90475115.480  
G28  23724834.860   124674820.1602                                 
G30  22295269.120   117162370.164    22295270.880    87491379.109  
E 2  23628128.540   124166632.039    23628133.560    92721828.129  
E 3  23537665.500   123691238.105    23537671.400    92366826.633  
E 5  26790111.860   140782937.441    26790119.400   105130102.434  
E 8  22727686.720   119434788.895    22727691.060    89188311.082  
E25  24142046.540   126867279.664    24142052.540    94738545.492  
E30  26364638.760   138547065.4532   26364645.720   103460457.6332 
> 2021  1  5 21 50 38.0000000  0 16       0.000000000000
G 4  22278762.560   117075659.703    22278766.280    87426635.313  
G 5  24473302.960   128608039.9652                                 
G 7  21013491.540   110426643.516                                  
G 8  22567848.720   118594772.910    22567850.160    88561027.262  
G 9  20363480.520   107010767.207    20363481.540    79910640.480  
G14  23474905.520   123361420.1412                                 
G16  24335595.360   127884400.6882                                 
G27  23055622.220   121158053.508    23055623.380    90475168.770  
G28  23724181.180   124671385.0942                                 
G30  22294904.200   117160452.551    22294905.980    87489947.129  
E 2  23627931.420   124165596.234    23627936.440    92721054.641  
E 3  23537829.300   123692098.836    23537835.200    92367469.383  
E 5  26790623.960   140785628.516    26790631.480   105132112.000  
E 8  22727347.900   119433008.363    22727352.240    89186981.465  
E25  24142329.920   126868768.824    24142335.920    94739657.523  
E30  26364144.740   138544469.4182   26364151.720   103458519.0392 
> 2021  1  5 21 50 39.0000000  0 16       0.000000000000
G 4  22279255.920   117078252.313    22279259.640    87428571.355  
G 5  24472885.660   128605847.0272                                 
G 7  21013380.360   110426059.211                                  
G 8  22567484.420   118592858.512    22567485.860    88559597.684  
G 9  20363611.240   107011454.145    20363612.260    79911153.457  
G14  23474249.320   123357971.8012                                 
G16  24336302.140   127888114.8282                                 
G27  23055635.920   121158125.520    23055637.080    90475222.547  
G28  23723527.540   124667950.2272                                 
G30  22294539.320   117158535.102    22294541.100    87488515.270  
E 2  23627734.380   124164560.773    23627739.400    92720281.406  
E 3  23537993.160   123692959.949    23537999.060    92368112.422  
E 5  26791136.080   140788319.770    26791143.620   105134121.703  
E 8  22727009.120   119431228.090    22727013.460    89185652.039  
E25  24142613.340   126870258.227    24142619.340    94740769.742  
E30  26363650.760   138541873.5312   26363657.740   103456580.5512 
> 2021  1  5 21 50 40.0000000  0 16       0.000000000000
G 4  22279749.340   117080845.277    22279753.060    87430507.664  
G 5  24472468.460   128603654.5822                                 
G 7  21013269.200   110425475.066                                  
G 8  22567120.200   118590944.578    22567121.640    88558168.453  
G 9  20363742.060   107012141.605    20363743.080    79911666.824  
G14  23473593.180   123354523.6912                                 
G16  24337008.940   127891829.1092                                 
G27  23055649.740   121158198.199    23055650.920    90475276.824  
G28  23722873.960   124664515.5662                                 
G30  22294174.480   117156617.805    22294176.240    87487083.527  
E 2  23627537.400   124163525.652    23627542.420    92719508.426  
E 3  23538157.100   123693821.441    23538163.000    92368755.746  
E 5  26791648.240   140791011.184    26791655.780   105136131.523  
E 8  22726670.400   119429448.074    22726674.740    89184322.809  
E25  24142896.800   126871747.863    24142902.820    94741882.133  
E30  26363156.820   138539277.8092   26363163.780   103454642.1882 
> 2021  1  5 21 50 41.0000000  0 16       0.000000000000
G 4  22280242.840   117083438.590    22280246.560    87432444.230  
G 5  24472051.340   128601462.6212                                 
G 7  21013158.080   110424891.125                                  
G 8  22566756.080   118589031.125    22566757.520    88556739.578  
G 9  20363872.980   107012829.590    20363874.000    79912180.582  
G14  23472937.060   123351075.7972                                 
G16  24337715.780   127895543.5232                                 
G27  23055663.700   121158271.535    23055664.860    90475331.594  
G28  23722220.400   124661081.1332                                 
G30  22293809.660   117154700.688    22293811.440    87485651.922  
E 2  23627340.500   124162490.871    23627345.520    92718735.699  
E 3  23538321.120   123694683.324    23538327.020    92369399.359  
E 5  26792160.440   140793702.754    26792167.960   105138141.461  
E 8  22726331.720   119427668.316    22726336.060    89182993.766  
E25  24143180.320   126873237.750    24143186.340    94742994.707  
E30  26362662.900   138536682.2342   26362669.860   103452703.9342 
> 2021  1  5 21 50 42.0000000  0 16       0.000000000000
G 4  22280736.400   117086032.258    22280740.120    87434381.066  
G 5  24471634.320   128599271.1642                                 
G 7  21013047.000   110424307.379                                  
G 8  22566392.060   118587118.145    22566393.500    88555311.059  
G 9  20364004.000   107013518.109    20364005.020    79912694.742  
G14  23472280.980   123347628.1332                                 
G16  24338422.640   127899258.0742                                 
G27  23055677.780   121158345.551    23055678.960    90475386.871  
G28  23721566.880   124657646.9062                                 
G30  22293444.880   117152783.727    22293446.640    87484220.426  
E 2  23627143.640   124161456.426    23627148.660    92717963.223  
E 3  23538485.200   123695545.582    23538491.100    92370043.254  
E 5  26792672.660   140796394.508    26792680.200   105140151.535  
E 8  22725993.100   119425888.828    22725997.420    89181664.930  
E25  24143463.880   126874727.883    24143469.900    94744107.469  
E30  26362169.000   138534086.8092   26362175.960   103450765.7932 
> 2021  1  5 21 50 43.0000000  0 16       0.000000000000
G 4  22281230.020   117088626.258    22281233.740    87436318.148  
G 5  24471217.380   128597080.1912                                 
G 7  21012935.940   110423723.809                                  
G 8  22566028.120   118585205.648    22566029.560    88553882.902  
G 9  20364135.120   107014207.133    20364136.120    79913209.273  
G14  23471624.960   123344180.6682                                 
G16  24339129.520   127902972.7662                                 
G27  23055692.000   121158420.219    23055693.160    90475442.633  
G28  23720913.420   124654212.8832                                 
G30  22293080.120   117150866.934    22293081.880    87482789.059  
E 2  23626946.860   124160422.324    23626951.880    92717191.008  
E 3  23538649.340   123696408.219    23538655.240    92370687.426  
E 5  26793184.920   140799086.4142   26793192.440   105142161.7232 
E 8  22725654.520   119424109.586    22725658.860    89180336.273  
E25  24143747.500   126876218.250    24143753.500    94745220.406  
E30  26361675.140   138531491.5432   26361682.100   103448827.7702 
> 2021  1  5 21 50 44.0000000  0 16       0.000000000000
G 4  22281723.720   117091220.613    22281727.420    87438255.492  
G 5  24470800.560   128594889.7112                                 
G 7  21012824.940   110423140.438                                  
G 8  22565664.280   118583293.605    22565665.700    88552455.082  
G 9  20364266.340   107014896.684    20364267.340    79913724.203  
G14  23470968.980   123340733.4412                                 
G16  24339836.420   127906687.5942                                 
G27  23055706.340   121158495.559    23055707.500    90475498.895  
G28  23720259.980   124650779.0742                                 
G30  22292715.400   117148950.305    22292717.160    87481357.816  
E 2  23626750.140   124159388.570    23626755.160    92716419.047  
E 3  23538813.580   123697271.246    23538819.480    92371331.895  
E 5  26793697.200   140801778.5042   26793704.740   105144172.0472 
E 8  22725316.000   119422330.621    22725320.320    89179007.828  
E25  24144031.140   126877708.871    24144037.160    94746333.535  
E30  26361181.300   138528896.4492   26361188.280   103446889.8752 
> 2021  1  5 21 50 46.0000000  0 16       0.000000000000
G 4  22282711.300   117096410.367    22282715.000    87442130.961  
G 5  24469967.160   128590510.2192                                 
G 7  21012603.020   110421974.242                                  
G 8  22564936.840   118579470.973    22564938.280    88549600.523  
G 9  20364529.080   107016277.391    20364530.080    79914755.254  
G14  23469657.120   123333839.6332                                 
G16  24341250.320   127914117.6802                                 
G27  23055735.380   121158648.230    23055736.540    90475612.906  
G28  23718953.240   124643912.0982                                 
G30  22291986.040   117145117.547    22291987.820    87478495.695  
E 2  23626356.900   124157322.078    23626361.920    92714875.887  
E 3  23539142.240   123698998.434    23539148.160    92372621.680  
E 5  26794721.880   140807163.1722   26794729.400   105148193.0632 
E 8  22724639.080   119418773.453    22724643.420    89176351.500  
E25  24144598.600   126880690.828    24144604.600    94748560.320  
E30  26360193.740   138523706.7232   26360200.700   103443014.4342 
> 2021  1  5 21 50 48.0000000  0 16       0.000000000000
G 4  22283699.140   117101601.516    22283702.840    87446007.469  
G 5  24469134.140   128586132.6802                                 
G 7  21012381.240   110420808.805                                  
G 8  22564209.780   118575650.203    22564211.220    88546747.355  
G 9  20364792.220   107017660.188    20364793.220    79915787.867  
G14  23468345.440   123326946.7232                                 
G16  24342664.320   127921548.2972                                 
G27  23055764.940   121158803.566    23055766.100    90475728.906  
G28  23717646.660   124637045.9772                                 
G30  22291256.820   117141285.449    22291258.580    87475634.070  
E 2  23625963.920   124155256.949    23625968.940    92713333.746  
E 3  23539471.220   123700727.152    23539477.120    92373912.605  
E 5  26795746.680   140812548.5232   26795754.200   105152214.5902 
E 8  22723962.380   119415217.344    22723966.720    89173695.965  
E25  24145166.240   126883673.770    24145172.240    94750787.840  
E30  26359206.280   138518517.6132   26359213.240   103439139.4492 
> 2021  1  5 21 50 49.0000000  0 16       0.000000000000
G 4  22284193.160   117104197.617    22284196.860    87447946.117  
G 5  24468717.760   128583944.6412                                 
G 7  21012270.400   110420226.363                                  
G 8  22563846.380   118573740.527    22563847.820    88545321.305  
G 9  20364923.940   107018352.367    20364924.940    79916304.758  
G14  23467689.660   123323500.5862                                 
G16  24343371.360   127925263.8242                                 
G27  23055779.920   121158882.230    23055781.080    90475787.652  
G28  23716993.420   124633613.2382                                 
G30  22290892.260   117139369.637    22290894.020    87474203.434  
E 2  23625767.520   124154224.902    23625772.560    92712563.063  
E 3  23539635.800   123701592.090    23539641.700    92374558.500  
E 5  26796259.120   140815241.4412   26796266.660   105154225.5312 
E 8  22723624.100   119413439.676    22723628.440    89172368.488  
E25  24145450.120   126885165.598    24145456.140    94751901.867  
E30  26358712.600   138515923.3052   26358719.560   103437202.1412 
> 2021  1  5 21 50 50.0000000  0 16       0.000000000000
G 4  22284687.240   117106794.059    22284690.960    87449885.023  
G 5  24468301.500   128581757.0902                                 
G 7  21012159.600   110419644.113                                  
G 8  22563483.060   118571831.324    22563484.500    88543895.605  
G 9  20365055.760   107019045.086    20365056.760    79916822.051  
G14  23467033.940   123320054.6882                                 
G16  24344078.440   127928979.4842                                 
G27  23055795.020   121158961.555    23055796.160    90475846.895  
G28  23716340.240   124630180.7192                                 
G30  22290527.720   117137453.992    22290529.480    87472772.926  
E 2  23625571.200   124153193.191    23625576.220    92711792.629  
E 3  23539800.480   123702457.406    23539806.380    92375204.676  
E 5  26796771.600   140817934.5472   26796779.140   105156236.6172 
E 8  22723285.880   119411662.270    22723290.200    89171041.203  
E25  24145734.040   126886657.668    24145740.060    94753016.074  
E30  26358218.940   138513329.1452   26358225.920   103435264.9452 
> 2021  1  5 21 50 51.0000000  0 16       0.000000000000
G 4  22285181.400   117109390.855    22285185.100    87451824.191  
G 5  24467885.300   128579570.0272                                 
G 7  21012048.840   110419062.047                                  
G 8  22563119.860   118569922.602    22563121.280    88542470.266  
G 9  20365187.680   107019738.316    20365188.680    79917339.727  
G14  23466378.240   123316609.0042                                 
G16  24344785.520   127932695.2812                                 
G27  23055810.240   121159041.551    23055811.400    90475906.637  
G28  23715687.100   124626748.3952                                 
G30  22290163.220   117135538.531    22290164.980    87471342.555  
E 2  23625374.940   124152161.828    23625379.960    92711022.457  
E 3  23539965.200   123703323.098    23539971.100    92375851.133  
E 5  26797284.120   140820627.8092   26797291.640   105158247.8162 
E 8  22722947.700   119409885.121    22722952.020    89169714.113  
E25  24146018.020   126888149.988    24146024.040    94754130.469  
E30  26357725.320   138510735.1252   26357732.280   103433327.8522 
> 2021  1  5 21 50 52.0000000  0 16       0.000000000000
G 4  22285675.620   117111987.992    22285679.320    87453763.613  
G 5  24467469.220   128577383.4652                                 
G 7  21011938.120   110418480.172                                  
G 8  22562756.720   118568014.375    22562758.160    88541045.297  
G 9  20365319.700   107020432.074    20365320.680    79917857.797  
G14  23465722.600   123313163.5552                                 
G16  24345492.640   127936411.2072                                 
G27  23055825.580   121159122.203    23055826.740    90475966.867  
G28  23715033.980   124623316.3052                                 
G30  22289798.740   117133623.223    22289800.500    87469912.293  
E 2  23625178.740   124151130.793    23625183.760    92710252.527  
E 3  23540130.020   123704189.176    23540135.920    92376497.883  
E 5  26797796.660   140823321.2272   26797804.200   105160259.1372 
E 8  22722609.560   119408108.227    22722613.900    89168387.211  
E25  24146302.060   126889642.539    24146308.060    94755245.035  
E30  26357231.720   138508141.2852   26357238.700   103431390.8952 
> 2021  1  5 21 50 53.0000000  0 16       0.000000000000
G 4  22286169.900   117114585.477    22286173.620    87455703.297  
G 5  24467053.220   128575197.3912                                 
G 7  21011827.420   110417898.480                                  
G 8  22562393.700   118566106.633    22562395.120    88539620.688  
G 9  20365451.800   107021126.355    20365452.800    79918376.258  
G14  23465066.980   123309718.3052                                 
G16  24346199.780   127940127.2732                                 
G27  23055841.060   121159203.535    23055842.220    90476027.605  
G28  23714380.920   124619884.4222                                 
G30  22289434.300   117131708.086    22289436.060    87468482.168  
E 2  23624982.600   124150100.109    23624987.620    92709482.859  
E 3  23540294.900   123705055.637    23540300.800    92377144.914  
E 5  26798309.220   140826014.8242   26798316.760   105162270.5862 
E 8  22722271.480   119406331.605    22722275.820    89167060.516  
E25  24146586.120   126891135.340    24146592.140    94756359.789  
E30  26356738.160   138505547.5902   26356745.120   103429454.0472 
> 2021  1  5 21 50 54.0000000  0 16       0.000000000000
G 4  22286664.260   117117183.305    22286667.960    87457643.234  
G 5  24466637.320   128573011.7972                                 
G 7  21011716.760   110417316.980                                  
G 8  22562030.760   118564199.359    22562032.180    88538196.430  
G 9  20365584.020   107021821.156    20365585.020    79918895.105  
G14  23464411.420   123306273.2932                                 
G16  24346906.960   127943843.4692                                 
G27  23055856.660   121159285.516    23055857.820    90476088.828  
G28  23713727.900   124616452.7622                                 
G30  22289069.900   117129793.113    22289071.660    87467052.156  
E 2  23624786.540   124149069.766    23624791.560    92708713.445  
E 3  23540459.860   123705922.477    23540465.760    92377792.230  
E 5  26798821.840   140828708.5862   26798829.380   105164282.1602 
E 8  22721933.440   119404555.234    22721937.780    89165734.004  
E25  24146870.240   126892628.383    24146876.260    94757474.727  
E30  26356244.620   138502954.0392   26356251.600   103427517.3052 
> 2021  1  5 21 50 55.0000000  0 16       0.000000000000
G 4  22287158.680   117119781.477    22287162.380    87459583.434  
G 5  24466221.500   128570826.6952                                 
G 7  21011606.140   110416735.660                                  
G 8  22561667.900   118562292.535    22561669.320    88536772.508  
G 9  20365716.340   107022516.484    20365717.340    79919414.348  
G14  23463755.880   123302828.4772                                 
G16  24347614.160   127947559.7972                                 
G27  23055872.380   121159368.172    23055873.540    90476150.555  
G28  23713074.920   124613021.3132                                 
G30  22288705.520   117127878.293    22288707.280    87465622.262  
E 2  23624590.540   124148039.758    23624595.560    92707944.285  
E 3  23540624.880   123706789.699    23540630.780    92378439.832  
E 5  26799334.480   140831402.5162   26799342.020   105166293.8592 
E 8  22721595.460   119402779.133    22721599.800    89164407.691  
E25  24147154.400   126894121.664    24147160.420    94758589.836  
E30  26355751.120   138500360.6562   26355758.080   103425580.6882 
> 2021  1  5 21 50 56.0000000  0 16       0.000000000000
G 4  22287653.160   117122380.008    22287656.860    87461523.898  
G 5  24465805.780   128568642.0902                                 
G 7  21011495.560   110416154.531                                  
G 8  22561305.120   118560386.191    22561306.560    88535348.941  
G 9  20365848.760   107023212.348    20365849.760    79919933.988  
G14  23463100.400   123299383.9102                                 
G16  24348321.380   127951276.2772                                 
G27  23055888.240   121159451.500    23055889.400    90476212.785  
G28  23712421.960   124609590.0592                                 
G30  22288341.180   117125963.641    22288342.940    87464192.496  
E 2  23624394.600   124147010.098    23624399.620    92707175.383  
E 3  23540789.980   123707657.305    23540795.880    92379087.715  
E 5  26799847.140   140834096.6132   26799854.680   105168305.6842 
E 8  22721257.540   119401003.285    22721261.860    89163081.574  
E25  24147438.620   126895615.195    24147444.620    94759705.137  
E30  26355257.640   138497767.4262   26355264.620   103423644.1842 
> 2021  1  5 21 50 57.0000000  0 16       0.000000000000
G 4  22288147.700   117124978.883    22288151.420    87463464.621  
G 5  24465390.160   128566457.9802                                 
G 7  21011385.000   110415573.598                                  
G 8  22560942.460   118558480.332    22560943.880    88533925.742  
G 9  20365981.280   107023908.734    20365982.280    79920454.020  
G14  23462444.960   123295939.5512                                 
G16  24349028.620   127954992.8872                                 
G27  23055904.220   121159535.477    23055905.380    90476275.500  
G28  23711769.060   124606159.0272                                 
G30  22287976.860   117124049.152    22287978.620    87462762.848  
E 2  23624198.720   124145980.785    23624203.740    92706406.742  
E 3  23540955.160   123708525.297    23540961.060    92379735.895  
E 5  26800359.840   140836790.8832   26800367.380   105170317.6372 
E 8  22720919.660   119399227.707    22720923.980    89161755.656  
E25  24147722.860   126897108.969    24147728.880    94760820.613  
E30  26354764.200   138495174.3672   26354771.160   103421707.8092 
> 2021  1  5 21 50 58.0000000  0 16       0.000000000000
G 4  22288642.320   117127578.094    22288646.020    87465405.594  
G 5  24464974.640   128564274.3552                                 
G 7  21011274.500   110414992.836                                  
G 8  22560579.880   118556574.938    22560581.300    88532502.887  
G 9  20366113.900   107024605.633    20366114.880    79920974.438  
G14  23461789.560   123292495.4062                                 
G16  24349735.900   127958709.6252                                 
G27  23055920.340   121159620.133    23055921.480    90476338.719  
G28  23711116.200   124602728.2072                                 
G30  22287612.580   117122134.816    22287614.320    87461333.316  
E 2  23624002.920   124144951.789    23624007.940    92705638.336  
E 3  23541120.400   123709393.656    23541126.300    92380384.344  
E 5  26800872.580   140839485.3052   26800880.120   105172329.7072 
E 8  22720581.820   119397452.379    22720586.140    89160429.926  
E25  24148007.160   126898602.965    24148013.180    94761936.262  
E30  26354270.780   138492581.4492   26354277.760   103419771.5392 
> 2021  1  5 21 50 59.0000000  0 16       0.000000000000
G 4  22289137.000   117130177.664    22289140.700    87467346.832  
G 5  24464559.200   128562091.2272                                 
G 7  21011164.020   110414412.270                                  
G 8  22560217.380   118554670.047    22560218.800    88531080.410  
G 9  20366246.620   107025303.066    20366247.600    79921495.250  
G14  23461134.220   123289051.5162                                 
G16  24350443.200   127962426.5042                                 
G27  23055936.560   121159705.445    23055937.720    90476402.434  
G28  23710463.380   124599297.6092                                 
G30  22287248.320   117120220.652    22287250.080    87459903.914  
E 2  23623807.180   124143923.156    23623812.200    92704870.203  
E 3  23541285.720   123710262.406    23541291.620    92381033.082  
E 5  26801385.340   140842179.9062   26801392.880   105174341.9062 
E 8  22720244.040   119395677.316    22720248.360    89159104.391  
E25  24148291.520   126900097.227    24148297.520    94763052.105  
E30  26353777.400   138489988.7032   26353784.360   103417835.3982 
> 2021  1  5 21 51  0.0000000  0 16       0.000000000000
G 4  22289631.760   117132777.582    22289635.460    87469288.332  
G 5  24464143.860   128559908.5822                                 
G 7  21011053.580   110413831.883                                  
G 8  22559854.980   118552765.629    22559856.400    88529658.281  
G 9  20366379.420   107026001.020    20366380.420    79922016.453  
G14  23460478.900   123285607.8052                                 
G16  24351150.520   127966143.5272                                 
G27  23055952.940   121159791.430    23055954.080    90476466.645  
G28  23709810.600   124595867.2112                                 
G30  22286884.100   117118306.660    22286885.860    87458474.637  
E 2  23623611.500   124142894.863    23623616.520    92704102.320  
E 3  23541451.100   123711131.543    23541457.000    92381682.117  
E 5  26801898.140   140844874.6762   26801905.680   105176354.2302 
E 8  22719906.300   119393902.520    22719910.640    89157779.055  
E25  24148575.900   126901591.719    24148581.920    94764168.121  
E30  26353284.040   138487396.1052   26353291.020   103415899.3672 
> 2021  1  5 21 51  1.0000000  0 16       0.000000000000
G 4  22290126.560   117135377.844    22290130.260    87471230.086  
G 5  24463728.600   128557726.4262                                 
G 7  21010943.160   110413251.691                                  
G 8  22559492.680   118550861.684    22559494.100    88528236.512  
G 9  20366512.340   107026699.504    20366513.340    79922538.051  
G14  23459823.620   123282164.3402                                 
G16  24351857.880   127969860.6842                                 
G27  23055969.420   121159878.063    23055970.560    90476531.344  
G28  23709157.860   124592437.0232                                 
G30  22286519.900   117116392.824    22286521.660    87457045.480  
E 2  23623415.880   124141866.898    23623420.900    92703334.684  
E 3  23541616.560   123712001.051    23541622.480    92382331.422  
E 5  26802410.980   140847569.6052   26802418.520   105178366.6762 
E 8  22719568.620   119392127.973    22719572.940    89156453.906  
E25  24148860.340   126903086.449    24148866.360    94765284.316  
E30  26352790.720   138484803.6602   26352797.680   103413963.4532 
> 2021  1  5 21 51  2.0000000  0 16       0.000000000000
G 4  22290621.440   117137978.441    22290625.140    87473172.098  
G 5  24463313.440   128555544.7732                                 
G 7  21010832.800   110412671.684                                  
G 8  22559130.460   118548958.207    22559131.880    88526815.086  
G 9  20366645.360   107027398.516    20366646.360    79923060.047  
G14  23459168.400   123278721.0982                                 
G16  24352565.260   127973577.9802                                 
G27  23055986.040   121159965.379    23055987.180    90476596.551  
G28  23708505.160   124589007.0702                                 
G30  22286155.740   117114479.160    22286157.500    87455616.449  
E 2  23623220.320   124140839.285    23623225.340    92702567.309  
E 3  23541782.100   123712870.949    23541788.000    92382981.020  
E 5  26802923.840   140850264.7072   26802931.380   105180379.2502 
E 8  22719230.980   119390353.699    22719235.320    89155128.965  
E25  24149144.840   126904581.430    24149150.840    94766400.699  
E30  26352297.440   138482211.3982   26352304.400   103412027.6722 
> 2021  1  5 21 51  3.0000000  0 16       0.000000000000
G 4  22291116.380   117140579.398    22291120.080    87475114.371  
G 5  24462898.380   128553363.5982                                 
G 7  21010722.460   110412091.859                                  
G 8  22558768.320   118547055.191    22558769.740    88525394.012  
G 9  20366778.480   107028098.051    20366779.460    79923582.430  
G14  23458513.220   123275278.0662                                 
G16  24353272.660   127977295.4062                                 
G27  23056002.780   121160053.355    23056003.920    90476662.254  
G28  23707852.500   124585577.3322                                 
G30  22285791.620   117112565.672    22285793.380    87454187.551  
E 2  23623024.840   124139812.016    23623029.860    92701800.195  
E 3  23541947.720   123713741.230    23541953.620    92383630.906  
E 5  26803436.740   140852959.9842   26803444.280   105182391.9572 
E 8  22718893.400   119388579.684    22718897.720    89153804.215  
E25  24149429.360   126906076.652    24149435.380    94767517.258  
E30  26351804.160   138479619.2542   26351811.120   103410091.9802 
> 2021  1  5 21 51  4.0000000  0 16       0.000000000000
G 4  22291611.400   117143180.703    22291615.100    87477056.906  
G 5  24462483.420   128551182.9262                                 
G 7  21010612.160   110411512.223                                  
G 8  22558406.280   118545152.652    22558407.700    88523973.289  
G 9  20366911.700   107028798.102    20366912.680    79924105.199  
G14  23457858.060   123271835.2662                                 
G16  24353980.080   127981012.9802                                 
G27  23056019.640   121160142.000    23056020.780    90476728.449  
G28  23707199.880   124582147.7892                                 
G30  22285427.520   117110652.336    22285429.280    87452758.766  
E 2  23622829.420   124138785.082    23622834.440    92701033.328  
E 3  23542113.400   123714611.887    23542119.300    92384281.074  
E 5  26803949.660   140855655.4222   26803957.200   105184404.7812 
E 8  22718555.860   119386805.926    22718560.200    89152479.652  
E25  24149713.940   126907572.113    24149719.960    94768634.000  
E30  26351310.920   138477027.2812   26351317.880   103408156.4182 
> 2021  1  5 21 51  5.0000000  0 16       0.000000000000
G 4  22292106.480   117145782.363    22292110.180    87478999.707  
G 5  24462068.540   128549002.7462                                 
G 7  21010501.880   110410932.766                                  
G 8  22558044.340   118543250.594    22558045.740    88522552.922  
G 9  20367045.020   107029498.684    20367046.000    79924628.363  
G14  23457202.960   123268392.6842                                 
G16  24354687.540   127984730.7072                                 
G27  23056036.640   121160231.301    23056037.780    90476795.141  
G28  23706547.300   124578718.4772                                 
G30  22285063.460   117108739.168    22285065.220    87451330.105  
E 2  23622634.080   124137758.488    23622639.100    92700266.719  
E 3  23542279.140   123715482.930    23542285.060    92384931.527  
E 5  26804462.620   140858351.0272   26804470.160   105186417.7342 
E 8  22718218.380   119385032.438    22718222.700    89151155.293  
E25  24149998.560   126909067.813    24150004.580    94769750.918  
E30  26350817.720   138474435.4692   26350824.680   103406220.9772 
> 2021  1  5 21 51  7.0000000  0 16       0.000000000000
G 4  22293096.840   117150986.695    22293100.540    87482886.063  
G 5  24461239.060   128544643.8522                                 
G 7  21010281.460   110409774.414                                  
G 8  22557320.700   118539447.887    22557322.120    88519713.242  
G 9  20367311.940   107030901.414    20367312.920    79925675.863  
G14  23455892.900   123261508.1912                                 
G16  24356102.540   127992166.5592                                 
G27  23056071.000   121160411.918    23056072.140    90476930.020  
G28  23705242.260   124571860.4692                                 
G30  22284335.440   117104913.328    22284337.180    87448473.152  
E 2  23622243.560   124135706.320    23622248.580    92698734.254  
E 3  23542610.880   123717226.152    23542616.780    92386233.285  
E 5  26805488.620   140863742.7342   26805496.160   105190444.0082 
E 8  22717543.560   119381486.227    22717547.880    89148507.152  
E25  24150567.940   126912059.953    24150573.960    94771985.309  
E30  26349831.400   138469252.3202   26349838.360   103402350.4452 
> 2021  1  5 21 51  8.0000000  0 16       0.000000000000
G 4  22293592.100   117153589.371    22293595.800    87484829.617  
G 5  24460824.480   128542465.1412                                 
G 7  21010171.300   110409195.527                                  
G 8  22556959.020   118537547.223    22556960.420    88518293.918  
G 9  20367445.560   107031603.574    20367446.540    79926200.203  
G14  23455237.920   123258066.2732                                 
G16  24356810.080   127995884.6722                                 
G27  23056088.380   121160503.211    23056089.520    90476998.195  
G28  23704589.800   124568431.7702                                 
G30  22283971.460   117103000.645    22283973.200    87447044.848  
E 2  23622048.400   124134680.746    23622053.420    92697968.402  
E 3  23542776.840   123718098.336    23542782.740    92386884.590  
E 5  26806001.680   140866438.8402   26806009.220   105192457.3322 
E 8  22717206.220   119379713.516    22717210.560    89147183.375  
E25  24150852.700   126913556.371    24150858.720    94773102.762  
E30  26349338.280   138466660.9572   26349345.240   103400415.3362 
> 2021  1  5 21 51  9.0000000  0 16       0.000000000000
G 4  22294087.440   117156192.410    22294091.140    87486773.445  
G 5  24460409.980   128540286.9262                                 
G 7  21010061.180   110408616.828                                  
G 8  22556597.420   118535647.043    22556598.840    88516874.953  
G 9  20367579.280   107032306.266    20367580.260    79926724.938  
G14  23454582.980   123254624.5782                                 
G16  24357517.640   127999602.9412                                 
G27  23056105.880   121160595.180    23056107.020    90477066.871  
G28  23703937.380   124565003.3132                                 
G30  22283607.520   117101088.148    22283609.260    87445616.688  
E 2  23621853.300   124133655.527    23621858.320    92697202.816  
E 3  23542942.880   123718970.902    23542948.800    92387536.180  
E 5  26806514.760   140869135.1092   26806522.300   105194470.7772 
E 8  22716868.940   119377941.074    22716873.260    89145859.797  
E25  24151137.520   126915053.043    24151143.520    94774220.406  
E30  26348845.200   138464069.7812   26348852.160   103398480.3672 
> 2021  1  5 21 51 10.0000000  0 16       0.000000000000
G 4  22294582.860   117158795.746    22294586.560    87488717.516  
G 5  24459995.520   128538109.4062                                 
G 7  21009951.100   110408038.207                                  
G 8  22556235.920   118533747.355    22556237.300    88515456.414  
G 9  20367713.100   107033009.430    20367714.080    79927250.055  
G14  23453928.060   123251183.1912                                 
G16  24358225.220   128003321.336                                  
G27  23056123.500   121160687.813    23056124.640    90477136.090  
G28  23703284.980   124561575.1992                                 
G30  22283243.620   117099175.754    22283245.360    87444188.625  
E 2  23621658.260   124132630.668    23621663.280    92696437.520  
E 3  23543109.000   123719843.855    23543114.900    92388188.063  
E 5  26807027.880   140871831.488    26807035.440   105196484.273  
E 8  22716531.700   119376168.848    22716536.040    89144536.363  
E25  24151422.360   126916549.984    24151428.360    94775338.277  
E30  26348352.100   138461478.8832   26348359.040   103396545.6882 
> 2021  1  5 21 51 11.0000000  0 16       0.000000000000
G 4  22295078.340   117161399.473    22295082.020    87490661.859  
G 5  24459581.200   128535932.1762                                 
G 7  21009841.040   110407459.875                                  
G 8  22555874.500   118531848.160    22555875.900    88514038.184  
G 9  20367847.020   107033713.168    20367848.000    79927775.574  
G14  23453273.220   123247741.9492                                 
G16  24358932.840   128007039.867                                  
G27  23056141.260   121160781.117    23056142.380    90477205.770  
G28  23702632.640   124558147.1602                                 
G30  22282879.740   117097263.590    22282881.480    87442760.711  
E 2  23621463.300   124131606.125    23621468.320    92695672.441  
E 3  23543275.200   123720717.195    23543281.100    92388840.230  
E 5  26807541.040   140874528.094    26807548.580   105198497.969  
E 8  22716194.520   119374396.930    22716198.860    89143213.180  
E25  24151707.260   126918047.145    24151713.260    94776456.285  
E30  26347859.080   138458888.0042   26347866.020   103394610.9412 
> 2021  1  5 21 51 12.0000000  0 16       0.000000000000
G 4  22295573.880   117164003.555    22295577.560    87492606.461  
G 5  24459166.980   128533755.4412                                 
G 7  21009731.040   110406881.734                                  
G 8  22555513.180   118529949.426    22555514.580    88512620.301  
G 9  20367981.020   107034417.430    20367982.000    79928301.484  
G14  23452618.400   123244300.9102                                 
G16  24359640.460   128010758.527                                  
G27  23056159.140   121160875.086    23056160.260    90477275.941  
G28  23701980.340   124554719.3362                                 
G30  22282515.900   117095351.570    22282517.640    87441332.906  
E 2  23621268.400   124130581.922    23621273.420    92694907.613  
E 3  23543441.460   123721590.906    23543447.360    92389492.676  
E 5  26808054.200   140877224.875    26808061.760   105200511.797  
E 8  22715857.380   119372625.266    22715861.720    89141890.184  
E25  24151992.200   126919544.539    24151998.200    94777574.469  
E30  26347366.080   138456297.3012   26347373.020   103392676.3242 
> 2021  1  5 21 51 13.0000000  0 16       0.000000000000
G 4  22296069.480   117166607.992    22296073.180    87494551.336  
G 5  24458752.860   128531579.2032                                 
G 7  21009621.040   110406303.785                                  
G 8  22555151.960   118528051.191    22555153.360    88511202.789  
G 9  20368115.140   107035122.219    20368116.120    79928827.785  
G14  23451963.640   123240860.1292                                 
G16  24360348.120   128014477.320                                  
G27  23056177.140   121160969.719    23056178.280    90477346.609  
G28  23701328.080   124551291.7342                                 
G30  22282152.080   117093439.723    22282153.820    87439905.227  
E 2  23621073.560   124129558.063    23621078.580    92694143.043  
E 3  23543607.780   123722465.016    23543613.700    92390145.418  
E 5  26808567.420   140879921.828    26808574.980   105202525.758  
E 8  22715520.300   119370853.871    22715524.620    89140567.391  
E25  24152277.180   126921042.184    24152283.200    94778692.840  
E30  26346873.120   138453706.7502   26346880.060   103390741.8242 
> 2021  1  5 21 51 14.0000000  0 16       0.000000000000
G 4  22296565.140   117169212.758    22296568.840    87496496.453  
G 5  24458338.820   128529403.4532                                 
G 7  21009511.100   110405726.027                                  
G 8  22554790.820   118526153.430    22554792.220    88509785.629  
G 9  20368249.360   107035827.520    20368250.340    79929354.473  
G14  23451308.920   123237419.5552                                 
G16  24361055.820   128018196.254                                  
G27  23056195.280   121161065.023    23056196.400    90477417.777  
G28  23700675.880   124547864.3632                                 
G30  22281788.300   117091528.051    22281790.040    87438477.680  
E 2  23620878.800   124128534.551    23620883.800    92693378.730  
E 3  23543774.200   123723339.500    23543780.100    92390798.445  
E 5  26809080.660   140882618.941    26809088.220   105204539.832  
E 8  22715183.260   119369082.746    22715187.580    89139244.797  
E25  24152562.220   126922540.059    24152568.220    94779811.383  
E30  26346380.180   138451116.3632   26346387.120   103388807.4452 
> 2021  1  5 21 51 15.0000000  0 16       0.000000000000
G 4  22297060.880   117171817.879    22297064.580    87498441.832  
G 5  24457924.880   128527228.1952                                 
G 7  21009401.200   110405148.449                                  
G 8  22554429.780   118524256.148    22554431.180    88508368.828  
G 9  20368383.660   107036533.355    20368384.640    79929881.559  
G14  23450654.240   123233979.1992                                 
G16  24361763.540   128021915.316                                  
G27  23056213.540   121161160.992    23056214.660    90477489.441  
G28  23700023.700   124544437.2032                                 
G30  22281424.540   117089616.543    22281426.280    87437050.258  
E 2  23620684.080   124127511.379    23620689.100    92692614.676  
E 3  23543940.680   123724214.363    23543946.580    92391451.754  
E 5  26809593.940   140885316.223    26809601.500   105206554.035  
E 8  22714846.260   119367311.875    22714850.600    89137922.395  
E25  24152847.300   126924038.184    24152853.320    94780930.113  
E30  26345887.260   138448526.1332   26345894.200   103386873.1842 
> 2021  1  5 21 51 16.0000000  0 16       0.000000000000
G 4  22297556.680   117174423.340    22297560.380    87500387.469  
G 5  24457511.040   128525053.4302                                 
G 7  21009291.320   110404571.051                                  
G 8  22554068.820   118522359.336    22554070.220    88506952.379  
G 9  20368518.080   107037239.707    20368519.060    79930409.027  
G14  23449999.600   123230539.0702                                 
G16  24362471.260   128025634.512                                  
G27  23056231.920   121161257.629    23056233.060    90477561.605  
G28  23699371.580   124541010.2422                                 
G30  22281060.820   117087705.191    22281062.560    87435622.949  
E 2  23620489.440   124126488.531    23620494.460    92691850.863  
E 3  23544107.220   123725089.613    23544113.120    92392105.348  
E 5  26810107.240   140888013.672    26810114.800   105208568.363  
E 8  22714509.320   119365541.262    22714513.660    89136600.180  
E25  24153132.440   126925536.559    24153138.440    94782049.027  
E30  26345394.380   138445936.0312   26345401.320   103384939.0202 
> 2021  1  5 21 51 17.0000000  0 16       0.000000000000
G 4  22298052.560   117177029.156    22298056.240    87502333.371  
G 5  24457097.280   128522879.1602                                 
G 7  21009181.480   110403993.859                                  
G 8  22553707.960   118520463.004    22553709.360    88505536.285  
G 9  20368652.600   107037946.602    20368653.580    79930936.902  
G14  23449345.020   123227099.1802                                 
G16  24363179.040   128029353.848                                  
G27  23056250.440   121161354.926    23056251.560    90477634.262  
G28  23698719.480   124537583.5002                                 
G30  22280697.140   117085794.004    22280698.880    87434195.762  
E 2  23620294.860   124125466.035    23620299.880    92691087.313  
E 3  23544273.860   123725965.234    23544279.760    92392759.223  
E 5  26810620.580   140890711.281    26810628.140   105210582.813  
E 8  22714172.440   119363770.910    22714176.780    89135278.168  
E25  24153417.600   126927035.152    24153423.620    94783168.109  
E30  26344901.540   138443346.1092   26344908.480   103383004.9882 
> 2021  1  5 21 51 19.0000000  0 16       0.000000000000
G 4  22299044.500   117182241.816    22299048.180    87506225.938  
G 5  24456270.060   128518532.0942                                 
G 7  21008961.900   110402840.000                                  
G 8  22552986.520   118516671.781    22552987.920    88502705.180  
G 9  20368921.920   107039361.949    20368922.900    79931993.816  
G14  23448035.960   123220220.0312                                 
G16  24364594.640   128036792.9102                                 
G27  23056287.840   121161551.516    23056288.980    90477781.066  
G28  23697415.440   124530730.6642                                 
G30  22279969.860   117081972.121    22279971.600    87431341.762  
E 2  23619905.920   124123422.063    23619910.920    92689560.973  
E 3  23544607.320   123727717.633    23544613.220    92394067.836  
E 5  26811647.360   140896106.992    26811654.900   105214612.078  
E 8  22713498.820   119360230.992    22713503.140    89132634.730  
E25  24153988.080   126930033.074    24153994.100    94785406.820  
E30  26343915.940   138438166.7302   26343922.880   103379137.2772 
> 2021  1  5 21 51 20.0000000  0 16       0.000000000000
G 4  22299540.560   117184848.668    22299544.260    87508172.613  
G 5  24455856.580   128516359.3012                                 
G 7  21008852.160   110402263.344                                  
G 8  22552625.940   118514776.891    22552627.320    88501290.164  
G 9  20369056.740   107040070.410    20369057.720    79932522.863  
G14  23447381.480   123216780.7932                                 
G16  24365302.480   128040512.6412                                 
G27  23056306.740   121161650.809    23056307.860    90477855.215  
G28  23696763.460   124527304.5782                                 
G30  22279606.260   117080061.434    22279608.000    87429914.949  
E 2  23619711.520   124122400.582    23619716.540    92688798.184  
E 3  23544774.160   123728594.395    23544780.060    92394722.563  
E 5  26812160.780   140898805.102    26812168.340   105216626.902  
E 8  22713162.080   119358461.426    22713166.400    89131313.305  
E25  24154273.400   126931532.391    24154279.400    94786526.445  
E30  26343423.180   138435577.2502   26343430.100   103377203.5782 
> 2021  1  5 21 51 21.0000000  0 16       0.000000000000
G 4  22300036.680   117187455.867    22300040.380    87510119.543  
G 5  24455443.200   128514187.0002                                 
G 7  21008742.460   110401686.883                                  
G 8  22552265.440   118512882.473    22552266.820    88499875.504  
G 9  20369191.660   107040779.402    20369192.640    79933052.305  
G14  23446727.060   123213341.7732                                 
G16  24366010.340   128044232.5122                                 
G27  23056325.760   121161750.773    23056326.880    90477929.863  
G28  23696111.540   124523878.6912                                 
G30  22279242.700   117078150.895    22279244.440    87428488.250  
E 2  23619517.220   124121379.438    23619522.220    92688035.645  
E 3  23544941.080   123729471.551    23544946.980    92395377.586  
E 5  26812674.260   140901503.379    26812681.800   105218641.852  
E 8  22712825.400   119356692.125    22712829.720    89129992.078  
E25  24154558.760   126933031.949    24154564.760    94787646.250  
E30  26342930.440   138432987.9532   26342937.380   103375270.0162 
> 2021  1  5 21 51 22.0000000  0 16       0.000000000000
G 4  22300532.880   117190063.410    22300536.580    87512066.734  
G 5  24455029.920   128512015.1992                                 
G 7  21008632.800   110401110.594                                  
G 8  22551905.020   118510988.520    22551906.420    88498461.188  
G 9  20369326.680   107041488.930    20369327.660    79933582.148  
G14  23446072.680   123209902.9922                                 
G16  24366718.240   128047952.5162                                 
G27  23056344.900   121161851.402    23056346.040    90478005.008  
G28  23695459.660   124520453.0312                                 
G30  22278879.160   117076240.543    22278880.900    87427061.688  
E 2  23619322.960   124120358.652    23619327.980    92687273.375  
E 3  23545108.080   123730349.086    23545113.980    92396032.895  
E 5  26813187.760   140904201.828    26813195.300   105220656.934  
E 8  22712488.760   119354923.090    22712493.080    89128671.051  
E25  24154844.160   126934531.758    24154850.160    94788766.238  
E30  26342437.760   138430398.8242   26342444.680   103373336.5782 
> 2021  1  5 21 51 23.0000000  0 16       0.000000000000
G 4  22301029.160   117192671.301    22301032.840    87514014.188  
G 5  24454616.740   128509843.8792                                 
G 7  21008523.180   110400534.500                                  
G 8  22551544.700   118509095.043    22551546.100    88497047.230  
G 9  20369461.780   107042198.961    20369462.760    79934112.363  
G14  23445418.340   123206464.4182                                 
G16  24367426.160   128051672.6372                                 
G27  23056364.180   121161952.695    23056365.300    90478080.652  
G28  23694807.820   124517027.5862                                 
G30  22278515.660   117074330.344    22278517.400    87425635.242  
E 2  23619128.780   124119338.188    23619133.780    92686511.344  
E 3  23545275.140   123731226.996    23545281.040    92396688.480  
E 5  26813701.280   140906900.430    26813708.840   105222672.125  
E 8  22712152.160   119353154.313    22712156.500    89127350.215  
E25  24155129.620   126936031.801    24155135.620    94789886.402  
E30  26341945.080   138427809.8402   26341952.020   103371403.2502 
> 2021  1  5 21 51 24.0000000  0 16       0.000000000000
G 4  22301525.480   117195279.539    22301529.180    87515961.895  
G 5  24454203.640   128507673.0552                                 
G 7  21008413.580   110399958.594                                  
G 8  22551184.480   118507202.055    22551185.880    88495633.637  
G 9  20369597.000   107042909.527    20369597.980    79934642.980  
G14  23444764.040   123203026.0702                                 
G16  24368134.100   128055392.9102                                 
G27  23056383.580   121162054.652    23056384.700    90478156.789  
G28  23694156.020   124513602.3522                                 
G30  22278152.200   117072420.309    22278153.940    87424208.918  
E 2  23618934.660   124118318.074    23618939.660    92685749.570  
E 3  23545442.260   123732105.301    23545448.160    92397344.352  
E 5  26814214.840   140909599.207    26814222.400   105224687.441  
E 8  22711815.620   119351385.793    22711819.960    89126029.566  
E25  24155415.100   126937532.086    24155421.100    94791006.746  
E30  26341452.440   138425220.9962   26341459.380   103369470.0232 
> 2021  1  5 21 51 25.0000000  0 16       0.000000000000
G 4  22302021.880   117197888.121    22302025.580    87517909.859  
G 5  24453790.640   128505502.7342                                 
G 7  21008304.020   110399382.867                                  
G 8  22550824.340   118505309.555    22550825.740    88494220.402  
G 9  20369732.320   107043620.613    20369733.300    79935173.988  
G14  23444109.780   123199587.9652                                 
G16  24368842.060   128059113.3052                                 
G27  23056403.100   121162157.273    23056404.240    90478233.418  
G28  23693504.240   124510177.3322                                 
G30  22277788.760   117070510.445    22277790.500    87422782.719  
E 2  23618740.600   124117298.309    23618745.600    92684988.059  
E 3  23545609.480   123732983.984    23545615.380    92398000.516  
E 5  26814728.440   140912298.145    26814735.980   105226702.883  
E 8  22711479.140   119349617.543    22711483.460    89124709.121  
E25  24155700.640   126939032.613    24155706.660    94792127.273  
E30  26340959.840   138422632.3402   26340966.760   103367536.9382 
> 2021  1  5 21 51 26.0000000  0 16       0.000000000000
G 4  22302518.340   117200497.047    22302522.040    87519858.082  
G 5  24453377.740   128503332.8912                                 
G 7  21008194.500   110398807.309                                  
G 8  22550464.300   118503417.516    22550465.700    88492807.516  
G 9  20369867.720   107044332.223    20369868.700    79935705.383  
G14  23443455.580   123196150.0592                                 
G16  24369550.060   128062833.8282                                 
G27  23056422.760   121162260.559    23056423.900    90478310.543  
G28  23692852.520   124506752.5232                                 
G30  22277425.360   117068600.734    22277427.080    87421356.637  
E 2  23618546.600   124116278.879    23618551.620    92684226.797  
E 3  23545776.760   123733863.043    23545782.660    92398656.953  
E 5  26815242.060   140914997.258    26815249.620   105228718.449  
E 8  22711142.700   119347849.551    22711147.040    89123388.867  
E25  24155986.240   126940533.379    24155992.240    94793247.973  
E30  26340467.260   138420043.8132   26340474.180   103365603.9492 
> 2021  1  5 21 51 27.0000000  0 16       0.000000000000
G 4  22303014.860   117203106.320    22303018.560    87521806.563  
G 5  24452964.920   128501163.5432                                 
G 7  21008085.000   110398231.957                                  
G 8  22550104.340   118501525.961    22550105.740    88491394.992  
G 9  20370003.240   107045044.363    20370004.220    79936237.176  
G14  23442801.400   123192712.3872                                 
G16  24370258.080   128066554.4842                                 
G27  23056442.540   121162364.516    23056443.680    90478388.176  
G28  23692200.860   124503327.9302                                 
G30  22277061.980   117066691.188    22277063.720    87419930.676  
E 2  23618352.680   124115259.785    23618357.680    92683465.785  
E 3  23545944.100   123734742.496    23545950.000    92399313.688  
E 5  26815755.720   140917696.535    26815763.260   105230734.145  
E 8  22710806.320   119346081.832    22710810.640    89122068.816  
E25  24156271.860   126942034.395    24156277.880    94794368.859  
E30  26339974.720   138417455.4922   26339981.640   103363671.1092 
> 2021  1  5 21 51 28.0000000  0 16       0.000000000000
G 4  22303511.460   117205715.938    22303515.160    87523755.301  
G 5  24452552.200   128498994.6912                                 
G 7  21007975.560   110397656.785                                  
G 8  22549744.480   118499634.863    22549745.880    88489982.809  
G 9  20370138.860   107045757.020    20370139.840    79936769.352  
G14  23442147.280   123189274.9342                                 
G16  24370966.120   128070275.2812                                 
G27  23056462.440   121162469.129    23056463.580    90478466.297  
G28  23691549.220   124499903.5662                                 
G30  22276698.640   117064781.813    22276700.380    87418504.844  
E 2  23618158.820   124114241.035    23618163.820    92682705.031  
E 3  23546111.540   123735622.313    23546117.440    92399970.691  
E 5  26816269.400   140920395.977    26816276.960   105232749.957  
E 8  22710469.980   119344314.363    22710474.300    89120748.953  
E25  24156557.540   126943535.637    24156563.540    94795489.918  
E30  26339482.200   138414867.2852   26339489.120   103361738.3592 
> 2021  1  5 21 51 29.0000000  0 16       0.000000000000
G 4  22304008.120   117208325.906    22304011.820    87525704.305  
G 5  24452139.580   128496826.3322                                 
G 7  21007866.140   110397081.797                                  
G 8  22549384.720   118497744.270    22549386.120    88488571.004  
G 9  20370274.580   107046470.207    20370275.560    79937301.930  
G14  23441493.200   123185837.7032                                 
G16  24371674.180   128073996.2032                                 
G27  23056482.480   121162574.422    23056483.620    90478544.922  
G28  23690897.620   124496479.4062                                 
G30  22276335.320   117062872.594    22276337.060    87417079.129  
E 2  23617965.020   124113222.625    23617970.040    92681944.527  
E 3  23546279.040   123736502.527    23546284.940    92400627.996  
E 5  26816783.120   140923095.590    26816790.680   105234765.902  
E 8  22710133.700   119342547.168    22710138.020    89119429.297  
E25  24156843.260   126945037.133    24156849.280    94796611.164  
E30  26338989.700   138412279.2382   26338996.640   103359805.7272 
> 2021  1  5 21 51 30.0000000  0 16       0.000000000000
G 4  22304504.840   117210936.207    22304508.540    87527653.555  
G 5  24451727.040   128494658.4612                                 
G 7  21007756.760   110396506.988                                  
G 8  22549025.040   118495854.152    22549026.440    88487159.555  
G 9  20370410.380   107047183.910    20370411.360    79937834.891  
G14  23440839.160   123182400.6952                                 
G16  24372382.280   128077717.2662                                 
G27  23056502.640   121162680.367    23056503.780    90478624.039  
G28  23690246.060   124493055.4532                                 
G30  22275972.040   117060963.543    22275973.780    87415653.543  
E 2  23617771.280   124112204.559    23617776.300    92681184.285  
E 3  23546446.600   123737383.105    23546452.500    92401285.570  
E 5  26817296.880   140925795.359    26817304.420   105236781.961  
E 8  22709797.460   119340780.227    22709801.780    89118109.828  
E25  24157129.040   126946538.852    24157135.040    94797732.578  
E30  26338497.240   138409691.3552   26338504.180   103357873.2192 
> 2021  1  5 21 51 31.0000000  0 16       0.000000000000
G 4  22305001.640   117213546.867    22305005.340    87529603.074  
G 5  24451314.600   128492491.0862                                 
G 7  21007647.420   110395932.391                                  
G 8  22548665.440   118493964.500    22548666.840    88485748.449  
G 9  20370546.300   107047898.145    20370547.280    79938368.246  
G14  23440185.160   123178963.9182                                 
G16  24373090.400   128081438.4652                                 
G27  23056522.940   121162786.977    23056524.060    90478703.648  
G28  23689594.540   124489631.7232                                 
G30  22275608.800   117059054.660    22275610.520    87414228.078  
E 2  23617577.620   124111186.828    23617582.640    92680424.293  
E 3  23546614.240   123738264.078    23546620.140    92401943.441  
E 5  26817810.660   140928495.305    26817818.220   105238798.156  
E 8  22709461.280   119339013.563    22709465.600    89116790.566  
E25  24157414.860   126948040.820    24157420.860    94798854.180  
E30  26338004.820   138407103.6292   26338011.740   103355940.8242 
> 2021  1  5 21 51 32.0000000  0 16       0.000000000000
G 4  22305498.500   117216157.863    22305502.200    87531552.840  
G 5  24450902.260   128490324.2072                                 
G 7  21007538.100   110395357.969                                  
G 8  22548305.960   118492075.340    22548307.340    88484337.715  
G 9  20370682.320   107048612.910    20370683.300    79938902.000  
G14  23439531.200   123175527.3592                                 
G16  24373798.540   128085159.7932                                 
G27  23056543.340   121162894.258    23056544.480    90478783.762  
G28  23688943.080   124486208.2272                                 
G30  22275245.580   117057145.938    22275247.320    87412802.734  
E 2  23617384.020   124110169.445    23617389.020    92679664.559  
E 3  23546781.960   123739145.441    23546787.860    92402601.602  
E 5  26818324.480   140931195.414    26818332.020   105240814.469  
E 8  22709125.140   119337247.152    22709129.460    89115471.492  
E25  24157700.720   126949543.031    24157706.720    94799975.957  
E30  26337512.420   138404516.0552   26337519.360   103354008.5472 
> 2021  1  5 21 51 33.0000000  0 16       0.000000000000
G 4  22305995.420   117218769.215    22305999.120    87533502.875  
G 5  24450490.000   128488157.8092                                 
G 7  21007428.840   110394783.727                                  
G 8  22547946.540   118490186.656    22547947.940    88482927.332  
G 9  20370818.420   107049328.191    20370819.400    79939436.137  
G14  23438877.280   123172091.0232                                 
G16  24374506.720   128088881.2582                                 
G27  23056563.900   121163002.211    23056565.020    90478864.375  
G28  23688291.640   124482784.9102                                 
G30  22274882.380   117055237.387    22274884.120    87411377.516  
E 2  23617190.480   124109152.402    23617195.500    92678905.078  
E 3  23546949.760   123740027.176    23546955.660    92403260.039  
E 5  26818838.320   140933895.684    26818845.880   105242830.902  
E 8  22708789.040   119335480.996    22708793.380    89114152.609  
E25  24157986.620   126951045.480    24157992.620    94801097.918  
E30  26337020.060   138401928.6452   26337026.980   103352076.3912 
> 2021  1  5 21 51 34.0000000  0 16       0.000000000000
G 4  22306492.400   117221380.906    22306496.100    87535453.164  
G 5  24450077.840   128485991.9142                                 
G 7  21007319.600   110394209.664                                  
G 8  22547587.240   118488298.457    22547588.620    88481517.316  
G 9  20370954.640   107050044.012    20370955.620    79939970.676  
G14  23438223.420   123168654.9342                                 
G16  24375214.920   128092602.8362                                 
G27  23056584.560   121163110.820    23056585.680    90478945.480  
G28  23687640.260   124479361.8522                                 
G30  22274519.240   117053329.000    22274520.980    87409952.426  
E 2  23616997.020   124108135.695    23617002.020    92678145.848  
E 3  23547117.620   123740909.289    23547123.520    92403918.762  
E 5  26819352.200   140936596.125    26819359.740   105244847.461  
E 8  22708453.000   119333715.117    22708457.340    89112833.934  
E25  24158272.580   126952548.164    24158278.580    94802220.051  
E30  26336527.720   138399341.3832   26336534.640   103350144.3482 
> 2021  1  5 21 51 35.0000000  0 16       0.000000000000
G 4  22306989.460   117223992.945    22306993.160    87537403.711  
G 5  24449665.780   128483826.4922                                 
G 7  21007210.380   110393635.793                                  
G 8  22547228.020   118486410.742    22547229.400    88480107.660  
G 9  20371090.960   107050760.355    20371091.940    79940505.609  
G14  23437569.580   123165219.0272                                 
G16  24375923.140   128096324.5632                                 
G27  23056605.360   121163220.094    23056606.480    90479027.082  
G28  23686988.900   124475938.9922                                 
G30  22274156.100   117051420.766    22274157.840    87408527.445  
E 2  23616803.600   124107119.332    23616808.620    92677386.879  
E 3  23547285.540   123741791.789    23547291.440    92404577.770  
E 5  26819866.100   140939296.734    26819873.660   105246864.148  
E 8  22708117.020   119331949.488    22708121.340    89111515.445  
E25  24158558.560   126954051.090    24158564.580    94803342.367  
E30  26336035.400   138396754.2972   26336042.340   103348212.4302 
> 2021  1  5 21 51 36.0000000  0 16       0.000000000000
G 4  22307486.580   117226605.332    22307490.280    87539354.520  
G 5  24449253.800   128481661.5742                                 
G 7  21007101.220   110393062.117                                  
G 8  22546868.880   118484523.512    22546870.280    88478698.363  
G 9  20371227.380   107051477.230    20371228.360    79941040.938  
G14  23436915.800   123161783.3712                                 
G16  24376631.380   128100046.4382                                 
G27  23056626.280   121163330.039    23056627.400    90479109.184  
G28  23686337.600   124472516.3552                                 
G30  22273793.020   117049512.719    22273794.760    87407102.605  
E 2  23616610.260   124106103.316    23616615.260    92676628.164  
E 3  23547453.560   123742674.672    23547459.460    92405237.066  
E 5  26820380.040   140941997.500    26820387.600   105248880.957  
E 8  22707781.080   119330184.133    22707785.420    89110197.160  
E25  24158844.620   126955554.270    24158850.620    94804464.867  
E30  26335543.120   138394167.3672   26335550.060   103346280.6332 
> 2021  1  5 21 51 37.0000000  0 16       0.000000000000
G 4  22307983.780   117229218.063    22307987.480    87541305.582  
G 5  24448841.940   128479497.1482                                 
G 7  21006992.080   110392488.613                                  
G 8  22546509.840   118482636.750    22546511.240    88477289.422  
G 9  20371363.900   107052194.621    20371364.880    79941576.652  
G14  23436262.060   123158347.9262                                 
G16  24377339.660   128103768.4342                                 
G27  23056647.320   121163440.656    23056648.460    90479191.789  
G28  23685686.340   124469093.9302                                 
G30  22273429.960   117047604.816    22273431.700    87405677.875  
E 2  23616416.980   124105087.633    23616422.000    92675869.699  
E 3  23547621.640   123743557.938    23547627.540    92405896.645  
E 5  26820894.020   140944698.441    26820901.580   105250897.891  
E 8  22707445.200   119328419.039    22707449.520    89108879.074  
E25  24159130.700   126957057.680    24159136.700    94805587.547  
E30  26335050.880   138391580.5902   26335057.820   103344348.9492 
> 2021  1  5 21 51 38.0000000  0 16       0.000000000000
G 4  22308481.020   117231831.133    22308484.720    87543256.902  
G 5  24448430.160   128477333.2232                                 
G 7  21006883.000   110391915.313                                  
G 8  22546150.900   118480750.473    22546152.300    88475880.840  
G 9  20371500.500   107052912.531    20371501.480    79942112.754  
G14  23435608.360   123154912.7272                                 
G16  24378047.940   128107490.5392                                 
G27  23056668.500   121163551.922    23056669.620    90479274.875  
G28  23685035.100   124465671.7662                                 
G30  22273066.940   117045697.094    22273068.660    87404253.273  
E 2  23616223.780   124104072.297    23616228.780    92675111.492  
E 3  23547789.780   123744441.582    23547795.680    92406556.508  
E 5  26821408.020   140947399.547    26821415.580   105252914.945  
E 8  22707109.360   119326654.211    22707113.680    89107561.180  
E25  24159416.840   126958561.332    24159422.840    94806710.402  
E30  26334558.660   138388993.9842   26334565.600   103342417.3952 
> 2021  1  5 21 51 39.0000000  0 16       0.000000000000
G 4  22308978.340   117234444.563    22308982.040    87545208.484  
G 5  24448018.460   128475169.7892                                 
G 7  21006773.920   110391342.184                                  
G 8  22545792.040   118478864.684    22545793.440    88474472.621  
G 9  20371637.220   107053630.980    20371638.200    79942649.258  
G14  23434954.700   123151477.7422                                 
G16  24378756.280   128111212.8132                                 
G27  23056689.800   121163663.871    23056690.940    90479358.473  
G28  23684383.920   124462249.7732                                 
G30  22272703.940   117043789.531    22272705.660    87402828.797  
E 2  23616030.620   124103057.289    23616035.620    92674353.535  
E 3  23547958.000   123745325.609    23547963.900    92407216.660  
E 5  26821922.060   140950100.813    26821929.620   105254932.125  
E 8  22706773.580   119324889.637    22706777.900    89106243.480  
E25  24159703.020   126960065.219    24159709.020    94807833.434  
E30  26334066.480   138386407.5202   26334073.400   103340485.9452 
> 2021  1  5 21 51 40.0000000  0 16       0.000000000000
G 4  22309475.720   117237058.332    22309479.420    87547160.328  
G 5  24447606.860   128473006.8552                                 
G 7  21006664.900   110390769.238                                  
G 8  22545433.280   118476979.383    22545434.680    88473064.770  
G 9  20371774.040   107054349.938    20371775.020    79943186.141  
G14  23434301.080   123148042.9922                                 
G16  24379464.620   128114935.2112                                 
G27  23056711.240   121163776.492    23056712.360    90479442.574  
G28  23683732.780   124458827.9962                                 
G30  22272340.960   117041882.133    22272342.700    87401404.441  
E 2  23615837.540   124102042.645    23615842.540    92673595.844  
E 3  23548126.300   123746210.027    23548132.200    92407877.102  
E 5  26822436.120   140952802.246    26822443.680   105256949.430  
E 8  22706437.840   119323125.336    22706442.160    89104925.984  
E25  24159989.240   126961569.355    24159995.260    94808956.652  
E30  26333574.320   138383821.2192   26333581.240   103338554.6172 
> 2021  1  5 21 51 41.0000000  0 16       0.000000000000
G 4  22309973.180   117239672.441    22309976.880    87549112.422  
G 5  24447195.360   128470844.4142                                 
G 7  21006555.900   110390196.477                                  
G 8  22545074.620   118475094.547    22545076.000    88471657.262  
G 9  20371910.940   107055069.426    20371911.920    79943723.422  
G14  23433647.520   123144608.4452                                 
G16  24380173.000   128118657.7342                                 
G27  23056732.780   121163889.762    23056733.920    90479527.160  
G28  23683081.680   124455406.4382                                 
G30  22271978.040   117039974.895    22271979.760    87399980.207  
E 2  23615644.520   124101028.328    23615649.540    92672838.398  
E 3  23548294.680   123747094.816    23548300.580    92408537.820  
E 5  26822950.220   140955503.855    26822957.780   105258966.859  
E 8  22706102.160   119321361.297    22706106.480    89103608.680  
E25  24160275.520   126963073.723    24160281.520    94810080.043  
E30  26333082.180   138381235.0632   26333089.120   103336623.3982 
> 2021  1  5 21 51 42.0000000  0 16       0.000000000000
G 4  22310470.700   117242286.902    22310474.400    87551064.777  
G 5  24446783.960   128468682.4692                                 
G 7  21006446.940   110389623.898                                  
G 8  22544716.020   118473210.172    22544717.420    88470250.098  
G 9  20372047.960   107055789.449    20372048.940    79944261.102  
G14  23432993.980   123141174.1252                                 
G16  24380881.400   128122380.3912                                 
G27  23056754.460   121164003.688    23056755.600    90479612.234  
G28  23682430.620   124451985.0862                                 
G30  22271615.120   117038067.824    22271616.860    87398556.094  
E 2  23615451.560   124100014.336    23615456.580    92672081.199  
E 3  23548463.120   123747979.988    23548469.020    92409198.824  
E 5  26823464.360   140958205.621    26823471.900   105260984.414  
E 8  22705766.520   119319597.516    22705770.840    89102291.574  
E25  24160561.840   126964578.332    24160567.840    94811203.613  
E30  26332590.100   138378649.0742   26332597.020   103334692.3052 
> 2021  1  5 21 51 43.0000000  0 16       0.000000000000
G 4  22310968.280   117244901.707    22310971.980    87553017.391  
G 5  24446372.660   128466521.0232                                 
G 7  21006338.020   110389051.516                                  
G 8  22544357.540   118471326.273    22544358.920    88468843.293  
G 9  20372185.080   107056509.988    20372186.060    79944799.168  
G14  23432340.500   123137740.0432                                 
G16  24381589.820   128126103.1882                                 
G27  23056776.280   121164118.305    23056777.400    90479697.824  
G28  23681779.600   124448563.9572                                 
G30  22271252.260   117036160.922    22271253.980    87397132.109  
E 2  23615258.680   124099000.703    23615263.680    92671324.266  
E 3  23548631.640   123748865.547    23548637.540    92409860.121  
E 5  26823978.520   140960907.555    26823986.080   105263002.090  
E 8  22705430.940   119317834.000    22705435.260    89100974.664  
E25  24160848.200   126966083.180    24160854.200    94812327.363  
E30  26332098.020   138376063.2462   26332104.960   103332761.3282 
> 2021  1  5 21 51 44.0000000  0 16       0.000000000000
G 4  22311465.920   117247516.852    22311469.620    87554970.258  
G 5  24445961.440   128464360.0702                                 
G 7  21006229.140   110388479.316                                  
G 8  22543999.120   118469442.863    22544000.520    88467436.852  
G 9  20372322.300   107057231.066    20372323.280    79945337.633  
G14  23431687.060   123134306.1842                                 
G16  24382298.260   128129826.1052                                 
G27  23056798.220   121164233.578    23056799.340    90479783.906  
G28  23681128.620   124445143.0552                                 
G30  22270889.420   117034254.180    22270891.140    87395708.246  
E 2  23615065.860   124097987.406    23615070.860    92670567.582  
E 3  23548800.220   123749751.480    23548806.120    92410521.691  
E 5  26824492.700   140963609.656    26824500.260   105265019.891  
E 8  22705095.400   119316070.746    22705099.720    89099657.945  
E25  24161134.620   126967588.266    24161140.620    94813451.293  
E30  26331605.980   138373477.5592   26331612.920   103330830.4572 
> 2021  1  5 21 51 45.0000000  0 16       0.000000000000
G 4  22311963.640   117250132.352    22311967.340    87556923.391  
G 5  24445550.320   128462199.5982                                 
G 7  21006120.300   110387907.301                                  
G 8  22543640.820   118467559.961    22543642.220    88466030.789  
G 9  20372459.600   107057952.648    20372460.580    79945876.477  
G14  23431033.660   123130872.5472                                 
G16  24383006.740   128133549.1602                                 
G27  23056820.280   121164349.516    23056821.400    90479870.480  
G28  23680477.680   124441722.3712                                 
G30  22270526.600   117032347.602    22270528.340    87394284.500  
E 2  23614873.100   124096974.453    23614878.100    92669811.156  
E 3  23548968.880   123750637.801    23548974.780    92411183.555  
E 5  26825006.940   140966311.922    26825014.500   105267037.813  
E 8  22704759.920   119314307.766    22704764.240    89098341.434  
E25  24161421.060   126969093.594    24161427.060    94814575.398  
E30  26331113.980   138370892.0472   26331120.900   103328899.7192 
> 2021  1  5 21 51 46.0000000  0 16       0.000000000000
G 4  22312461.420   117252748.184    22312465.120    87558876.770  
G 5  24445139.280   128460039.6292                                 
G 7  21006011.480   110387335.461                                  
G 8  22543282.600   118465677.523    22543284.000    88464625.070  
G 9  20372597.020   107058674.773    20372598.000    79946415.727  
G14  23430380.300   123127439.1452                                 
G16  24383715.240   128137272.3442                                 
G27  23056842.460   121164466.113    23056843.600    90479957.551  
G28  23679826.800   124438301.8982                                 
G30  22270163.820   117030441.191    22270165.560    87392860.883  
E 2  23614680.400   124095961.832    23614685.400    92669054.980  
E 3  23549137.620   123751524.504    23549143.520    92411845.703  
E 5  26825521.180   140969014.348    26825528.740   105269055.859  
E 8  22704424.480   119312545.035    22704428.800    89097025.113  
E25  24161707.560   126970599.156    24161713.560    94815699.684  
E30  26330622.000   138368306.6952   26330628.920   103326969.1022 
> 2021  1  5 21 51 47.0000000  0 16       0.000000000000
G 4  22312959.260   117255364.383    22312962.960    87560830.426  
G 5  24444728.340   128457880.1482                                 
G 7  21005902.700   110386763.824                                  
G 8  22542924.480   118463795.574    22542925.880    88463219.719  
G 9  20372734.540   107059397.426    20372735.520    79946955.367  
G14  23429726.980   123124005.9342                                 
G16  24384423.760   128140995.6682                                 
G27  23056864.780   121164583.379    23056865.900    90480045.121  
G28  23679175.940   124434881.6412                                 
G30  22269801.080   117028534.945    22269802.820    87391437.391  
E 2  23614487.780   124094949.566    23614492.780    92668299.066  
E 3  23549306.420   123752411.582    23549312.320    92412508.133  
E 5  26826035.480   140971716.957    26826043.040   105271074.039  
E 8  22704089.100   119310782.582    22704093.420    89095708.992  
E25  24161994.120   126972104.969    24162000.120    94816824.152  
E30  26330130.060   138365721.4882   26330136.980   103325038.5902 
> 2021  1  5 21 51 48.0000000  0 16       0.000000000000
G 4  22313457.160   117257980.910    22313460.860    87562784.324  
G 5  24444317.500   128455721.1642                                 
G 7  21005793.940   110386192.363                                  
G 8  22542566.460   118461914.098    22542567.840    88461814.723  
G 9  20372872.160   107060120.590    20372873.140    79947495.395  
G14  23429073.720   123120572.9922                                 
G16  24385132.320   128144719.1252                                 
G27  23056887.220   121164701.332    23056888.360    90480133.203  
G28  23678525.120   124431461.5862                                 
G30  22269438.360   117026628.855    22269440.100    87390014.012  
E 2  23614295.200   124093937.633    23614300.220    92667543.402  
E 3  23549475.300   123753299.055    23549481.200    92413170.855  
E 5  26826549.800   140974419.719    26826557.360   105273092.336  
E 8  22703753.760   119309020.379    22703758.080    89094393.063  
E25  24162280.700   126973611.012    24162286.700    94817948.797  
E30  26329638.140   138363136.4452   26329645.060   103323108.1992 
> 2021  1  5 21 51 50.0000000  0 16       0.000000000000
G 4  22314453.180   117263215.012    22314456.880    87566692.906  
G 5  24443496.100   128451404.6842                                 
G 7  21005576.560   110385050.020                                  
G 8  22541850.660   118458152.621    22541852.060    88459005.828  
G 9  20373147.680   107061568.516    20373148.660    79948576.637  
G14  23427767.300   123113707.7342                                 
G16  24386549.500   128152166.4452                                 
G27  23056932.480   121164939.207    23056933.620    90480310.840  
G28  23677223.620   124424622.1912                                 
G30  22268713.020   117022817.195    22268714.760    87387167.645  
E 2  23613910.280   124091914.805    23613915.280    92666032.852  
E 3  23549813.280   123755075.133    23549819.180    92414497.148  
E 5  26827578.540   140979825.750    26827586.100   105277129.305  
E 8  22703083.240   119305496.793    22703087.560    89091761.816  
E25  24162854.020   126976623.832    24162860.020    94820198.629  
E30  26328654.400   138357966.8442   26328661.320   103319247.7852 
> 2021  1  5 21 51 51.0000000  0 16       0.000000000000
G 4  22314951.300   117265832.586    22314955.000    87568647.586  
G 5  24443085.540   128449247.1762                                 
G 7  21005467.920   110384479.121                                  
G 8  22541492.900   118456272.602    22541494.300    88457601.922  
G 9  20373285.600   107062293.270    20373286.580    79949117.848  
G14  23427114.160   123110275.4492                                 
G16  24387258.120   128155890.2892                                 
G27  23056955.320   121165059.148    23056956.440    90480400.402  
G28  23676572.940   124421202.8012                                 
G30  22268350.400   117020911.605    22268352.140    87385744.641  
E 2  23613717.900   124090903.895    23613722.920    92665277.949  
E 3  23549982.380   123755963.754    23549988.280    92415160.727  
E 5  26828092.940   140982529.008    26828100.500   105279147.969  
E 8  22702748.060   119303735.379    22702752.380    89090446.473  
E25  24163140.740   126978130.594    24163146.760    94821323.805  
E30  26328162.560   138355382.2812   26328169.500   103317317.7582 
> 2021  1  5 21 51 52.0000000  0 16       0.000000000000
G 4  22315449.460   117268450.504    22315453.160    87570602.523  
G 5  24442675.080   128447090.1682                                 
G 7  21005359.320   110383908.402                                  
G 8  22541135.240   118454393.043    22541136.620    88456198.352  
G 9  20373423.620   107063018.539    20373424.600    79949659.449  
G14  23426461.060   123106843.4022                                 
G16  24387966.760   128159614.2662                                 
G27  23056978.260   121165179.750    23056979.400    90480490.465  
G28  23675922.300   124417783.6372                                 
G30  22267987.820   117019006.191    22267989.540    87384321.766  
E 2  23613525.600   124089893.328    23613530.600    92664523.305  
E 3  23550151.560   123756852.742    23550157.460    92415824.582  
E 5  26828607.400   140985232.438    26828614.960   105281166.762  
E 8  22702412.920   119301974.246    22702417.240    89089131.344  
E25  24163427.520   126979637.602    24163433.520    94822449.172  
E30  26327670.760   138352797.8712   26327677.700   103315387.8402 
> 2021  1  5 21 51 53.0000000  0 16       0.000000000000
G 4  22315947.700   117271068.766    22315951.400    87572557.715  
G 5  24442264.700   128444933.6562                                 
G 7  21005250.760   110383337.875                                  
G 8  22540777.660   118452513.969    22540779.060    88454795.152  
G 9  20373561.740   107063744.340    20373562.720    79950201.441  
G14  23425808.000   123103411.5592                                 
G16  24388675.440   128163338.3712                                 
G27  23057001.340   121165301.020    23057002.460    90480581.020  
G28  23675271.680   124414364.6842                                 
G30  22267625.260   117017100.930    22267626.980    87382899.004  
E 2  23613333.360   124088883.102    23613338.360    92663768.918  
E 3  23550320.800   123757742.121    23550326.700    92416488.727  
E 5  26829121.880   140987936.031    26829129.440   105283185.680  
E 8  22702077.840   119300213.375    22702082.160    89087816.406  
E25  24163714.340   126981144.844    24163720.340    94823574.707  
E30  26327179.000   138350213.6292   26327185.920   103313458.0512 
> 2021  1  5 21 51 54.0000000  0 16       0.000000000000
G 4  22316446.000   117273687.367    22316449.720    87574513.164  
G 5  24441854.440   128442777.6372                                 
G 7  21005142.220   110382767.531                                  
G 8  22540420.180   118450635.383    22540421.560    88453392.313  
G 9  20373699.940   107064470.664    20373700.920    79950743.824  
G14  23425154.980   123099979.9412                                 
G16  24389384.140   128167062.5982                                 
G27  23057024.540   121165422.953    23057025.680    90480672.078  
G28  23674621.120   124410945.9412                                 
G30  22267262.720   117015195.828    22267264.460    87381476.363  
E 2  23613141.180   124087873.211    23613146.200    92663014.777  
E 3  23550490.120   123758631.883    23550496.020    92417153.156  
E 5  26829636.380   140990639.793    26829643.940   105285204.719  
E 8  22701742.800   119298452.762    22701747.120    89086501.664  
E25  24164001.200   126982652.324    24164007.220    94824700.426  
E30  26326687.260   138347629.5232   26326694.180   103311528.3592 
> 2021  1  5 21 51 55.0000000  0 16       0.000000000000
G 4  22316944.380   117276306.320    22316948.080    87576468.879  
G 5  24441444.240   128440622.1132                                 
G 7  21005033.720   110382197.379                                  
G 8  22540062.780   118448757.285    22540064.180    88451989.836  
G 9  20373838.260   107065197.527    20373839.240    79951286.613  
G14  23424502.020   123096548.5632                                 
G16  24390092.860   128170786.9692                                 
G27  23057047.880   121165545.559    23057049.000    90480763.633  
G28  23673970.600   124407527.4302                                 
G30  22266900.240   117013290.910    22266901.960    87380053.863  
E 2  23612949.080   124086863.672    23612954.080    92662260.902  
E 3  23550659.500   123759522.023    23550665.400    92417817.875  
E 5  26830150.920   140993343.723    26830158.480   105287223.887  
E 8  22701407.820   119296692.422    22701412.140    89085187.125  
E25  24164288.120   126984160.051    24164294.120    94825826.324  
E30  26326195.560   138345045.6052   26326202.480   103309598.8132 
> 2021  1  5 21 51 56.0000000  0 16       0.000000000000
G 4  22317442.820   117278925.621    22317446.520    87578424.848  
G 5  24441034.160   128438467.0822                                 
G 7  21004925.260   110381627.410                                  
G 8  22539705.480   118446879.645    22539706.880    88450587.703  
G 9  20373976.680   107065924.883    20373977.660    79951829.766  
G14  23423849.080   123093117.4022                                 
G16  24390801.620   128174511.4572                                 
G27  23057071.320   121165668.828    23057072.460    90480855.684  
G28  23673320.120   124404109.1252                                 
G30  22266537.760   117011386.141    22266539.500    87378631.469  
E 2  23612757.020   124085854.453    23612762.040    92661507.266  
E 3  23550828.960   123760412.547    23550834.860    92418482.875  
E 5  26830665.500   140996047.805    26830673.060   105289243.168  
E 8  22701072.880   119294932.340    22701077.220    89083872.777  
E25  24164575.080   126985668.012    24164581.080    94826952.398  
E30  26325703.880   138342461.8322   26325710.800   103307669.3712 
> 2021  1  5 21 51 57.0000000  0 16       0.000000000000
G 4  22317941.320   117281545.254    22317945.020    87580381.066  
G 5  24440624.160   128436312.5552                                 
G 7  21004816.840   110381057.621                                  
G 8  22539348.280   118445002.496    22539349.660    88449185.938  
G 9  20374115.200   107066652.797    20374116.180    79952373.340  
G14  23423196.200   123089686.4772                                 
G16  24391510.380   128178236.0822                                 
G27  23057094.920   121165792.766    23057096.040    90480948.234  
G28  23672669.680   124400691.0352                                 
G30  22266175.340   117009481.555    22266177.060    87377209.215  
E 2  23612565.040   124084845.602    23612570.060    92660753.902  
E 3  23550998.500   123761303.457    23551004.400    92419148.168  
E 5  26831180.100   140998752.063    26831187.660   105291262.578  
E 8  22700738.000   119293172.527    22700742.320    89082558.633  
E25  24164862.080   126987176.211    24164868.080    94828078.652  
E30  26325212.240   138339878.2192   26325219.160   103305740.0512 
> 2021  1  5 21 51 58.0000000  0 16       0.000000000000
G 4  22318439.880   117284165.238    22318443.580    87582337.547  
G 5  24440214.260   128434158.5162                                 
G 7  21004708.440   110380488.020                                  
G 8  22538991.160   118443125.836    22538992.540    88447784.535  
G 9  20374253.800   107067381.223    20374254.780    79952917.293  
G14  23422543.360   123086255.7622                                 
G16  24392219.180   128181960.8362                                 
G27  23057118.620   121165917.371    23057119.760    90481041.285  
G28  23672019.280   124397273.1802                                 
G30  22265812.940   117007577.105    22265814.660    87375787.063  
E 2  23612373.140   124083837.070    23612378.140    92660000.777  
E 3  23551168.100   123762194.738    23551174.000    92419813.734  
E 5  26831694.720   141001456.473    26831702.300   105293282.105  
E 8  22700403.180   119291412.965    22700407.500    89081244.672  
E25  24165149.120   126988684.645    24165155.120    94829205.078  
E30  26324720.620   138337294.7422   26324727.540   103303810.8322 
> 2021  1  5 21 51 59.0000000  0 16       0.000000000000
G 4  22318938.520   117286785.574    22318942.220    87584294.289  
G 5  24439804.460   128432004.9772                                 
G 7  21004600.100   110379918.613                                  
G 8  22538634.140   118441249.668    22538635.520    88446383.500  
G 9  20374392.520   107068110.172    20374393.500    79953461.641  
G14  23421890.560   123082825.2812                                 
G16  24392928.000   128185685.7192                                 
G27  23057142.460   121166042.641    23057143.600    90481134.828  
G28  23671368.920   124393855.5162                                 
G30  22265450.560   117005672.844    22265452.300    87374365.047  
E 2  23612181.280   124082828.891    23612186.280    92659247.914  
E 3  23551337.780   123763086.410    23551343.680    92420479.590  
E 5  26832209.400   141004161.066    26832216.960   105295301.766  
E 8  22700068.400   119289653.684    22700072.720    89079930.926  
E25  24165436.220   126990193.324    24165442.220    94830331.691  
E30  26324229.040   138334711.4572   26324235.960   103301881.7542 
> 2021  1  5 21 52  0.0000000  0 16       0.000000000000
G 4  22319437.220   117289406.250    22319440.920    87586251.289  
G 5  24439394.740   128429851.9382                                 
G 7  21004491.780   110379349.395                                  
G 8  22538277.200   118439373.973    22538278.600    88444982.820  
G 9  20374531.340   107068839.656    20374532.320    79954006.383  
G14  23421237.800   123079395.0392                                 
G16  24393636.860   128189410.7272                                 
G27  23057166.420   121166168.578    23057167.560    90481228.875  
G28  23670718.600   124390438.0702                                 
G30  22265088.220   117003768.754    22265089.960    87372943.164  
E 2  23611989.500   124081821.051    23611994.500    92658495.309  
E 3  23551507.540   123763978.465    23551513.440    92421145.734  
E 5  26832724.100   141006865.820    26832731.660   105297321.551  
E 8  22699733.660   119287894.664    22699737.980    89078617.371  
E25  24165723.360   126991702.246    24165729.360    94831458.480  
E30  26323737.480   138332128.3202   26323744.400   103299952.7932 
> 2021  1  5 21 52  1.0000000  0 16       0.000000000000
G 4  22319935.980   117292027.273    22319939.680    87588208.543  
G 5  24438985.140   128427699.3832                                 
G 7  21004383.480   110378780.355                                  
G 8  22537920.360   118437498.766    22537921.740    88443582.504  
G 9  20374670.260   107069569.652    20374671.240    79954551.512  
G14  23420585.080   123075965.0002                                 
G16  24394345.720   128193135.8752                                 
G27  23057190.520   121166295.176    23057191.660    90481323.410  
G28  23670068.320   124387020.8592                                 
G30  22264725.920   117001864.805    22264727.640    87371521.383  
E 2  23611797.780   124080813.543    23611802.780    92657742.949  
E 3  23551677.360   123764870.898    23551683.260    92421812.160  
E 5  26833238.820   141009570.734    26833246.400   105299341.453  
E 8  22699398.980   119286135.895    22699403.300    89077304.004  
E25  24166010.540   126993211.398    24166016.540    94832585.445  
E30  26323245.960   138329545.3282   26323252.880   103298023.9342 
> 2021  1  5 21 52  2.0000000  0 16       0.000000000000
G 4  22320434.820   117294648.633    22320438.520    87590166.051  
G 5  24438575.600   128425547.3162                                 
G 7  21004275.240   110378211.500                                  
G 8  22537563.620   118435624.043    22537565.000    88442182.551  
G 9  20374809.260   107070300.180    20374810.240    79955097.031  
G14  23419932.420   123072535.2032                                 
G16  24395054.620   128196861.1452                                 
G27  23057214.740   121166422.445    23057215.860    90481418.449  
G28  23669418.100   124383603.8752                                 
G30  22264363.640   116999961.031    22264365.360    87370099.734  
E 2  23611606.120   124079806.379    23611611.120    92656990.848  
E 3  23551847.260   123765763.719    23551853.160    92422478.879  
E 5  26833753.580   141012275.816    26833761.160   105301361.480  
E 8  22699064.340   119284377.402    22699068.680    89075990.848  
E25  24166297.760   126994720.793    24166303.760    94833712.590  
E30  26322754.460   138326962.5082   26322761.380   103296095.2032 
> 2021  1  5 21 52  3.0000000  0 16       0.000000000000
G 4  22320933.700   117297270.348    22320937.420    87592123.824  
G 5  24438166.180   128423395.7702                                 
G 7  21004167.020   110377642.836                                  
G 8  22537206.960   118433749.793    22537208.340    88440782.949  
G 9  20374948.380   107071031.246    20374949.360    79955642.961  
G14  23419279.780   123069105.6292                                 
G16  24395763.540   128200586.5392                                 
G27  23057239.080   121166550.383    23057240.220    90481513.988  
G28  23668767.900   124380187.0862                                 
G30  22264001.400   116998057.434    22264003.120    87368678.219  
E 2  23611414.520   124078799.566    23611419.540    92656239.008  
E 3  23552017.220   123766656.914    23552023.120    92423145.875  
E 5  26834268.380   141014981.066    26834275.940   105303381.633  
E 8  22698729.760   119282619.176    22698734.100    89074677.883  
E25  24166585.040   126996230.430    24166591.040    94834839.914  
E30  26322262.980   138324379.8362   26322269.920   103294166.5862 
> 2021  1  5 21 52  4.0000000  0 16       0.000000000000
G 4  22321432.660   117299892.402    22321436.380    87594081.852  
G 5  24437756.840   128421244.6992                                 
G 7  21004058.840   110377074.352                                  
G 8  22536850.380   118431876.012    22536851.780    88439383.699  
G 9  20375087.600   107071762.828    20375088.580    79956189.273  
G14  23418627.200   123065676.2892                                 
G16  24396472.480   128204312.0662                                 
G27  23057263.560   121166678.980    23057264.680    90481610.020  
G28  23668117.740   124376770.5232                                 
G30  22263639.180   116996153.992    22263640.920    87367256.816  
E 2  23611223.000   124077793.086    23611228.000    92655487.414  
E 3  23552187.260   123767550.500    23552193.180    92423813.164  
E 5  26834783.200   141017686.473    26834790.760   105305401.902  
E 8  22698395.240   119280861.215    22698399.560    89073365.125  
E25  24166872.360   126997740.297    24166878.360    94835967.414  
E30  26321771.560   138321797.3362   26321778.480   103292238.0982 
> 2021  1  5 21 52  5.0000000  0 16       0.000000000000
G 4  22321931.700   117302514.813    22321935.400    87596040.145  
G 5  24437347.600   128419094.1292                                 
G 7  21003950.700   110376506.059                                  
G 8  22536493.900   118430002.715    22536495.300    88437984.809  
G 9  20375226.920   107072494.945    20375227.900    79956735.984  
G14  23417974.660   123062247.1602                                 
G16  24397181.460   128208037.7342                                 
G27  23057288.160   121166808.254    23057289.280    90481706.555  
G28  23667467.640   124373354.1952                                 
G30  22263277.000   116994250.727    22263278.740    87365835.551  
E 2  23611031.540   124076786.957    23611036.540    92654736.082  
E 3  23552357.380   123768444.461    23552363.280    92424480.730  
E 5  26835298.060   141020392.055    26835305.620   105307422.305  
E 8  22698060.760   119279103.527    22698065.080    89072052.566  
E25  24167159.720   126999250.410    24167165.720    94837095.094  
E30  26321280.160   138319214.9962   26321287.080   103290309.7272 
> 2021  1  5 21 52  6.0000000  0 16       0.000000000000
G 4  22322430.800   117305137.484    22322434.520    87597998.605  
G 5  24436938.320   128416944.7662                                 
G 7  21003842.540   110375938.270                                  
G 8  22536137.520   118428129.879    22536138.920    88436586.270  
G 9  20375366.340   107073227.527    20375367.340    79957283.027  
G14  23417322.240   123058817.930                                  
G16  24397890.400   128211763.785                                  
G27  23057312.860   121166938.246    23057313.980    90481803.684  
G28  23666817.500   124369938.4382                                 
G30  22262914.860   116992347.598    22262916.580    87364414.395  
E 2  23610840.140   124075781.207    23610845.140    92653985.066  
E 3  23552527.560   123769338.824    23552533.460    92425148.605  
E 5  26835812.960   141023097.719    26835820.540   105309442.723  
E 8  22697726.340   119277346.090    22697730.660    89070740.191  
E25  24167447.120   127000760.813    24167453.120    94838223.023  
E30  26320788.940   138316631.9452   26320795.980   103288380.3322 
> 2021  1  5 21 52  7.0000000  0 16       0.000000000000
G 4  22322929.960   117307760.570    22322933.680    87599957.406  
G 5  24436529.260   128414795.1842                                 
G 7  21003734.460   110375370.332                                  
G 8  22535781.240   118426257.559    22535782.620    88435188.109  
G 9  20375505.860   107073960.676    20375506.840    79957830.504  
G14  23416669.780   123055389.250                                  
G16  24398599.420   128215489.695                                  
G27  23057337.720   121167068.844    23057338.840    90481901.207  
G28  23666167.480   124366522.5352                                 
G30  22262552.740   116990444.645    22262554.460    87362993.359  
E 2  23610648.800   124074775.750    23610653.800    92653234.238  
E 3  23552697.820   123770233.555    23552703.720    92425816.750  
E 5  26836327.880   141025803.633    26836335.440   105311463.371  
E 8  22697391.960   119275588.922    22697396.280    89069428.020  
E25  24167734.580   127002271.410    24167740.580    94839351.066  
E30  26320297.580   138314049.9262   26320304.640   103286452.1992 
> 2021  1  5 21 52  8.0000000  0 16       0.000000000000
G 4  22323429.180   117310383.996    22323432.900    87601916.457  
G 5  24436120.300   128412646.0902                                 
G 7  21003626.420   110374802.594                                  
G 8  22535425.040   118424385.715    22535426.420    88433790.301  
G 9  20375645.480   107074694.355    20375646.460    79958378.383  
G14  23416017.360   123051960.805                                  
G16  24399308.460   128219215.723                                  
G27  23057362.700   121167200.102    23057363.820    90481999.227  
G28  23665517.500   124363106.8482                                 
G30  22262190.640   116988541.859    22262192.380    87361572.449  
E 2  23610457.520   124073770.645    23610462.520    92652483.672  
E 3  23552868.160   123771128.668    23552874.060    92426485.176  
E 5  26836842.820   141028509.719    26836850.400   105313484.148  
E 8  22697057.620   119273832.027    22697061.940    89068116.055  
E25  24168022.080   127003782.234    24168028.080    94840479.281  
E30  26319806.280   138311468.0632   26319813.320   103284524.1882 
> 2021  1  5 21 52  9.0000000  0 16       0.000000000000
G 4  22323928.480   117313007.770    22323932.180    87603875.766  
G 5  24435711.440   128410497.5002                                 
G 7  21003518.440   110374235.047                                  
G 8  22535068.940   118422514.355    22535070.320    88432392.859  
G 9  20375785.200   107075428.563    20375786.180    79958926.652  
G14  23415365.000   123048532.590                                  
G16  24400017.520   128222941.891                                  
G27  23057387.800   121167332.039    23057388.920    90482097.750  
G28  23664867.560   124359691.3752                                 
G30  22261828.600   116986639.238    22261830.320    87360151.660  
E 2  23610266.320   124072765.871    23610271.320    92651733.352  
E 3  23553038.560   123772024.168    23553044.460    92427153.895  
E 5  26837357.800   141031215.961    26837365.380   105315505.043  
E 8  22696723.340   119272075.398    22696727.660    89066804.285  
E25  24168309.620   127005293.305    24168315.620    94841607.676  
E30  26319314.980   138308886.3482   26319322.040   103282596.2812 
> 2021  1  5 21 52 10.0000000  0 16       0.000000000000
G 4  22324427.840   117315631.898    22324431.540    87605835.340  
G 5  24435302.680   128408349.3952                                 
G 7  21003410.460   110373667.672                                  
G 8  22534712.920   118420643.496    22534714.300    88430995.793  
G 9  20375925.020   107076163.313    20375926.000    79959475.332  
G14  23414712.680   123045104.605                                  
G16  24400726.620   128226668.191                                  
G27  23057413.040   121167464.641    23057414.160    90482196.770  
G28  23664217.660   124356276.1292                                 
G30  22261466.560   116984736.785    22261468.300    87358731.000  
E 2  23610075.180   124071761.449    23610080.180    92650983.301  
E 3  23553209.040   123772920.063    23553214.940    92427822.906  
E 5  26837872.820   141033922.375    26837880.400   105317526.063  
E 8  22696389.120   119270319.035    22696393.440    89065492.719  
E25  24168597.200   127006804.621    24168603.200    94842736.254  
E30  26318823.740   138306304.8012   26318830.780   103280668.5042 
> 2021  1  5 21 52 11.0000000  0 16       0.000000000000
G 4  22324927.260   117318256.355    22324930.960    87607795.164  
G 5  24434894.000   128406201.7972                                 
G 7  21003302.540   110373100.484                                  
G 8  22534357.000   118418773.102    22534358.380    88429599.070  
G 9  20376064.920   107076898.547    20376065.920    79960024.367  
G14  23414060.400   123041676.832                                  
G16  24401435.740   128230394.609                                  
G27  23057438.400   121167597.891    23057439.520    90482296.273  
G28  23663567.800   124352861.0782                                 
G30  22261104.580   116982834.473    22261106.300    87357310.441  
E 2  23609884.120   124070757.363    23609889.120    92650233.496  
E 3  23553379.600   123773816.313    23553385.500    92428492.184  
E 5  26838387.860   141036628.945    26838395.440   105319547.203  
E 8  22696054.940   119268562.934    22696059.260    89064181.340  
E25  24168884.840   127008316.156    24168890.840    94843865.000  
E30  26318332.500   138303723.4182   26318339.560   103278740.8482 
> 2021  1  5 21 52 12.0000000  0 16       0.000000000000
G 4  22325426.740   117320881.160    22325430.460    87609755.242  
G 5  24434485.420   128404054.6882                                 
G 7  21003194.640   110372533.492                                  
G 8  22534001.180   118416903.195    22534002.560    88428202.711  
G 9  20376204.940   107077634.336    20376205.940    79960573.820  
G14  23413408.160   123038249.281                                  
G16  24402144.880   128234121.156                                  
G27  23057463.900   121167731.813    23057465.000    90482396.281  
G28  23662917.980   124349446.2662                                 
G30  22260742.620   116980932.340    22260744.340    87355890.016  
E 2  23609693.100   124069753.609    23609698.100    92649483.938  
E 3  23553550.220   123774712.961    23553556.120    92429161.762  
E 5  26838902.920   141039335.684    26838910.500   105321568.469  
E 8  22695720.820   119266807.090    22695725.140    89062870.164  
E25  24169172.520   127009827.945    24169178.520    94844993.930  
E30  26317841.320   138301142.1802   26317848.360   103276813.3012 
> 2021  1  5 21 52 13.0000000  0 16       0.000000000000
G 4  22325926.300   117323506.305    22325930.000    87611715.574  
G 5  24434076.940   128401908.0822                                 
G 7  21003086.780   110371966.680                                  
G 8  22533645.440   118415033.773    22533646.820    88426806.711  
G 9  20376345.060   107078370.641    20376346.060    79961123.656  
G14  23412755.960   123034821.973                                  
G16  24402854.040   128237847.836                                  
G27  23057489.500   121167866.406    23057490.620    90482496.789  
G28  23662268.200   124346031.6642                                 
G30  22260380.680   116979030.367    22260382.400    87354469.711  
E 2  23609502.160   124068750.195    23609507.160    92648734.637  
E 3  23553720.920   123775609.980    23553726.820    92429831.609  
E 5  26839418.040   141042042.582    26839425.620   105323589.848  
E 8  22695386.740   119265051.523    22695391.060    89061559.188  
E25  24169460.260   127011339.961    24169466.240    94846123.035  
E30  26317350.140   138298561.0902   26317357.200   103274885.8632 
> 2021  1  5 21 52 14.0000000  0 16       0.000000000000
G 4  22326425.920   117326131.813    22326429.620    87613676.180  
G 5  24433668.540   128399761.9732                                 
G 7  21002978.960   110371400.063                                  
G 8  22533289.780   118413164.848    22533291.180    88425411.086  
G 9  20376485.280   107079107.488    20376486.260    79961673.898  
G14  23412103.820   123031394.879                                  
G16  24403563.240   128241574.648                                  
G27  23057515.240   121168001.668    23057516.360    90482597.793  
G28  23661618.480   124342617.2812                                 
G30  22260018.780   116977128.574    22260020.500    87353049.543  
E 2  23609311.280   124067747.133    23609316.280    92647985.594  
E 3  23553891.680   123776507.391    23553897.580    92430501.754  
E 5  26839933.180   141044749.648    26839940.760   105325611.359  
E 8  22695052.720   119263296.211    22695057.040    89060248.398  
E25  24169748.020   127012852.227    24169754.020    94847252.324  
E30  26316859.020   138295980.1842   26316866.060   103272958.5632 
> 2021  1  5 21 52 15.0000000  0 16       0.000000000000
G 4  22326925.600   117328757.652    22326929.320    87615637.035  
G 5  24433260.260   128397616.3552                                 
G 7  21002871.180   110370833.625                                  
G 8  22532934.240   118411296.391    22532935.620    88424015.809  
G 9  20376625.600   107079844.848    20376626.580    79962224.523  
G14  23411451.700   123027968.031                                  
G16  24404272.460   128245301.586                                  
G27  23057541.120   121168137.602    23057542.240    90482699.301  
G28  23660968.780   124339203.1212                                 
G30  22259656.920   116975226.945    22259658.640    87351629.492  
E 2  23609120.460   124066744.402    23609125.460    92647236.805  
E 3  23554062.540   123777405.188    23554068.440    92431172.188  
E 5  26840448.340   141047456.879    26840455.920   105327632.992  
E 8  22694718.740   119261541.172    22694723.060    89058937.820  
E25  24170035.840   127014364.723    24170041.840    94848381.785  
E30  26316367.900   138293399.4302   26316374.960   103271031.3792 
> 2021  1  5 21 52 16.0000000  0 16       0.000000000000
G 4  22327425.340   117331383.844    22327429.060    87617598.148  
G 5  24432852.060   128395471.2382                                 
G 7  21002763.420   110370267.379                                  
G 8  22532578.780   118409428.426    22532580.160    88422620.902  
G 9  20376766.020   107080582.746    20376767.000    79962775.551  
G14  23410799.640   123024541.395                                  
G16  24404981.700   128249028.656                                  
G27  23057567.120   121168274.195    23057568.220    90482801.305  
G28  23660319.140   124335789.1802                                 
G30  22259295.080   116973325.461    22259296.800    87350209.555  
E 2  23608929.720   124065742.012    23608934.720    92646488.266  
E 3  23554233.440   123778303.352    23554239.340    92431842.895  
E 5  26840963.540   141050164.277    26840971.120   105329654.750  
E 8  22694384.800   119259786.391    22694389.140    89057627.434  
E25  24170323.700   127015877.457    24170329.700    94849511.422  
E30  26315876.840   138290818.8402   26315883.880   103269104.3132 
> 2021  1  5 21 52 17.0000000  0 16       0.000000000000
G 4  22327925.160   117334010.363    22327928.880    87619559.512  
G 5  24432443.940   128393326.6212                                 
G 7  21002655.700   110369701.301                                  
G 8  22532223.400   118407560.949    22532224.800    88421226.359  
G 9  20376906.540   107081321.145    20376907.520    79963326.953  
G14  23410147.620   123021114.988                                  
G16  24405690.960   128252755.855                                  
G27  23057593.240   121168411.453    23057594.340    90482903.805  
G28  23659669.520   124332375.4532                                 
G30  22258933.280   116971424.164    22258935.000    87348789.754  
E 2  23608739.020   124064739.961    23608744.020    92645739.984  
E 3  23554404.440   123779201.898    23554410.340    92432513.891  
E 5  26841478.760   141052871.832    26841486.340   105331676.625  
E 8  22694050.940   119258031.883    22694055.260    89056317.250  
E25  24170611.600   127017390.422    24170617.600    94850641.234  
E30  26315385.800   138288238.3952   26315392.840   103267177.3592 
> 2021  1  5 21 52 18.0000000  0 16       0.000000000000
G 4  22328425.040   117336637.238    22328428.760    87621521.137  
G 5  24432035.940   128391182.4922                                 
G 7  21002548.020   110369135.414                                  
G 8  22531868.140   118405693.945    22531869.520    88419832.168  
G 9  20377047.160   107082060.094    20377048.140    79963878.766  
G14  23409495.640   123017688.816                                  
G16  24406400.240   128256483.184                                  
G27  23057619.480   121168549.383    23057620.600    90483006.801  
G28  23659019.960   124328961.9572                                 
G30  22258571.500   116969523.035    22258573.220    87347370.082  
E 2  23608548.400   124063738.246    23608553.400    92644991.953  
E 3  23554575.500   123780100.824    23554581.400    92433185.168  
E 5  26841994.040   141055579.555    26842001.620   105333698.625  
E 8  22693717.120   119256277.621    22693721.440    89055007.254  
E25  24170899.560   127018903.621    24170905.560    94851771.227  
E30  26314894.780   138285658.1092   26314901.840   103265250.5272 
> 2021  1  5 21 52 19.0000000  0 16       0.000000000000
G 4  22328924.980   117339264.453    22328928.700    87623483.016  
G 5  24431628.020   128389038.8632                                 
G 7  21002440.380   110368569.719                                  
G 8  22531512.940   118403827.422    22531514.320    88418438.336  
G 9  20377187.880   107082799.563    20377188.860    79964430.965  
G14  23408843.700   123014262.867                                  
G16  24407109.560   128260210.648                                  
G27  23057645.860   121168687.988    23057646.980    90483110.305  
G28  23658370.440   124325548.6952                                 
G30  22258209.760   116967622.070    22258211.480    87345950.531  
E 2  23608357.860   124062736.875    23608362.860    92644244.180  
E 3  23554746.620   123781000.141    23554752.520    92433856.738  
E 5  26842509.320   141058287.438    26842516.900   105335720.750  
E 8  22693383.340   119254523.645    22693387.660    89053697.469  
E25  24171187.560   127020417.074    24171193.560    94852901.406  
E30  26314403.800   138283077.9882   26314410.840   103263323.8202 
> 2021  1  5 21 52 21.0000000  0 16       0.000000000000
G 4  22329925.080   117344519.938    22329928.780    87627407.563  
G 5  24430812.460   128384753.1052                                 
G 7  21002225.180   110367438.875                                  
G 8  22530802.840   118400095.832    22530804.240    88415651.762  
G 9  20377469.600   107084280.074    20377470.600    79965536.543  
G14  23407539.960   123007411.652                                  
G16  24408528.260   128267665.945                                  
G27  23057699.000   121168967.184    23057700.100    90483318.797  
G28  23657071.520   124318722.8052                                 
G30  22257486.380   116963820.613    22257488.100    87343111.781  
E 2  23607976.940   124060735.152    23607981.940    92642749.395  
E 3  23555089.120   123782799.922    23555095.020    92435200.734  
E 5  26843540.000   141063703.699    26843547.580   105339765.363  
E 8  22692715.940   119251016.473    22692720.260    89051078.484  
E25  24171763.700   127023444.672    24171769.700    94855162.277  
E30  26313421.920   138277918.2032   26313428.980   103259470.7382 
> 2021  1  5 21 52 22.0000000  0 16       0.000000000000
G 4  22330425.220   117347148.191    22330428.940    87629370.219  
G 5  24430404.840   128382610.9692                                 
G 7  21002117.640   110366873.738                                  
G 8  22530447.940   118398230.754    22530449.320    88414259.008  
G 9  20377610.620   107085021.129    20377611.620    79966089.926  
G14  23406888.160   123003986.398                                  
G16  24409237.640   128271393.781                                  
G27  23057725.740   121169107.785    23057726.860    90483423.789  
G28  23656422.120   124315310.1882                                 
G30  22257124.720   116961920.129    22257126.440    87341692.590  
E 2  23607786.580   124059734.809    23607791.580    92642002.387  
E 3  23555260.460   123783700.379    23555266.360    92435873.160  
E 5  26844055.400   141066412.074    26844062.980   105341787.852  
E 8  22692382.320   119249263.285    22692386.640    89049769.289  
E25  24172051.840   127024958.832    24172057.820    94856292.984  
E30  26312931.040   138275338.5632   26312938.080   103257544.3872 
> 2021  1  5 21 52 23.0000000  0 16       0.000000000000
G 4  22330925.420   117349776.785    22330929.140    87631333.129  
G 5  24429997.300   128380469.3322                                 
G 7  21002010.140   110366308.777                                  
G 8  22530093.120   118396366.164    22530094.500    88412866.621  
G 9  20377751.740   107085762.691    20377752.740    79966643.691  
G14  23406236.400   123000561.352                                  
G16  24409947.060   128275121.738                                  
G27  23057752.640   121169249.043    23057753.740    90483529.277  
G28  23655772.760   124311897.7932                                 
G30  22256763.100   116960019.820    22256764.840    87340273.527  
E 2  23607596.280   124058734.801    23607601.280    92641255.629  
E 3  23555431.900   123784601.227    23555437.780    92436545.871  
E 5  26844570.820   141069120.625    26844578.400   105343810.473  
E 8  22692048.760   119247510.359    22692053.080    89048460.289  
E25  24172340.020   127026473.234    24172346.000    94857423.871  
E30  26312440.180   138272759.0662   26312447.220   103255618.1452 
> 2021  1  5 21 52 24.0000000  0 16       0.000000000000
G 4  22331425.700   117352405.730    22331429.420    87633296.305  
G 5  24429589.840   128378328.1882                                 
G 7  21001902.680   110365744.016                                  
G 8  22529738.400   118394502.070    22529739.780    88411474.602  
G 9  20377892.960   107086504.801    20377893.960    79967197.863  
G14  23405584.680   122997136.547                                  
G16  24410656.500   128278849.828                                  
G27  23057779.640   121169390.977    23057780.760    90483635.262  
G28  23655123.440   124308485.6212                                 
G30  22256401.520   116958119.676    22256403.240    87338854.590  
E 2  23607406.060   124057735.137    23607411.040    92640509.133  
E 3  23555603.380   123785502.449    23555609.280    92437218.867  
E 5  26845086.260   141071829.336    26845093.840   105345833.215  
E 8  22691715.240   119245757.711    22691719.560    89047151.500  
E25  24172628.240   127027987.867    24172634.240    94858554.934  
E30  26311949.340   138270179.7422   26311956.380   103253692.0312 
> 2021  1  5 21 52 25.0000000  0 16       0.000000000000
G 4  22331926.040   117355035.016    22331929.760    87635259.727  
G 5  24429182.500   128376187.5392                                 
G 7  21001795.240   110365179.422                                  
G 8  22529383.760   118392638.465    22529385.140    88410082.949  
G 9  20378034.280   107087247.418    20378035.260    79967752.414  
G14  23404933.000   122993711.969                                  
G16  24411365.960   128282578.059                                  
G27  23057806.780   121169533.566    23057807.900    90483741.742  
G28  23654474.180   124305073.6522                                 
G30  22256039.960   116956219.680    22256041.700    87337435.762  
E 2  23607215.880   124056735.801    23607220.880    92639762.879  
E 3  23555774.960   123786404.051    23555780.860    92437892.145  
E 5  26845601.760   141074538.207    26845609.320   105347856.074  
E 8  22691381.760   119244005.316    22691386.080    89045842.895  
E25  24172916.500   127029502.730    24172922.500    94859686.164  
E30  26311458.540   138267600.5592   26311465.580   103251766.0232 
> 2021  1  5 21 52 26.0000000  0 16       0.000000000000
G 4  22332426.440   117357664.645    22332430.160    87637223.410  
G 5  24428775.240   128374047.3912                                 
G 7  21001687.840   110364615.039                                  
G 8  22529029.220   118390775.344    22529030.600    88408691.660  
G 9  20378175.700   107087990.559    20378176.680    79968307.355  
G14  23404281.380   122990287.609                                  
G16  24412075.440   128286306.410                                  
G27  23057834.040   121169676.836    23057835.160    90483848.730  
G28  23653824.940   124301661.9062                                 
G30  22255678.440   116954319.863    22255680.180    87336017.070  
E 2  23607025.780   124055736.816    23607030.780    92639016.891  
E 3  23555946.600   123787306.047    23555952.500    92438565.719  
E 5  26846117.260   141077247.242    26846124.840   105349879.059  
E 8  22691048.360   119242253.195    22691052.660    89044534.500  
E25  24173204.820   127031017.844    24173210.820    94860817.586  
E30  26310967.760   138265021.5272   26310974.800   103249840.1252 
> 2021  1  5 21 52 27.0000000  0 16       0.000000000000
G 4  22332926.920   117360294.621    22332930.620    87639187.352  
G 5  24428368.080   128371907.7422                                 
G 7  21001580.480   110364050.820                                  
G 8  22528674.780   118388912.695    22528676.160    88407300.719  
G 9  20378317.220   107088734.242    20378318.200    79968862.707  
G14  23403629.780   122986863.477                                  
G16  24412784.940   128290034.887                                  
G27  23057861.440   121169820.758    23057862.540    90483956.207  
G28  23653175.760   124298250.3872                                 
G30  22255316.960   116952420.215    22255318.680    87334598.500  
E 2  23606835.760   124054738.168    23606840.740    92638271.148  
E 3  23556118.320   123788208.414    23556124.200    92439239.563  
E 5  26846632.820   141079956.453    26846640.380   105351902.172  
E 8  22690714.980   119240501.336    22690719.300    89043226.293  
E25  24173493.180   127032533.180    24173499.180    94861949.168  
E30  26310477.020   138262442.6802   26310484.060   103247914.3672 
> 2021  1  5 21 52 28.0000000  0 16       0.000000000000
G 4  22333427.440   117362924.934    22333431.160    87641151.547  
G 5  24427961.020   128369768.5862                                 
G 7  21001473.140   110363486.797                                  
G 8  22528320.420   118387050.531    22528321.800    88405910.145  
G 9  20378458.840   107089478.430    20378459.820    79969418.430  
G14  23402978.240   122983439.570                                  
G16  24413494.480   128293763.496                                  
G27  23057888.960   121169965.359    23057890.060    90484064.184  
G28  23652526.600   124294839.0942                                 
G30  22254955.500   116950520.719    22254957.220    87333180.047  
E 2  23606645.780   124053739.859    23606650.760    92637525.656  
E 3  23556290.100   123789111.168    23556296.000    92439913.699  
E 5  26847148.380   141082665.813    26847155.960   105353925.391  
E 8  22690381.660   119238749.750    22690385.980    89041918.293  
E25  24173781.580   127034048.762    24173787.580    94863080.938  
E30  26309986.320   138259863.9802   26309993.360   103245988.7152 
> 2021  1  5 21 52 29.0000000  0 16       0.000000000000
G 4  22333928.040   117365555.590    22333931.760    87643116.000  
G 5  24427554.040   128367629.9262                                 
G 7  21001365.860   110362922.957                                  
G 8  22527966.160   118385188.859    22527967.540    88404519.938  
G 9  20378600.560   107090223.160    20378601.540    79969974.559  
G14  23402326.740   122980015.902                                  
G16  24414204.040   128297492.227                                  
G27  23057916.600   121170110.617    23057917.720    90484172.660  
G28  23651877.500   124291428.0082                                 
G30  22254594.080   116948621.395    22254595.800    87331761.719  
E 2  23606455.880   124052741.887    23606460.860    92636780.418  
E 3  23556461.960   123790014.301    23556467.860    92440588.117  
E 5  26847664.000   141085375.340    26847671.560   105355948.738  
E 8  22690048.400   119236998.418    22690052.720    89040610.480  
E25  24174070.040   127035564.582    24174076.040    94864212.879  
E30  26309495.640   138257285.4412   26309502.680   103244063.1842 
> 2021  1  5 21 52 30.0000000  0 16       0.000000000000
G 4  22334428.720   117368186.598    22334432.440    87645080.711  
G 5  24427147.160   128365491.7702                                 
G 7  21001258.600   110362359.305                                  
G 8  22527611.980   118383327.656    22527613.360    88403130.074  
G 9  20378742.380   107090968.418    20378743.360    79970531.082  
G14  23401675.280   122976592.469                                  
G16  24414913.620   128301221.078                                  
G27  23057944.360   121170256.551    23057945.480    90484281.637  
G28  23651228.440   124288017.1562                                 
G30  22254232.680   116946722.230    22254234.400    87330343.512  
E 2  23606266.020   124051744.262    23606271.020    92636035.438  
E 3  23556633.900   123790917.816    23556639.800    92441262.816  
E 5  26848179.620   141088085.027    26848187.200   105357972.203  
E 8  22689715.180   119235247.359    22689719.500    89039302.871  
E25  24174358.540   127037080.637    24174364.520    94865345.000  
E30  26309004.980   138254707.0592   26309012.020   103242137.7662 
> 2021  1  5 21 52 31.0000000  0 16       0.000000000000
G 4  22334929.440   117370817.945    22334933.160    87647045.680  
G 5  24426740.380   128363354.1132                                 
G 7  21001151.380   110361795.836                                  
G 8  22527257.900   118381466.949    22527259.280    88401740.586  
G 9  20378884.300   107091714.191    20378885.280    79971087.992  
G14  23401023.860   122973169.246                                  
G16  24415623.220   128304950.066                                  
G27  23057972.260   121170403.152    23057973.380    90484391.109  
G28  23650579.420   124284606.5232                                 
G30  22253871.300   116944823.234    22253873.040    87328925.430  
E 2  23606076.260   124050746.969    23606081.240    92635290.707  
E 3  23556805.900   123791821.715    23556811.800    92441937.809  
E 5  26848695.300   141090794.891    26848702.880   105359995.805  
E 8  22689382.020   119233496.566    22689386.340    89037995.461  
E25  24174647.080   127038596.926    24174653.060    94866477.289  
E30  26308514.380   138252128.8552   26308521.420   103240212.4842 
> 2021  1  5 21 52 32.0000000  0 16       0.000000000000
G 4  22335430.240   117373449.641    22335433.960    87649010.902  
G 5  24426333.700   128361216.9452                                 
G 7  21001044.180   110361232.555                                  
G 8  22526903.920   118379606.723    22526905.300    88400351.457  
G 9  20379026.320   107092460.516    20379027.300    79971645.309  
G14  23400372.500   122969746.266                                  
G16  24416332.840   128308679.176                                  
G27  23058000.300   121170550.422    23058001.400    90484501.082  
G28  23649930.440   124281196.1172                                 
G30  22253509.980   116942924.402    22253511.700    87327507.473  
E 2  23605886.540   124049750.023    23605891.520    92634546.234  
E 3  23556977.980   123792725.996    23556983.880    92442613.082  
E 5  26849211.000   141093504.914    26849218.580   105362019.520  
E 8  22689048.900   119231746.043    22689053.220    89036688.250  
E25  24174935.660   127040113.461    24174941.660    94867609.766  
E30  26308023.780   138249550.7732   26308030.820   103238287.2972 
> 2021  1  5 21 52 33.0000000  0 16       0.000000000000
G 4  22335931.100   117376081.680    22335934.820    87650976.387  
G 5  24425927.100   128359080.2812                                 
G 7  21000937.040   110360669.453                                  
G 8  22526550.020   118377746.992    22526551.400    88398962.699  
G 9  20379168.440   107093207.348    20379169.420    79972203.012  
G14  23399721.160   122966323.516                                  
G16  24417042.500   128312408.414                                  
G27  23058028.440   121170698.359    23058029.560    90484611.555  
G28  23649281.500   124277785.9102                                 
G30  22253148.680   116941025.738    22253150.400    87326089.641  
E 2  23605696.880   124048753.418    23605701.880    92633802.016  
E 3  23557150.140   123793630.664    23557156.020    92443288.645  
E 5  26849726.740   141096215.105    26849734.320   105364043.363  
E 8  22688715.840   119229995.781    22688720.160    89035381.238  
E25  24175224.300   127041630.227    24175230.280    94868742.418  
E30  26307533.220   138246972.8832   26307540.260   103236362.2462 
> 2021  1  5 21 52 34.0000000  0 16       0.000000000000
G 4  22336432.040   117378714.063    22336435.760    87652942.125  
G 5  24425520.600   128356944.1132                                 
G 7  21000829.920   110360106.551                                  
G 8  22526196.220   118375887.758    22526197.600    88397574.309  
G 9  20379310.660   107093954.711    20379311.640    79972761.105  
G14  23399069.880   122962900.992                                  
G16  24417752.180   128316137.777                                  
G27  23058056.720   121170846.965    23058057.840    90484722.527  
G28  23648632.600   124274375.9412                                 
G30  22252787.400   116939127.250    22252789.120    87324671.938  
E 2  23605507.300   124047757.156    23605512.300    92633058.055  
E 3  23557322.360   123794535.719    23557328.260    92443964.496  
E 5  26850242.500   141098925.457    26850250.080   105366067.324  
E 8  22688382.820   119228245.793    22688387.140    89034074.430  
E25  24175512.980   127043147.234    24175518.960    94869875.246  
E30  26307042.700   138244395.1412   26307049.740   103234437.3132 
> 2021  1  5 21 52 35.0000000  0 16       0.000000000000
G 4  22336933.020   117381346.777    22336936.740    87654908.113  
G 5  24425114.200   128354808.4412                                 
G 7  21000722.840   110359543.816                                  
G 8  22525842.520   118374029.004    22525843.900    88396186.281  
G 9  20379452.980   107094702.590    20379453.960    79973319.586  
G14  23398418.640   122959478.680                                  
G16  24418461.880   128319867.262                                  
G27  23058085.140   121170996.230    23058086.260    90484833.992  
G28  23647983.760   124270966.1722                                 
G30  22252426.160   116937228.906    22252427.880    87323254.344  
E 2  23605317.780   124046761.219    23605322.780    92632314.336  
E 3  23557494.660   123795441.129    23557500.560    92444640.617  
E 5  26850758.300   141101635.961    26850765.880   105368091.402  
E 8  22688049.860   119226496.055    22688054.180    89032767.809  
E25  24175801.700   127044664.469    24175807.680    94871008.246  
E30  26306552.200   138241817.5552   26306559.240   103232512.4882 
> 2021  1  5 21 52 36.0000000  0 16       0.000000000000
G 4  22337434.080   117383979.859    22337437.800    87656874.371  
G 5  24424707.900   128352673.2702                                 
G 7  21000615.800   110358981.289                                  
G 8  22525488.900   118372170.750    22525490.280    88394798.625  
G 9  20379595.400   107095451.004    20379596.380    79973878.465  
G14  23397767.440   122956056.613                                  
G16  24419171.600   128323596.883                                  
G27  23058113.660   121171146.172    23058114.780    90484945.961  
G28  23647334.940   124267556.6482                                 
G30  22252064.960   116935330.730    22252066.680    87321836.875  
E 2  23605128.340   124045765.637    23605133.320    92631570.883  
E 3  23557667.040   123796346.953    23557672.920    92445317.043  
E 5  26851274.120   141104346.645    26851281.700   105370115.613  
E 8  22687716.960   119224746.594    22687721.260    89031461.391  
E25  24176090.460   127046181.949    24176096.460    94872141.430  
E30  26306061.740   138239240.1412   26306068.780   103230587.8012 
> 2021  1  5 21 52 37.0000000  0 16       0.000000000000
G 4  22337935.220   117386613.270    22337938.940    87658840.879  
G 5  24424301.680   128350538.6052                                 
G 7  21000508.780   110358418.941                                  
G 8  22525135.380   118370312.992    22525136.760    88393411.336  
G 9  20379737.920   107096199.934    20379738.900    79974437.730  
G14  23397116.280   122952634.766                                  
G16  24419881.360   128327326.637                                  
G27  23058142.320   121171296.773    23058143.440    90485058.422  
G28  23646686.180   124264147.3322                                 
G30  22251703.780   116933432.727    22251705.500    87320419.539  
E 2  23604938.940   124044770.391    23604943.940    92630827.680  
E 3  23557839.480   123797253.145    23557845.360    92445993.742  
E 5  26851789.980   141107057.488    26851797.560   105372139.941  
E 8  22687384.100   119222997.402    22687388.400    89030155.180  
E25  24176379.280   127047699.660    24176385.260    94873274.785  
E30  26305571.300   138236662.8792   26305578.340   103228663.2232 
> 2021  1  5 21 52 38.0000000  0 16       0.000000000000
G 4  22338436.400   117389247.027    22338440.120    87660807.645  
G 5  24423895.560   128348404.4302                                 
G 7  21000401.800   110357856.781                                  
G 8  22524781.960   118368455.711    22524783.340    88392024.410  
G 9  20379880.540   107096949.406    20379881.520    79974997.402  
G14  23396465.180   122949213.152                                  
G16  24420591.120   128331056.508                                  
G27  23058171.120   121171448.031    23058172.240    90485171.379  
G28  23646037.440   124260738.2462                                 
G30  22251342.640   116931534.887    22251344.360    87319002.320  
E 2  23604749.620   124043775.484    23604754.600    92630084.730  
E 3  23558011.980   123798159.723    23558017.880    92446670.730  
E 5  26852305.860   141109768.492    26852313.440   105374164.391  
E 8  22687051.280   119221248.477    22687055.600    89028849.164  
E25  24176668.120   127049217.613    24176674.120    94874408.320  
E30  26305080.880   138234085.7622   26305087.920   103226738.7542 
> 2021  1  5 21 52 39.0000000  0 16       0.000000000000
G 4  22338937.660   117391881.121    22338941.380    87662774.664  
G 5  24423489.540   128346270.7732                                 
G 7  21000294.880   110357294.813                                  
G 8  22524428.620   118366598.918    22524430.000    88390637.840  
G 9  20380023.260   107097699.402    20380024.240    79975557.465  
G14  23395814.120   122945791.773                                  
G16  24421300.920   128334786.504                                  
G27  23058200.020   121171599.969    23058201.140    90485284.836  
G28  23645388.760   124257329.3672                                 
G30  22250981.520   116929637.203    22250983.240    87317585.219  
E 2  23604560.360   124042780.930    23604565.360    92629342.039  
E 3  23558184.580   123799066.684    23558190.480    92447348.012  
E 5  26852821.780   141112479.664    26852829.360   105376188.965  
E 8  22686718.520   119219499.820    22686722.840    89027543.348  
E25  24176957.040   127050735.809    24176963.020    94875542.039  
E30  26304590.500   138231508.8282   26304597.540   103224814.4182 
> 2021  1  5 21 52 40.0000000  0 16       0.000000000000
G 4  22339438.980   117394515.570    22339442.700    87664741.945  
G 5  24423083.620   128344137.5982                                 
G 7  21000187.960   110356733.020                                  
G 8  22524075.380   118364742.613    22524076.760    88389251.641  
G 9  20380166.080   107098449.914    20380167.060    79976117.910  
G14  23395163.100   122942370.625                                  
G16  24422010.740   128338516.629                                  
G27  23058229.080   121171752.574    23058230.180    90485398.793  
G28  23644740.120   124253920.7152                                 
G30  22250620.440   116927739.703    22250622.160    87316168.254  
E 2  23604371.160   124041786.707    23604376.160    92628599.602  
E 3  23558357.240   123799974.020    23558363.140    92448025.566  
E 5  26853337.740   141115190.996    26853345.320   105378213.660  
E 8  22686385.820   119217751.430    22686390.120    89026237.734  
E25  24177245.980   127052254.234    24177251.960    94876675.926  
E30  26304100.160   138228932.0512   26304107.200   103222890.2032 
> 2021  1  5 21 52 41.0000000  0 16       0.000000000000
G 4  22339940.360   117397150.352    22339944.080    87666709.477  
G 5  24422677.780   128342004.9222                                 
G 7  21000081.100   110356171.406                                  
G 8  22523722.240   118362886.785    22523723.620    88387865.797  
G 9  20380309.000   107099200.961    20380309.980    79976678.758  
G14  23394512.100   122938949.684                                  
G16  24422720.600   128342246.871                                  
G27  23058258.240   121171905.840    23058259.360    90485513.246  
G28  23644091.520   124250512.2892                                 
G30  22250259.380   116925842.348    22250261.100    87314751.398  
E 2  23604182.040   124040792.816    23604187.020    92627857.414  
E 3  23558529.980   123800881.746    23558535.860    92448703.410  
E 5  26853853.720   141117902.504    26853861.300   105380238.488  
E 8  22686053.160   119216003.305    22686057.480    89024932.316  
E25  24177534.960   127053772.891    24177540.960    94877809.988  
E30  26303609.840   138226355.4222   26303616.880   103220966.0982 
> 2021  1  5 21 52 42.0000000  0 16       0.000000000000
G 4  22340441.820   117399785.484    22340445.540    87668677.270  
G 5  24422272.040   128339872.7462                                 
G 7  20999974.260   110355609.984                                  
G 8  22523369.180   118361031.438    22523370.560    88386480.309  
G 9  20380452.020   107099952.535    20380453.020    79977240.000  
G14  23393861.180   122935528.996                                  
G16  24423430.460   128345977.246                                  
G27  23058287.540   121172059.770    23058288.640    90485628.191  
G28  23643442.960   124247104.0742                                 
G30  22249898.360   116923945.160    22249900.080    87313334.668  
E 2  23603992.980   124039799.281    23603997.960    92627115.488  
E 3  23558702.780   123801789.848    23558708.680    92449381.539  
E 5  26854369.720   141120614.160    26854377.320   105382263.422  
E 8  22685720.560   119214255.453    22685724.860    89023627.102  
E25  24177824.000   127055291.793    24177830.000    94878944.230  
E30  26303119.560   138223778.9532   26303126.600   103219042.1092 
> 2021  1  5 21 52 43.0000000  0 16       0.000000000000
G 4  22340943.340   117402420.961    22340947.060    87670645.320  
G 5  24421866.400   128337741.0592                                 
G 7  20999867.460   110355048.754                                  
G 8  22523016.200   118359176.582    22523017.580    88385095.191  
G 9  20380595.140   107100704.617    20380596.120    79977801.617  
G14  23393210.280   122932108.523                                  
G16  24424140.360   128349707.750                                  
G27  23058316.960   121172214.375    23058318.080    90485743.645  
G28  23642794.440   124243696.0902                                 
G30  22249537.380   116922048.148    22249539.100    87311918.070  
E 2  23603803.980   124038806.074    23603808.960    92626373.805  
E 3  23558875.660   123802698.328    23558881.560    92450059.949  
E 5  26854885.780   141123325.988    26854893.360   105384288.488  
E 8  22685388.000   119212507.855    22685392.300    89022322.074  
E25  24178113.080   127056810.922    24178119.080    94880078.648  
E30  26302629.300   138221202.6452   26302636.340   103217118.2462 
> 2021  1  5 21 52 44.0000000  0 16       0.000000000000
G 4  22341444.920   117405056.777    22341448.640    87672613.621  
G 5  24421460.860   128335609.8752                                 
G 7  20999760.700   110354487.711                                  
G 8  22522663.340   118357322.215    22522664.720    88383710.438  
G 9  20380738.360   107101457.234    20380739.360    79978363.637  
G14  23392559.440   122928688.277                                  
G16  24424850.280   128353438.379                                  
G27  23058346.500   121172369.652    23058347.620    90485859.598  
G28  23642145.960   124240288.3202                                 
G30  22249176.420   116920151.289    22249178.140    87310501.582  
E 2  23603615.040   124037813.211    23603620.020    92625632.383  
E 3  23559048.620   123803607.199    23559054.500    92450738.652  
E 5  26855401.840   141126037.980    26855409.440   105386313.676  
E 8  22685055.500   119210760.527    22685059.800    89021017.254  
E25  24178402.220   127058330.301    24178408.200    94881213.246  
E30  26302139.080   138218626.5042   26302146.120   103215194.5042 
> 2021  1  5 21 52 45.0000000  0 16       0.000000000000
G 4  22341946.560   117407692.938    22341950.280    87674582.184  
G 5  24421055.400   128333479.1952                                 
G 7  20999653.980   110353926.848                                  
G 8  22522310.560   118355468.332    22522311.940    88382326.047  
G 9  20380881.680   107102210.387    20380882.680    79978926.055  
G14  23391908.620   122925268.281                                  
G16  24425560.220   128357169.1332                                 
G27  23058376.180   121172525.582    23058377.300    90485976.039  
G28  23641497.540   124236880.7662                                 
G30  22248815.480   116918254.598    22248817.200    87309085.223  
E 2  23603426.160   124036820.684    23603431.160    92624891.207  
E 3  23559221.640   123804516.445    23559227.520    92451417.637  
E 5  26855917.960   141128750.133    26855925.540   105388338.980  
E 8  22684723.040   119209013.473    22684727.340    89019712.637  
E25  24178691.380   127059849.910    24178697.380    94882348.020  
E30  26301648.880   138216050.5082   26301655.920   103213270.8712 
> 2021  1  5 21 52 46.0000000  0 16       0.000000000000
G 4  22342448.280   117410329.445    22342452.000    87676551.000  
G 5  24420650.040   128331348.9962                                 
G 7  20999547.300   110353366.180                                  
G 8  22521957.860   118353614.938    22521959.240    88380942.016  
G 9  20381025.100   107102964.066    20381026.100    79979488.867  
G14  23391257.860   122921848.496                                  
G16  24426270.180   128360900.0082                                 
G27  23058405.980   121172682.191    23058407.100    90486092.988  
G28  23640849.140   124233473.4532                                 
G30  22248454.600   116916358.074    22248456.320    87307668.988  
E 2  23603237.360   124035828.508    23603242.340    92624150.301  
E 3  23559394.740   123805426.082    23559400.620    92452096.910  
E 5  26856434.100   141131462.438    26856441.680   105390364.406  
E 8  22684390.640   119207266.688    22684394.940    89018408.219  
E25  24178980.600   127061369.762    24178986.600    94883482.973  
E30  26301158.720   138213474.6842   26301165.760   103211347.3672 
> 2021  1  5 21 52 47.0000000  0 16       0.000000000000
G 4  22342950.060   117412966.293    22342953.780    87678520.074  
G 5  24420244.780   128329219.3052                                 
G 7  20999440.640   110352805.684                                  
G 8  22521605.280   118351762.023    22521606.660    88379558.348  
G 9  20381168.640   107103718.270    20381169.620    79980052.074  
G14  23390607.140   122918428.938                                  
G16  24426980.160   128364631.0122                                 
G27  23058435.920   121172839.461    23058437.020    90486210.430  
G28  23640200.800   124230066.3442                                 
G30  22248093.740   116914461.719    22248095.460    87306252.883  
E 2  23603048.620   124034836.668    23603053.600    92623409.641  
E 3  23559567.900   123806336.098    23559573.800    92452776.465  
E 5  26856950.260   141134174.922    26856957.840   105392389.957  
E 8  22684058.280   119205520.164    22684062.600    89017103.996  
E25  24179269.860   127062889.832    24179275.860    94884618.090  
E30  26300668.580   138210899.0042   26300675.620   103209423.9692 
> 2021  1  5 21 52 48.0000000  0 16       0.000000000000
G 4  22343451.900   117415603.480    22343455.620    87680489.402  
G 5  24419839.600   128327090.1132                                 
G 7  20999334.020   110352245.387                                  
G 8  22521252.760   118349909.594    22521254.140    88378175.039  
G 9  20381312.240   107104472.984    20381313.240    79980615.656  
G14  23389956.480   122915009.617                                  
G16  24427690.180   128368362.1412                                 
G27  23058465.960   121172997.395    23058467.080    90486328.371  
G28  23639552.480   124226659.4652                                 
G30  22247732.900   116912565.543    22247734.620    87304836.902  
E 2  23602859.940   124033845.160    23602864.940    92622669.230  
E 3  23559741.140   123807246.488    23559747.040    92453456.305  
E 5  26857466.460   141136887.563    26857474.040   105394415.629  
E 8  22683725.980   119203773.910    22683730.300    89015799.977  
E25  24179559.180   127064410.148    24179565.160    94885753.391  
E30  26300178.480   138208323.4962   26300185.520   103207500.7032 
> 2021  1  5 21 52 49.0000000  0 16       0.000000000000
G 4  22343953.800   117418241.016    22343957.520    87682458.988  
G 5  24419434.520   128324961.4142                                 
G 7  20999227.440   110351685.273                                  
G 8  22520900.360   118348057.660    22520901.740    88376792.102  
G 9  20381455.980   107105228.238    20381456.960    79981179.645  
G14  23389305.840   122911590.531                                  
G16  24428400.220   128372093.3912                                 
G27  23058496.160   121173156.008    23058497.280    90486446.813  
G28  23638904.220   124223252.8202                                 
G30  22247372.100   116910669.512    22247373.820    87303421.039  
E 2  23602671.340   124032854.004    23602676.320    92621929.078  
E 3  23559914.460   123808157.273    23559920.360    92454136.434  
E 5  26857982.700   141139600.371    26857990.280   105396441.426  
E 8  22683393.740   119202027.922    22683398.040    89014496.152  
E25  24179848.520   127065930.699    24179854.520    94886888.867  
E30  26299688.420   138205748.1562   26299695.460   103205577.5592 
> 2021  1  5 21 52 50.0000000  0 16       0.000000000000
G 4  22344455.780   117420878.883    22344459.500    87684428.824  
G 5  24419029.540   128322833.2272                                 
G 7  20999120.880   110351125.340                                  
G 8  22520548.040   118346206.207    22520549.420    88375409.523  
G 9  20381599.800   107105984.023    20381600.780    79981744.031  
G14  23388655.260   122908171.664                                  
G16  24429110.280   128375824.7662                                 
G27  23058526.460   121173315.285    23058527.580    90486565.754  
G28  23638256.000   124219846.3952                                 
G30  22247011.340   116908773.660    22247013.060    87302005.305  
E 2  23602482.780   124031863.176    23602487.780    92621189.176  
E 3  23560087.860   123809068.430    23560093.740    92454816.844  
E 5  26858498.960   141142313.340    26858506.540   105398467.344  
E 8  22683061.540   119200282.203    22683065.840    89013192.531  
E25  24180137.920   127067451.492    24180143.920    94888024.523  
E30  26299198.360   138203172.9652   26299205.400   103203654.5272 
> 2021  1  5 21 52 52.0000000  0 16       0.000000000000
G 4  22345459.920   117426155.676    22345463.640    87688369.285  
G 5  24418219.880   128318578.3522                                 
G 7  20998907.880   110350006.039                                  
G 8  22519843.680   118342504.746    22519845.060    88372645.449  
G 9  20381887.740   107107497.164    20381888.720    79982873.973  
G14  23387354.220   122901334.641                                  
G16  24430530.460   128383287.8912                                 
G27  23058587.460   121173635.840    23058588.580    90486805.129  
G28  23636959.680   124213034.1952                                 
G30  22246289.880   116904982.434    22246291.600    87299174.195  
E 2  23602105.880   124029882.559    23602110.880    92619710.145  
E 3  23560434.840   123810891.906    23560440.740    92456178.527  
E 5  26859531.560   141147739.758    26859539.160   105402519.535  
E 8  22682397.280   119196791.570    22682401.600    89010585.891  
E25  24180716.840   127070493.777    24180722.840    94890296.359  
E30  26298218.380   138198023.0592   26298225.420   103199808.8162 
> 2021  1  5 21 52 53.0000000  0 16       0.000000000000
G 4  22345962.080   117428794.582    22345965.820    87690339.895  
G 5  24417815.180   128316451.6522                                 
G 7  20998801.440   110349446.668                                  
G 8  22519491.640   118340654.723    22519493.000    88371263.938  
G 9  20382031.860   107108254.527    20382032.840    79983439.535  
G14  23386703.760   122897916.465                                  
G16  24431240.600   128387019.6452                                 
G27  23058618.160   121173797.121    23058619.280    90486925.566  
G28  23636311.600   124209628.4262                                 
G30  22245929.220   116903087.066    22245930.940    87297758.824  
E 2  23601917.540   124028892.762    23601922.520    92618971.008  
E 3  23560608.460   123811804.215    23560614.340    92456859.797  
E 5  26860047.920   141150453.230    26860055.520   105404545.828  
E 8  22682065.240   119195046.648    22682069.540    89009282.867  
E25  24181006.380   127072015.273    24181012.380    94891432.543  
E30  26297728.420   138195448.3522   26297735.460   103197886.1482 
> 2021  1  5 21 52 54.0000000  0 16       0.000000000000
G 4  22346464.320   117431433.836    22346468.040    87692310.766  
G 5  24417410.580   128314325.4572                                 
G 7  20998695.040   110348887.480                                  
G 8  22519139.680   118338805.184    22519141.060    88369882.793  
G 9  20382176.080   107109012.406    20382177.080    79984005.484  
G14  23386053.340   122894498.527                                  
G16  24431950.740   128390751.5122                                 
G27  23058648.980   121173959.063    23058650.100    90487046.496  
G28  23635663.540   124206222.8752                                 
G30  22245568.580   116901191.863    22245570.300    87296343.574  
E 2  23601729.240   124027903.301    23601734.240    92618232.125  
E 3  23560782.140   123812716.902    23560788.020    92457541.348  
E 5  26860564.320   141153166.852    26860571.900   105406572.234  
E 8  22681733.240   119193301.996    22681737.560    89007980.043  
E25  24181295.960   127073537.000    24181301.960    94892568.898  
E30  26297238.500   138192873.8052   26297245.540   103195963.5982 
> 2021  1  5 21 52 55.0000000  0 16       0.000000000000
G 4  22346966.620   117434073.430    22346970.360    87694281.887  
G 5  24417006.080   128312199.7582                                 
G 7  20998588.660   110348328.480                                  
G 8  22518787.820   118336956.133    22518789.200    88368502.008  
G 9  20382320.400   107109770.824    20382321.400    79984571.832  
G14  23385402.980   122891080.816                                  
G16  24432660.920   128394483.5162                                 
G27  23058679.920   121174121.676    23058681.040    90487167.930  
G28  23635015.540   124202817.5552                                 
G30  22245207.960   116899296.824    22245209.680    87294928.449  
E 2  23601541.020   124026914.176    23601546.000    92617493.496  
E 3  23560955.880   123813629.980    23560961.780    92458223.195  
E 5  26861080.740   141155880.648    26861088.320   105408598.770  
E 8  22681401.300   119191557.613    22681405.600    89006677.418  
E25  24181585.580   127075058.984    24181591.580    94893705.441  
E30  26296748.620   138190299.4182   26296755.660   103194041.1642 
> 2021  1  5 21 52 56.0000000  0 16       0.000000000000
G 4  22347469.000   117436713.363    22347472.720    87696253.266  
G 5  24416601.660   128310074.5662                                 
G 7  20998482.320   110347769.664                                  
G 8  22518436.040   118335107.570    22518437.420    88367121.586  
G 9  20382464.840   107110529.773    20382465.820    79985138.582  
G14  23384752.660   122887663.328                                  
G16  24433371.120   128398215.6332                                 
G27  23058711.000   121174284.949    23058712.120    90487289.852  
G28  23634367.560   124199412.4532                                 
G30  22244847.380   116897401.945    22244849.100    87293513.441  
E 2  23601352.860   124025925.391    23601357.840    92616755.117  
E 3  23561129.700   123814543.434    23561135.600    92458905.316  
E 5  26861597.180   141158594.598    26861604.760   105410625.418  
E 8  22681069.400   119189813.500    22681073.720    89005374.996  
E25  24181875.240   127076581.184    24181881.240    94894842.148  
E30  26296258.760   138187725.1882   26296265.800   103192118.8522 
> 2021  1  5 21 52 57.0000000  0 16       0.000000000000
G 4  22347971.420   117439353.645    22347975.140    87698224.906  
G 5  24416197.340   128307949.8752                                 
G 7  20998376.020   110347211.031                                  
G 8  22518084.380   118333259.500    22518085.740    88365741.535  
G 9  20382609.360   107111289.242    20382610.340    79985705.719  
G14  23384102.380   122884246.082                                  
G16  24434081.360   128401947.8792                                 
G27  23058742.200   121174448.895    23058743.320    90487412.281  
G28  23633719.640   124196007.5742                                 
G30  22244486.820   116895507.234    22244488.540    87292098.563  
E 2  23601164.760   124024936.949    23601169.760    92616016.996  
E 3  23561303.600   123815457.273    23561309.500    92459587.730  
E 5  26862113.660   141161308.723    26862121.240   105412652.195  
E 8  22680737.560   119188069.652    22680741.860    89004072.773  
E25  24182164.960   127078103.617    24182170.940    94895979.031  
E30  26295768.920   138185151.1212   26295775.960   103190196.6602 
> 2021  1  5 21 52 58.0000000  0 16       0.000000000000
G 4  22348473.920   117441994.273    22348477.640    87700196.801  
G 5  24415793.120   128305825.6762                                 
G 7  20998269.760   110346652.590                                  
G 8  22517732.800   118331411.922    22517734.160    88364361.848  
G 9  20382753.980   107112049.242    20382754.980    79986273.250  
G14  23383452.140   122880829.066                                  
G16  24434791.600   128405680.2502                                 
G27  23058773.520   121174613.512    23058774.640    90487535.207  
G28  23633071.760   124192602.9302                                 
G30  22244126.320   116893612.703    22244128.040    87290683.816  
E 2  23600976.740   124023948.863    23600981.720    92615279.141  
E 3  23561477.580   123816371.496    23561483.480    92460270.430  
E 5  26862630.180   141164023.000    26862637.760   105414679.094  
E 8  22680405.760   119186326.078    22680410.080    89002770.754  
E25  24182454.720   127079626.305    24182460.700    94897116.102  
E30  26295279.120   138182577.2072   26295286.160   103188274.5782 
> 2021  1  5 21 52 59.0000000  0 16       0.000000000000
G 4  22348976.480   117444635.246    22348980.200    87702168.953  
G 5  24415389.000   128303701.9842                                 
G 7  20998163.520   110346094.328                                  
G 8  22517381.300   118329564.824    22517382.680    88362982.523  
G 9  20382898.700   107112809.754    20382899.700    79986841.164  
G14  23382801.940   122877412.270                                  
G16  24435501.880   128409412.7502                                 
G27  23058804.980   121174778.793    23058806.100    90487658.629  
G28  23632423.920   124189198.5042                                 
G30  22243765.820   116891718.324    22243767.540    87289269.184  
E 2  23600788.780   124022961.113    23600793.760    92614541.531  
E 3  23561651.620   123817286.102    23561657.520    92460953.414  
E 5  26863146.720   141166737.438    26863154.300   105416706.105  
E 8  22680074.020   119184582.777    22680078.340    89001468.938  
E25  24182744.520   127081149.219    24182750.500    94898253.344  
E30  26294789.360   138180003.4612   26294796.400   103186352.6252 
> 2021  1  5 21 53  0.0000000  0 16       0.000000000000
G 4  22349479.100   117447276.555    22349482.840    87704141.359  
G 5  24414984.980   128301578.7932                                 
G 7  20998057.340   110345536.266                                  
G 8  22517029.900   118327718.227    22517031.280    88361603.574  
G 9  20383043.540   107113570.805    20383044.520    79987409.480  
G14  23382151.800   122873995.707                                  
G16  24436212.180   128413145.3592                                 
G27  23058836.560   121174944.746    23058837.680    90487782.559  
G28  23631776.120   124185794.2892                                 
G30  22243405.360   116889824.113    22243407.080    87287854.676  
E 2  23600600.880   124021973.691    23600605.860    92613804.172  
E 3  23561825.740   123818201.086    23561831.640    92461636.680  
E 5  26863663.280   141169452.047    26863670.880   105418733.246  
E 8  22679742.340   119182839.723    22679746.640    89000167.305  
E25  24183034.360   127082672.367    24183040.360    94899390.758  
E30  26294299.620   138177429.8672   26294306.660   103184430.7892 
> 2021  1  5 21 53  1.0000000  0 16       0.000000000000
G 4  22349981.800   117449918.207    22349985.520    87706114.020  
G 5  24414581.040   128299456.0942                                 
G 7  20997951.180   110344978.379                                  
G 8  22516678.600   118325872.129    22516679.980    88360224.992  
G 9  20383188.460   107114332.379    20383189.440    79987978.188  
G14  23381501.700   122870579.375                                  
G16  24436922.500   128416878.1092                                 
G27  23058868.260   121175111.348    23058869.380    90487906.969  
G28  23631128.360   124182390.3132                                 
G30  22243044.940   116887930.066    22243046.660    87286440.289  
E 2  23600413.040   124020986.609    23600418.020    92613067.066  
E 3  23561999.920   123819116.457    23562005.820    92462320.238  
E 5  26864179.900   141172166.816    26864187.480   105420760.508  
E 8  22679410.700   119181096.957    22679415.000    88998865.891  
E25  24183324.260   127084195.762    24183330.240    94900528.359  
E30  26293809.920   138174856.4382   26293816.940   103182509.0742 
> 2021  1  5 21 53  2.0000000  0 16       0.000000000000
G 4  22350484.560   117452560.219    22350488.280    87708086.965  
G 5  24414177.200   128297333.8672                                 
G 7  20997845.040   110344420.688                                  
G 8  22516327.400   118324026.520    22516328.780    88358846.770  
G 9  20383333.480   107115094.480    20383334.460    79988547.293  
G14  23380851.640   122867163.309                                  
G16  24437632.840   128420610.9342                                 
G27  23058900.100   121175278.629    23058901.220    90488031.879  
G28  23630480.660   124178986.5592                                 
G30  22242684.560   116886036.184    22242686.280    87285026.023  
E 2  23600225.260   124019999.879    23600230.260    92612330.223  
E 3  23562174.180   123820032.219    23562180.080    92463004.086  
E 5  26864696.520   141174881.773    26864704.100   105422787.926  
E 8  22679079.100   119179354.465    22679083.420    88997564.691  
E25  24183614.180   127085719.375    24183620.180    94901666.121  
E30  26293320.240   138172283.1722   26293327.260   103180587.4802 
> 2021  1  5 21 53  3.0000000  0 16       0.000000000000
G 4  22350987.380   117455202.566    22350991.100    87710060.145  
G 5  24413773.460   128295212.1682                                 
G 7  20997738.960   110343863.164                                  
G 8  22515976.300   118322181.414    22515977.680    88357468.934  
G 9  20383478.600   107115857.113    20383479.600    79989116.793  
G14  23380201.620   122863747.438                                  
G16  24438343.220   128424343.9222                                 
G27  23058932.060   121175446.578    23058933.180    90488157.297  
G28  23629832.980   124175583.0002                                 
G30  22242324.200   116884142.469    22242325.920    87283611.891  
E 2  23600037.560   124019013.477    23600042.560    92611593.625  
E 3  23562348.520   123820948.352    23562354.420    92463688.215  
E 5  26865213.180   141177596.875    26865220.780   105424815.438  
E 8  22678747.580   119177612.230    22678751.880    88996263.672  
E25  24183904.160   127087243.242    24183910.160    94902804.074  
E30  26292830.580   138169710.0632   26292837.620   103178666.0042 
> 2021  1  5 21 53  4.0000000  0 16       0.000000000000
G 4  22351490.260   117457845.246    22351494.000    87712033.574  
G 5  24413369.820   128293090.9692                                 
G 7  20997632.900   110343305.836                                  
G 8  22515625.280   118320336.766    22515626.660    88356091.434  
G 9  20383623.840   107116620.270    20383624.820    79989686.684  
G14  23379551.640   122860331.797                                  
G16  24439053.600   128428077.0392                                 
G27  23058964.160   121175615.191    23058965.280    90488283.207  
G28  23629185.360   124172179.6992                                 
G30  22241963.860   116882248.930    22241965.580    87282197.883  
E 2  23599849.920   124018027.422    23599854.920    92610857.285  
E 3  23562522.940   123821864.863    23562528.820    92464372.621  
E 5  26865729.880   141180312.137    26865737.480   105426843.066  
E 8  22678416.080   119175870.266    22678420.400    88994962.852  
E25  24184194.200   127088767.316    24184200.180    94903942.180  
E30  26292340.960   138167137.1172   26292348.000   103176744.6482 
> 2021  1  5 21 53  5.0000000  0 16       0.000000000000
G 4  22351993.220   117460488.277    22351996.940    87714007.266  
G 5  24412966.260   128290970.2662                                 
G 7  20997526.880   110342748.688                                  
G 8  22515274.340   118318492.617    22515275.720    88354714.313  
G 9  20383769.160   107117383.953    20383770.140    79990256.965  
G14  23378901.720   122856916.395                                  
G16  24439764.020   128431810.2772                                 
G27  23058996.380   121175784.488    23058997.500    90488409.629  
G28  23628537.760   124168776.5982                                 
G30  22241603.560   116880355.547    22241605.280    87280783.992  
E 2  23599662.340   124017041.703    23599667.340    92610121.199  
E 3  23562697.420   123822781.762    23562703.300    92465057.316  
E 5  26866246.620   141183027.555    26866254.200   105428870.813  
E 8  22678084.640   119174128.555    22678088.960    88993662.223  
E25  24184484.260   127090291.645    24184490.260    94905080.477  
E30  26291851.380   138164564.3202   26291858.420   103174823.4062 
> 2021  1  5 21 53  6.0000000  0 16       0.000000000000
G 4  22352496.240   117463131.637    22352499.960    87715981.203  
G 5  24412562.800   128288850.0702                                 
G 7  20997420.900   110342191.727                                  
G 8  22514923.520   118316648.953    22514924.880    88353337.551  
G 9  20383914.580   107118148.160    20383915.560    79990827.637  
G14  23378251.820   122853501.215                                  
G16  24440474.460   128435543.6602                                 
G27  23059028.720   121175954.457    23059029.840    90488536.555  
G28  23627890.220   124165373.7232                                 
G30  22241243.300   116878462.320    22241245.020    87279370.223  
E 2  23599474.840   124016056.324    23599479.820    92609385.363  
E 3  23562871.960   123823699.043    23562877.860    92465742.297  
E 5  26866763.380   141185743.129    26866770.960   105430898.672  
E 8  22677753.260   119172387.121    22677757.580    88992361.805  
E25  24184774.380   127091816.203    24184780.360    94906218.949  
E30  26291361.820   138161991.6952   26291368.860   103172902.2932 
> 2021  1  5 21 53  7.0000000  0 16       0.000000000000
G 4  22352999.320   117465775.352    22353003.040    87717955.402  
G 5  24412159.440   128286730.3442                                 
G 7  20997314.940   110341634.953                                  
G 8  22514572.760   118314805.777    22514574.140    88351961.156  
G 9  20384060.100   107118912.891    20384061.100    79991398.703  
G14  23377601.980   122850086.270                                  
G16  24441184.920   128439277.1602                                 
G27  23059061.180   121176125.074    23059062.300    90488663.961  
G28  23627242.720   124161971.0782                                 
G30  22240883.060   116876569.258    22240884.780    87277956.570  
E 2  23599287.380   124015071.285    23599292.380    92608649.781  
E 3  23563046.580   123824616.699    23563052.480    92466427.563  
E 5  26867280.160   141188458.871    26867287.740   105432926.660  
E 8  22677421.940   119170645.961    22677426.240    88991061.586  
E25  24185064.540   127093341.000    24185070.520    94907357.594  
E30  26290872.300   138159419.2272   26290879.340   103170981.2932 
> 2021  1  5 21 53  8.0000000  0 16       0.000000000000
G 4  22353502.480   117468419.395    22353506.200    87719929.848  
G 5  24411756.160   128284611.1482                                 
G 7  20997209.040   110341078.367                                  
G 8  22514222.120   118312963.098    22514223.500    88350585.129  
G 9  20384205.740   107119678.137    20384206.720    79991970.156  
G14  23376952.180   122846671.555                                  
G16  24441895.400   128443010.7772                                 
G27  23059093.780   121176296.355    23059094.900    90488791.867  
G28  23626595.260   124158568.6522                                 
G30  22240522.860   116874676.375    22240524.580    87276543.055  
E 2  23599100.000   124014086.586    23599105.000    92607914.453  
E 3  23563221.280   123825534.742    23563227.180    92467113.113  
E 5  26867796.980   141191174.777    26867804.580   105434954.770  
E 8  22677090.660   119168905.063    22677094.960    88989761.566  
E25  24185354.740   127094866.039    24185360.740    94908496.422  
E30  26290382.800   138156846.9062   26290389.840   103169060.4022 
> 2021  1  5 21 53  9.0000000  0 16       0.000000000000
G 4  22354005.680   117471063.789    22354009.420    87721904.559  
G 5  24411353.000   128282492.4452                                 
G 7  20997103.160   110340521.973                                  
G 8  22513871.560   118311120.910    22513872.940    88349209.469  
G 9  20384351.460   107120443.926    20384352.440    79992542.012  
G14  23376302.440   122843257.066                                  
G16  24442605.920   128446744.5202                                 
G27  23059126.500   121176468.309    23059127.620    90488920.273  
G28  23625947.840   124155166.4612                                 
G30  22240162.680   116872783.637    22240164.400    87275129.645  
E 2  23598912.700   124013102.230    23598917.680    92607179.383  
E 3  23563396.060   123826453.168    23563401.960    92467798.949  
E 5  26868313.840   141193890.855    26868321.420   105436983.008  
E 8  22676759.420   119167164.430    22676763.720    88988461.742  
E25  24185644.980   127096391.309    24185650.980    94909635.422  
E30  26289893.340   138154274.7542   26289900.380   103167139.6412 
> 2021  1  5 21 53 10.0000000  0 16       0.000000000000
G 4  22354508.960   117473708.535    22354512.700    87723879.531  
G 5  24410949.920   128280374.2542                                 
G 7  20996997.320   110339965.754                                  
G 8  22513521.100   118309279.207    22513522.480    88347834.168  
G 9  20384497.280   107121210.242    20384498.280    79993114.258  
G14  23375652.720   122839842.824                                  
G16  24443316.460   128450478.3792                                 
G27  23059159.360   121176640.934    23059160.480    90489049.184  
G28  23625300.480   124151764.4962                                 
G30  22239802.540   116870891.074    22239804.260    87273716.371  
E 2  23598725.440   124012118.203    23598730.420    92606444.559  
E 3  23563570.900   123827371.980    23563576.800    92468485.074  
E 5  26868830.720   141196607.098    26868838.300   105439011.371  
E 8  22676428.240   119165424.078    22676432.540    88987162.129  
E25  24185935.280   127097916.813    24185941.280    94910774.594  
E30  26289403.920   138151702.7812   26289410.940   103165219.0162 
> 2021  1  5 21 53 11.0000000  0 16       0.000000000000
G 4  22355012.320   117476353.621    22355016.040    87725854.754  
G 5  24410546.940   128278256.5512                                 
G 7  20996891.500   110339409.727                                  
G 8  22513170.740   118307437.996    22513172.100    88346459.242  
G 9  20384643.220   107121977.094    20384644.200    79993686.906  
G14  23375003.060   122836428.816                                  
G16  24444027.000   128454212.3672                                 
G27  23059192.340   121176814.234    23059193.460    90489178.594  
G28  23624653.140   124148362.7542                                 
G30  22239442.440   116868998.684    22239444.160    87272303.219  
E 2  23598538.240   124011134.535    23598543.240    92605710.000  
E 3  23563745.820   123828291.176    23563751.720    92469171.488  
E 5  26869347.640   141199323.496    26869355.220   105441039.848  
E 8  22676097.120   119163683.984    22676101.420    88985862.711  
E25  24186225.620   127099442.551    24186231.620    94911913.945  
E30  26288914.500   138149130.9382   26288921.540   103163298.4842 
> 2021  1  5 21 53 12.0000000  0 16       0.000000000000
G 4  22355515.720   117478999.043    22355519.440    87727830.234  
G 5  24410144.040   128276139.3672                                 
G 7  20996785.740   110338853.891                                  
G 8  22512820.460   118305597.277    22512821.840    88345084.680  
G 9  20384789.240   107122744.469    20384790.220    79994259.945  
G14  23374353.440   122833015.020                                  
G16  24444737.580   128457946.4842                                 
G27  23059225.440   121176988.203    23059226.560    90489308.508  
G28  23624005.860   124144961.2232                                 
G30  22239082.360   116867106.445    22239084.080    87270890.188  
E 2  23598351.120   124010151.199    23598356.120    92604975.691  
E 3  23563920.800   123829210.746    23563926.700    92469858.180  
E 5  26869864.580   141202040.047    26869872.160   105443068.438  
E 8  22675766.040   119161944.168    22675770.340    88984563.496  
E25  24186516.000   127100968.520    24186522.000    94913053.469  
E30  26288425.140   138146559.2732   26288432.160   103161378.0862 
> 2021  1  5 21 53 13.0000000  0 16       0.000000000000
G 4  22356019.200   117481644.801    22356022.920    87729805.961  
G 5  24409741.260   128274022.6762                                 
G 7  20996680.000   110338298.234                                  
G 8  22512470.260   118303757.023    22512471.640    88343710.465  
G 9  20384935.360   107123512.352    20384936.360    79994833.367  
G14  23373703.860   122829601.457                                  
G16  24445448.200   128461680.7192                                 
G27  23059258.680   121177162.824    23059259.800    90489438.910  
G28  23623358.620   124141559.9262                                 
G30  22238722.320   116865214.375    22238724.040    87269477.281  
E 2  23598164.060   124009168.191    23598169.060    92604241.629  
E 3  23564095.860   123830130.699    23564101.760    92470545.160  
E 5  26870381.560   141204756.773    26870389.140   105445097.164  
E 8  22675435.000   119160204.602    22675439.320    88983264.469  
E25  24186806.440   127102494.719    24186812.420    94914193.160  
E30  26287935.780   138143987.7622   26287942.820   103159457.8012 
> 2021  1  5 21 53 14.0000000  0 16       0.000000000000
G 4  22356522.740   117484290.910    22356526.460    87731781.953  
G 5  24409338.560   128271906.4962                                 
G 7  20996574.300   110337742.766                                  
G 8  22512120.180   118301917.258    22512121.560    88342336.617  
G 9  20385081.600   107124280.777    20385082.580    79995407.191  
G14  23373054.340   122826188.1482                                 
G16  24446158.820   128465415.0782                                 
G27  23059292.040   121177338.113    23059293.160    90489569.809  
G28  23622711.420   124138158.8482                                 
G30  22238362.300   116863322.477    22238364.020    87268064.500  
E 2  23597977.080   124008185.543    23597982.060    92603507.832  
E 3  23564271.000   123831051.039    23564276.900    92471232.422  
E 5  26870898.560   141207473.641    26870906.140   105447125.992  
E 8  22675104.040   119158465.313    22675108.340    88981965.652  
E25  24187096.900   127104021.160    24187102.900    94915333.039  
E30  26287446.480   138141416.4262   26287453.520   103157537.6452 
> 2021  1  5 21 53 15.0000000  0 16       0.000000000000
G 4  22357026.340   117486937.359    22357030.060    87733758.195  
G 5  24408935.960   128269790.8092                                 
G 7  20996468.640   110337187.488                                  
G 8  22511770.180   118300077.980    22511771.540    88340963.129  
G 9  20385227.920   107125049.719    20385228.920    79995981.402  
G14  23372404.840   122822775.0512                                 
G16  24446869.460   128469149.5512                                 
G27  23059325.520   121177514.082    23059326.640    90489701.215  
G28  23622064.260   124134757.9882                                 
G30  22238002.320   116861430.738    22238004.040    87266651.836  
E 2  23597790.140   124007203.223    23597795.140    92602774.281  
E 3  23564446.220   123831971.762    23564452.100    92471919.977  
E 5  26871415.600   141210190.707    26871423.200   105449154.969  
E 8  22674773.100   119156726.297    22674777.420    88980667.035  
E25  24187387.420   127105547.852    24187393.420    94916473.098  
E30  26286957.200   138138845.2342   26286964.240   103155617.6022 
> 2021  1  5 21 53 16.0000000  0 16       0.000000000000
G 4  22357530.000   117489584.152    22357533.740    87735734.695  
G 5  24408533.460   128267675.6252                                 
G 7  20996363.000   110336632.387                                  
G 8  22511420.260   118298239.203    22511421.640    88339590.020  
G 9  20385374.360   107125819.195    20385375.340    79996556.008  
G14  23371755.400   122819362.1882                                 
G16  24447580.140   128472884.1452                                 
G27  23059359.140   121177690.715    23059360.260    90489833.113  
G28  23621417.140   124131357.3712                                 
G30  22237642.360   116859539.180    22237644.080    87265239.309  
E 2  23597603.280   124006221.246    23597608.260    92602040.988  
E 3  23564621.500   123832892.867    23564627.380    92472607.813  
E 5  26871932.660   141212907.910    26871940.260   105451184.047  
E 8  22674442.240   119154987.555    22674446.540    88979368.625  
E25  24187677.980   127107074.750    24187683.980    94917613.313  
E30  26286467.940   138136274.2032   26286474.980   103153697.6762 
> 2021  1  5 21 53 17.0000000  0 16       0.000000000000
G 4  22358033.740   117492231.289    22358037.480    87737711.453  
G 5  24408131.040   128265560.9452                                 
G 7  20996257.420   110336077.473                                  
G 8  22511070.460   118296400.930    22511071.840    88338217.281  
G 9  20385520.880   107126589.188    20385521.860    79997131.004  
G14  23371106.000   122815949.5592                                 
G16  24448290.840   128476618.8752                                 
G27  23059392.880   121177868.008    23059394.000    90489965.508  
G28  23620770.060   124127956.9572                                 
G30  22237282.440   116857647.770    22237284.160    87263826.895  
E 2  23597416.480   124005239.609    23597421.460    92601307.949  
E 3  23564796.840   123833814.352    23564802.740    92473295.934  
E 5  26872449.760   141215625.289    26872457.360   105453213.254  
E 8  22674111.420   119153249.082    22674115.720    88978070.414  
E25  24187968.600   127108601.910    24187974.580    94918753.727  
E30  26285978.720   138133703.3362   26285985.760   103151777.8752 
> 2021  1  5 21 53 18.0000000  0 16       0.000000000000
G 4  22358537.540   117494878.762    22358541.280    87739688.461  
G 5  24407728.740   128263446.7662                                 
G 7  20996151.860   110335522.746                                  
G 8  22510720.740   118294563.141    22510722.120    88336844.906  
G 9  20385667.500   107127359.723    20385668.500    79997706.402  
G14  23370456.640   122812537.1562                                 
G16  24449001.560   128480353.7112                                 
G27  23059426.740   121178045.980    23059427.860    90490098.410  
G28  23620123.020   124124556.7702                                 
G30  22236922.560   116855756.531    22236924.280    87262414.605  
E 2  23597229.740   124004258.320    23597234.740    92600575.168  
E 3  23564972.280   123834736.223    23564978.160    92473984.348  
E 5  26872966.900   141218342.832    26872974.500   105455242.590  
E 8  22673780.640   119151510.875    22673784.960    88976772.402  
E25  24188259.240   127110129.293    24188265.240    94919894.305  
E30  26285489.540   138131132.6212   26285496.560   103149858.1842 
> 2021  1  5 21 53 19.0000000  0 16       0.000000000000
G 4  22359041.420   117497526.582    22359045.140    87741665.730  
G 5  24407326.520   128261333.0822                                 
G 7  20996046.320   110334968.199                                  
G 8  22510371.120   118292725.848    22510372.500    88335472.906  
G 9  20385814.240   107128130.766    20385815.220    79998282.180  
G14  23369807.320   122809124.9842                                 
G16  24449712.300   128484088.6762                                 
G27  23059460.740   121178224.609    23059461.860    90490231.801  
G28  23619476.040   124121156.8132                                 
G30  22236562.700   116853865.449    22236564.420    87261002.438  
E 2  23597043.080   124003277.352    23597048.060    92599842.625  
E 3  23565147.760   123835658.473    23565153.660    92474673.039  
E 5  26873484.060   141221060.531    26873491.660   105457272.039  
E 8  22673449.920   119149772.934    22673454.240    88975474.590  
E25  24188549.940   127111656.902    24188555.940    94921035.051  
E30  26285000.380   138128562.0862   26285007.420   103147938.6292 
> 2021  1  5 21 53 20.0000000  0 16       0.000000000000
G 4  22359545.340   117500174.742    22359549.080    87743643.250  
G 5  24406924.380   128259219.8982                                 
G 7  20995940.840   110334413.848                                  
G 8  22510021.580   118290889.047    22510022.960    88334101.270  
G 9  20385961.060   107128902.348    20385962.060    79998858.363  
G14  23369158.060   122805713.0392                                 
G16  24450423.060   128487823.7702                                 
G27  23059494.860   121178403.898    23059495.980    90490365.688  
G28  23618829.100   124117757.0742                                 
G30  22236202.860   116851974.547    22236204.580    87259590.398  
E 2  23596856.480   124002296.730    23596861.460    92599110.344  
E 3  23565323.340   123836581.094    23565329.240    92475362.008  
E 5  26874001.260   141223778.367    26874008.840   105459301.590  
E 8  22673119.260   119148035.258    22673123.560    88974176.973  
E25  24188840.680   127113184.754    24188846.680    94922175.980  
E30  26284511.240   138125991.6882   26284518.280   103146019.1762 
> 2021  1  5 21 53 21.0000000  0 16       0.000000000000
G 4  22360049.340   117502823.254    22360053.060    87745621.031  
G 5  24406522.360   128257107.2192                                 
G 7  20995835.380   110333859.672                                  
G 8  22509672.140   118289052.730    22509673.520    88332729.992  
G 9  20386108.000   107129674.453    20386108.980    79999434.934  
G14  23368508.840   122802301.3522                                 
G16  24451133.860   128491558.9772                                 
G27  23059529.100   121178583.871    23059530.220    90490500.082  
G28  23618182.200   124114357.5632                                 
G30  22235843.080   116850083.789    22235844.780    87258178.469  
E 2  23596669.940   124001316.461    23596674.920    92598378.324  
E 3  23565498.980   123837504.121    23565504.880    92476051.281  
E 5  26874518.480   141226496.402    26874526.060   105461331.289  
E 8  22672788.640   119146297.859    22672792.940    88972879.570  
E25  24189131.460   127114712.840    24189137.460    94923317.082  
E30  26284022.160   138123421.4802   26284029.180   103144099.8632 
> 2021  1  5 21 53 23.0000000  0 16       0.000000000000
G 4  22361057.520   117508121.281    22361061.260    87749577.352  
G 5  24405718.600   128252883.3712                                 
G 7  20995624.580   110332751.891                                  
G 8  22508973.540   118285381.555    22508974.920    88329988.531  
G 9  20386402.140   107131220.234    20386403.140    80000589.254  
G14  23367210.520   122795478.6372                                 
G16  24452555.500   128499029.7422                                 
G27  23059597.980   121178945.820    23059599.100    90490770.367  
G28  23616888.520   124107559.2232                                 
G30  22235123.580   116846302.789    22235125.300    87255354.996  
E 2  23596297.040   123999356.922    23596302.020    92596915.031  
E 3  23565850.500   123839351.289    23565856.380    92477430.660  
E 5  26875553.020   141231932.922    26875560.600   105465391.023  
E 8  22672127.560   119142823.859    22672131.860    88970285.348  
E25  24189713.160   127117769.707    24189719.160    94925599.805  
E30  26283044.040   138118281.5002   26283051.080   103140261.5702 
> 2021  1  5 21 53 24.0000000  0 16       0.000000000000
G 4  22361561.720   117510770.809    22361565.440    87751555.891  
G 5  24405316.840   128250772.1912                                 
G 7  20995519.240   110332198.270                                  
G 8  22508624.380   118283546.691    22508625.760    88328618.344  
G 9  20386549.380   107131993.930    20386550.360    80001167.012  
G14  23366561.420   122792067.6212                                 
G16  24453266.360   128502765.3162                                 
G27  23059632.620   121179127.801    23059633.740    90490906.262  
G28  23616241.740   124104160.3792                                 
G30  22234763.880   116844412.539    22234765.580    87253943.445  
E 2  23596110.700   123998377.664    23596115.680    92596183.770  
E 3  23566026.360   123840275.453    23566032.240    92478120.781  
E 5  26876070.340   141234651.430    26876077.920   105467421.078  
E 8  22671797.100   119141087.258    22671801.400    88968988.535  
E25  24190004.080   127119298.496    24190010.080    94926741.434  
E30  26282555.040   138115711.7582   26282562.080   103138342.6092 
> 2021  1  5 21 53 25.0000000  0 16       0.000000000000
G 4  22362065.980   117513420.684    22362069.700    87753534.695  
G 5  24404915.200   128248661.5162                                 
G 7  20995413.920   110331644.840                                  
G 8  22508275.320   118281712.332    22508276.700    88327248.531  
G 9  20386696.720   107132768.148    20386697.700    80001745.160  
G14  23365912.380   122788656.8322                                 
G16  24453977.240   128506501.0162                                 
G27  23059667.380   121179310.434    23059668.500    90491042.645  
G28  23615595.000   124100761.7732                                 
G30  22234404.200   116842522.445    22234405.920    87252532.012  
E 2  23595924.420   123997398.738    23595929.400    92595452.754  
E 3  23566202.280   123841199.996    23566208.180    92478811.188  
E 5  26876587.680   141237370.090    26876595.260   105469451.246  
E 8  22671466.680   119139350.934    22671470.980    88967691.926  
E25  24190295.040   127120827.520    24190301.040    94927883.234  
E30  26282066.060   138113142.1762   26282073.100   103136423.7622 
> 2021  1  5 21 53 26.0000000  0 16       0.000000000000
G 4  22362570.300   117516070.902    22362574.020    87755513.750  
G 5  24404513.660   128246551.3522                                 
G 7  20995308.660   110331091.609                                  
G 8  22507926.340   118279878.465    22507927.720    88325879.086  
G 9  20386844.140   107133542.898    20386845.140    80002323.707  
G14  23365263.380   122785246.3012                                 
G16  24454688.140   128510236.8482                                 
G27  23059702.260   121179493.746    23059703.380    90491179.535  
G28  23614948.320   124097363.3872                                 
G30  22234044.560   116840632.523    22234046.280    87251120.707  
E 2  23595738.200   123996420.168    23595743.180    92594722.000  
E 3  23566378.300   123842124.922    23566384.200    92479501.879  
E 5  26877105.060   141240088.930    26877112.640   105471481.547  
E 8  22671136.320   119137614.891    22671140.640    88966395.535  
E25  24190586.060   127122356.777    24190592.060    94929025.215  
E30  26281577.120   138110572.7542   26281584.160   103134505.0392 
> 2021  1  5 21 53 27.0000000  0 16       0.000000000000
G 4  22363074.680   117518721.457    22363078.420    87757493.063  
G 5  24404112.200   128244441.6722                                 
G 7  20995203.420   110330538.559                                  
G 8  22507577.460   118278045.078    22507578.840    88324509.996  
G 9  20386991.680   107134318.160    20386992.660    80002902.637  
G14  23364614.420   122781835.9882                                 
G16  24455399.080   128513972.8012                                 
G27  23059737.280   121179677.723    23059738.400    90491316.918  
G28  23614301.660   124093965.2302                                 
G30  22233684.960   116838742.770    22233686.680    87249709.531  
E 2  23595552.040   123995441.926    23595557.040    92593991.496  
E 3  23566554.380   123843050.238    23566560.280    92480192.859  
E 5  26877622.460   141242807.926    26877630.060   105473511.965  
E 8  22670806.020   119135879.109    22670810.320    88965099.332  
E25  24190877.100   127123886.262    24190883.100    94930167.363  
E30  26281088.200   138108003.4962   26281095.240   103132586.4412 
> 2021  1  5 21 53 28.0000000  0 16       0.000000000000
G 4  22363579.140   117521372.352    22363582.860    87759472.625  
G 5  24403710.840   128242332.4962                                 
G 7  20995098.200   110329985.688                                  
G 8  22507228.680   118276212.195    22507230.060    88323141.285  
G 9  20387139.300   107135093.965    20387140.300    80003481.969  
G14  23363965.500   122778425.9022                                 
G16  24456110.040   128517708.8712                                 
G27  23059772.420   121179862.367    23059773.520    90491454.801  
G28  23613655.060   124090567.2892                                 
G30  22233325.380   116836853.176    22233327.100    87248298.469  
E 2  23595365.960   123994464.023    23595370.940    92593261.246  
E 3  23566730.520   123843975.918    23566736.420    92480884.113  
E 5  26878139.900   141245527.086    26878147.500   105475542.504  
E 8  22670475.760   119134143.582    22670480.060    88963803.324  
E25  24191168.200   127125415.980    24191174.200    94931309.684  
E30  26280599.320   138105434.3792   26280606.360   103130667.9412 
> 2021  1  5 21 53 29.0000000  0 16       0.000000000000
G 4  22364083.640   117524023.586    22364087.380    87761452.441  
G 5  24403309.580   128240223.8362                                 
G 7  20994993.040   110329433.008                                  
G 8  22506880.000   118274379.801    22506881.360    88321772.941  
G 9  20387287.040   107135870.285    20387288.020    80004061.691  
G14  23363316.620   122775016.0552                                 
G16  24456821.000   128521445.0662                                 
G27  23059807.680   121180047.680    23059808.800    90491593.184  
G28  23613008.500   124087169.5782                                 
G30  22232965.840   116834963.754    22232967.560    87246887.535  
E 2  23595179.940   123993486.461    23595184.920    92592531.246  
E 3  23566906.760   123844901.996    23566912.660    92481575.668  
E 5  26878657.380   141248246.406    26878664.960   105477573.164  
E 8  22670145.560   119132408.348    22670149.860    88962507.531  
E25  24191459.340   127126945.941    24191465.340    94932452.188  
E30  26280110.460   138102865.4342   26280117.500   103128749.5782 
> 2021  1  5 21 53 30.0000000  0 16       0.000000000000
G 4  22364588.240   117526675.172    22364591.960    87763432.520  
G 5  24402908.400   128238115.6682                                 
G 7  20994887.900   110328880.516                                  
G 8  22506531.400   118272547.898    22506532.760    88320404.961  
G 9  20387434.860   107136647.125    20387435.860    80004641.797  
G14  23362667.800   122771606.4452                                 
G16  24457532.000   128525181.3792                                 
G27  23059843.060   121180233.656    23059844.180    90491732.063  
G28  23612361.980   124083772.1052                                 
G30  22232606.320   116833074.492    22232608.040    87245476.727  
E 2  23594993.980   123992509.234    23594998.960    92591801.500  
E 3  23567083.060   123845828.449    23567088.940    92482267.500  
E 5  26879174.880   141250965.883    26879182.460   105479603.941  
E 8  22669815.400   119130673.367    22669819.700    88961211.930  
E25  24191750.540   127128476.129    24191756.520    94933594.859  
E30  26279621.640   138100296.6682   26279628.680   103126831.3402 
> 2021  1  5 21 53 31.0000000  0 16       0.000000000000
G 4  22365092.880   117529327.090    22365096.600    87765412.848  
G 5  24402507.320   128236008.0082                                 
G 7  20994782.800   110328328.203                                  
G 8  22506182.880   118270716.469    22506184.260    88319037.340  
G 9  20387582.800   107137424.504    20387583.780    80005222.309  
G14  23362019.020   122768197.0552                                 
G16  24458243.020   128528917.8092                                 
G27  23059878.580   121180420.305    23059879.700    90491871.441  
G28  23611715.500   124080374.8442                                 
G30  22232246.840   116831185.391    22232248.560    87244066.035  
E 2  23594808.080   123991532.355    23594813.060    92591072.012  
E 3  23567259.420   123846755.285    23567265.320    92482959.617  
E 5  26879692.400   141253685.523    26879700.000   105481634.840  
E 8  22669485.300   119128938.656    22669489.600    88959916.527  
E25  24192041.760   127130006.559    24192047.760    94934737.711  
E30  26279132.860   138097728.0392   26279139.880   103124913.2112 
> 2021  1  5 21 53 32.0000000  0 16       0.000000000000
G 4  22365597.580   117531979.355    22365601.320    87767393.434  
G 5  24402106.340   128233900.8442                                 
G 7  20994677.740   110327776.078                                  
G 8  22505834.480   118268885.547    22505835.840    88317670.090  
G 9  20387730.840   107138202.406    20387731.820    80005803.211  
G14  23361370.280   122764787.9062                                 
G16  24458954.080   128532654.3592                                 
G27  23059914.240   121180607.613    23059915.360    90492011.316  
G28  23611069.080   124076977.7972                                 
G30  22231887.400   116829296.461    22231889.100    87242655.473  
E 2  23594622.240   123990555.813    23594627.240    92590342.777  
E 3  23567435.860   123847682.504    23567441.760    92483652.020  
E 5  26880209.960   141256405.332    26880217.560   105483665.863  
E 8  22669155.240   119127204.219    22669159.540    88958621.332  
E25  24192333.040   127131537.211    24192339.040    94935880.730  
E30  26278644.100   138095159.5862   26278651.120   103122995.2112 
> 2021  1  5 21 53 33.0000000  0 16       0.000000000000
G 4  22366102.360   117534631.965    22366106.100    87769374.277  
G 5  24401705.460   128231794.1952                                 
G 7  20994572.720   110327224.148                                  
G 8  22505486.160   118267055.129    22505487.540    88316303.219  
G 9  20387878.960   107138980.832    20387879.960    80006384.500  
G14  23360721.580   122761378.9962                                 
G16  24459665.140   128536391.0392                                 
G27  23059950.000   121180795.602    23059951.120    90492151.695  
G28  23610422.680   124073580.9962                                 
G30  22231527.980   116827407.695    22231529.680    87241245.027  
E 2  23594436.480   123989579.621    23594441.460    92589613.801  
E 3  23567612.380   123848610.113    23567618.280    92484344.715  
E 5  26880727.560   141259125.293    26880735.160   105485697.000  
E 8  22668825.240   119125470.047    22668829.540    88957326.336  
E25  24192624.360   127133068.109    24192630.360    94937023.934  
E30  26278155.360   138092591.2852   26278162.400   103121077.3242 
> 2021  1  5 21 53 34.0000000  0 16       0.000000000000
G 4  22366607.200   117537284.906    22366610.940    87771355.371  
G 5  24401304.680   128229688.0352                                 
G 7  20994467.720   110326672.391                                  
G 8  22505137.940   118265225.207    22505139.320    88314936.719  
G 9  20388027.200   107139759.781    20388028.180    80006966.184  
G14  23360072.940   122757970.3162                                 
G16  24460376.240   128540127.8242                                 
G27  23059985.920   121180984.254    23059987.020    90492292.574  
G28  23609776.340   124070184.4142                                 
G30  22231168.580   116825519.094    22231170.300    87239834.711  
E 2  23594250.780   123988603.758    23594255.760    92588885.074  
E 3  23567788.980   123849538.098    23567794.880    92485037.691  
E 5  26881245.180   141261845.430    26881252.780   105487728.270  
E 8  22668495.280   119123736.152    22668499.600    88956031.543  
E25  24192915.720   127134599.246    24192921.720    94938167.316  
E30  26277666.660   138090023.1482   26277673.680   103119159.5592 
> 2021  1  5 21 53 35.0000000  0 16       0.000000000000
G 4  22367112.120   117539938.195    22367115.840    87773336.723  
G 5  24400904.000   128227582.3872                                 
G 7  20994362.760   110326120.832                                  
G 8  22504789.820   118263395.770    22504791.180    88313570.582  
G 9  20388175.520   107140539.270    20388176.520    80007548.270  
G14  23359424.320   122754561.8672                                 
G16  24461087.340   128543864.7342                                 
G27  23060021.940   121181173.570    23060023.060    90492433.945  
G28  23609130.040   124066788.0552                                 
G30  22230809.220   116823630.656    22230810.940    87238424.512  
E 2  23594065.140   123987628.230    23594070.140    92588156.594  
E 3  23567965.640   123850466.473    23567971.540    92485730.957  
E 5  26881762.840   141264565.7152   26881770.440   105489759.6482 
E 8  22668165.380   119122002.523    22668169.700    88954736.949  
E25  24193207.140   127136130.602    24193213.120    94939310.859  
E30  26277178.000   138087455.1842   26277185.020   103117241.9222 
> 2021  1  5 21 53 36.0000000  0 16       0.000000000000
G 4  22367617.080   117542591.828    22367620.820    87775318.328  
G 5  24400503.400   128225477.2342                                 
G 7  20994257.840   110325569.457                                  
G 8  22504441.780   118261566.816    22504443.140    88312204.805  
G 9  20388323.960   107141319.281    20388324.960    80008130.742  
G14  23358775.760   122751153.6412                                 
G16  24461798.480   128547601.7662                                 
G27  23060058.100   121181363.551    23060059.220    90492575.816  
G28  23608483.780   124063391.9102                                 
G30  22230449.900   116821742.379    22230451.620    87237014.438  
E 2  23593879.580   123986653.047    23593884.560    92587428.375  
E 3  23568142.380   123851395.211    23568148.280    92486424.496  
E 5  26882280.520   141267286.1642   26882288.120   105491791.1522 
E 8  22667835.540   119120269.160    22667839.840    88953442.555  
E25  24193498.580   127137662.199    24193504.580    94940454.582  
E30  26276689.340   138084887.3592   26276696.380   103115324.3952 
> 2021  1  5 21 53 37.0000000  0 16       0.000000000000
G 4  22368122.120   117545245.789    22368125.860    87777300.180  
G 5  24400102.900   128223372.5822                                 
G 7  20994152.960   110325018.262                                  
G 8  22504093.820   118259738.340    22504095.200    88310839.387  
G 9  20388472.500   107142099.813    20388473.480    80008713.605  
G14  23358127.240   122747745.6482                                 
G16  24462509.640   128551338.9142                                 
G27  23060094.380   121181554.203    23060095.500    90492718.184  
G28  23607837.540   124059995.9922                                 
G30  22230090.600   116819854.262    22230092.320    87235604.480  
E 2  23593694.060   123985678.199    23593699.060    92586700.402  
E 3  23568319.180   123852324.336    23568325.080    92487118.320  
E 5  26882798.240   141270006.7732   26882805.840   105493822.7772 
E 8  22667505.740   119118536.066    22667510.040    88952148.363  
E25  24193790.080   127139194.023    24193796.080    94941598.480  
E30  26276200.740   138082319.7112   26276207.780   103113406.9962 
> 2021  1  5 21 53 38.0000000  0 16       0.000000000000
G 4  22368627.220   117547900.105    22368630.960    87779282.297  
G 5  24399702.500   128221268.4342                                 
G 7  20994048.100   110324467.254                                  
G 8  22503745.980   118257910.359    22503747.340    88309474.340  
G 9  20388621.120   107142880.879    20388622.120    80009296.871  
G14  23357478.780   122744337.9022                                 
G16  24463220.820   128555076.1882                                 
G27  23060130.780   121181745.523    23060131.900    90492861.055  
G28  23607191.380   124056600.3362                                 
G30  22229731.340   116817966.324    22229733.060    87234194.656  
E 2  23593508.620   123984703.699    23593513.620    92585972.695  
E 3  23568496.060   123853253.855    23568501.960    92487812.441  
E 5  26883315.980   141272727.5432   26883323.580   105495854.5202 
E 8  22667176.000   119116803.250    22667180.300    88950854.379  
E25  24194081.620   127140726.082    24194087.620    94942742.547  
E30  26275712.160   138079752.2232   26275719.200   103111489.7152 
> 2021  1  5 21 53 39.0000000  0 16       0.000000000000
G 4  22369132.400   117550554.762    22369136.120    87781264.672  
G 5  24399302.180   128219164.7812                                 
G 7  20993943.280   110323916.438                                  
G 8  22503398.220   118256082.855    22503399.580    88308109.645  
G 9  20388769.860   107143662.469    20388770.860    80009880.527  
G14  23356830.360   122740930.3872                                 
G16  24463932.020   128558813.5662                                 
G27  23060167.320   121181937.516    23060168.440    90493004.422  
G28  23606545.240   124053204.8752                                 
G30  22229372.120   116816078.547    22229373.840    87232784.953  
E 2  23593323.260   123983729.543    23593328.240    92585245.238  
E 3  23568673.020   123854183.746    23568678.920    92488506.840  
E 5  26883833.760   141275448.4772   26883841.360   105497886.3832 
E 8  22666846.300   119115070.703    22666850.620    88949560.590  
E25  24194373.200   127142258.379    24194379.200    94943886.797  
E30  26275223.620   138077184.8912   26275230.640   103109572.5512 
> 2021  1  5 21 53 40.0000000  0 16       0.000000000000
G 4  22369637.620   117553209.766    22369641.360    87783247.301  
G 5  24398901.960   128217061.6412                                 
G 7  20993838.500   110323365.805                                  
G 8  22503050.540   118254255.836    22503051.920    88306745.313  
G 9  20388918.700   107144444.590    20388919.680    80010464.578  
G14  23356181.960   122737523.1022                                 
G16  24464643.260   128562551.0782                                 
G27  23060203.980   121182130.164    23060205.100    90493148.285  
G28  23605899.160   124049809.6452                                 
G30  22229012.920   116814190.934    22229014.640    87231375.371  
E 2  23593137.940   123982755.719    23593142.920    92584518.035  
E 3  23568850.040   123855114.035    23568855.940    92489201.539  
E 5  26884351.580   141278169.5822   26884359.180   105499918.3752 
E 8  22666516.620   119113338.156    22666520.920    88948266.805  
E25  24194664.840   127143790.914    24194670.840    94945031.219  
E30  26274735.140   138074617.9062   26274742.160   103107655.6522 
> 2021  1  5 21 53 41.0000000  0 16       0.000000000000
G 4  22370142.920   117555865.094    22370146.660    87785230.180  
G 5  24398501.860   128214959.0042                                 
G 7  20993733.760   110322815.352                                  
G 8  22502702.980   118252429.309    22502704.340    88305381.348  
G 9  20389067.640   107145227.238    20389068.620    80011049.023  
G14  23355533.620   122734116.0472                                 
G16  24465354.500   128566288.7072                                 
G27  23060240.780   121182323.496    23060241.900    90493292.656  
G28  23605253.120   124046414.6372                                 
G30  22228653.760   116812303.484    22228655.460    87229965.914  
E 2  23592952.680   123981782.238    23592957.680    92583791.082  
E 3  23569027.140   123856044.691    23569033.040    92489896.508  
E 5  26884869.420   141280890.8402   26884877.020   105501950.4802 
E 8  22666187.020   119111606.152    22666191.320    88946973.426  
E25  24194956.520   127145323.672    24194962.520    94946175.813  
E30  26274246.640   138072050.8912   26274253.680   103105738.7232 
> 2021  1  5 21 53 42.0000000  0 16       0.000000000000
G 4  22370648.280   117558520.773    22370652.020    87787213.316  
G 5  24398101.840   128212856.8712                                 
G 7  20993629.060   110322265.082                                  
G 8  22502355.500   118250603.273    22502356.860    88304017.750  
G 9  20389216.660   107146010.414    20389217.660    80011633.863  
G14  23354885.320   122730709.2152                                 
G16  24466065.780   128570026.4612                                 
G27  23060277.700   121182517.492    23060278.820    90493437.523  
G28  23604607.100   124043019.8482                                 
G30  22228294.620   116810416.195    22228296.320    87228556.574  
E 2  23592767.500   123980809.090    23592772.500    92583064.383  
E 3  23569204.320   123856975.723    23569210.200    92490591.758  
E 5  26885387.280   141283612.2582   26885394.880   105503982.7072 
E 8  22665857.480   119109874.406    22665861.780    88945680.242  
E25  24195248.240   127146856.664    24195254.240    94947320.578  
E30  26273758.200   138069484.0472   26273765.220   103103821.9262 
> 2021  1  5 21 53 43.0000000  0 16       0.000000000000
G 4  22371153.700   117561176.797    22371157.440    87789196.707  
G 5  24397701.900   128210755.2462                                 
G 7  20993524.380   110321715.012                                  
G 8  22502008.100   118248777.730    22502009.480    88302654.520  
G 9  20389365.800   107146794.102    20389366.780    80012219.082  
G14  23354237.080   122727302.6372                                 
G16  24466777.060   128573764.3282                                 
G27  23060314.740   121182712.152    23060315.860    90493582.887  
G28  23603961.140   124039625.2812                                 
G30  22227935.520   116808529.094    22227937.220    87227147.375  
E 2  23592582.380   123979836.285    23592587.380    92582337.938  
E 3  23569381.560   123857907.152    23569387.460    92491287.305  
E 5  26885905.180   141286333.8442   26885912.780   105506015.0592 
E 8  22665528.000   119108142.938    22665532.300    88944387.262  
E25  24195540.000   127148389.895    24195546.000    94948465.523  
E30  26273269.760   138066917.3592   26273276.800   103101905.2422 
> 2021  1  5 21 53 44.0000000  0 16       0.000000000000
G 4  22371659.200   117563833.156    22371662.940    87791180.348  
G 5  24397302.080   128208654.1172                                 
G 7  20993419.740   110321165.113                                  
G 8  22501660.820   118246952.691    22501662.180    88301291.668  
G 9  20389515.040   107147578.324    20389516.020    80012804.703  
G14  23353588.880   122723896.2892                                 
G16  24467488.380   128577502.3162                                 
G27  23060351.900   121182907.477    23060353.020    90493728.746  
G28  23603315.220   124036230.9612                                 
G30  22227576.440   116806642.133    22227578.160    87225738.281  
E 2  23592397.340   123978863.820    23592402.320    92581611.746  
E 3  23569558.880   123858838.961    23569564.780    92491983.137  
E 5  26886423.120   141289055.5862   26886430.720   105508047.5272 
E 8  22665198.560   119106411.742    22665202.860    88943094.484  
E25  24195831.800   127149923.355    24195837.800    94949610.637  
E30  26272781.380   138064350.8282   26272788.400   103099988.6802 
> 2021  1  5 21 53 45.0000000  0 16       0.000000000000
G 4  22372164.760   117566489.855    22372168.500    87793164.250  
G 5  24396902.340   128206553.4842                                 
G 7  20993315.140   110320615.418                                  
G 8  22501313.620   118245128.164    22501314.980    88299929.195  
G 9  20389664.380   107148363.078    20389665.360    80013390.723  
G14  23352940.720   122720490.1762                                 
G16  24468199.720   128581240.4222                                 
G27  23060389.200   121183103.477    23060390.320    90493875.109  
G28  23602669.360   124032836.8592                                 
G30  22227217.400   116804755.344    22227219.100    87224329.316  
E 2  23592212.340   123977891.691    23592217.320    92580885.805  
E 3  23569736.260   123859771.148    23569742.160    92492679.250  
E 5  26886941.080   141291777.4882   26886948.680   105510080.1132 
E 8  22664869.180   119104680.813    22664873.480    88941801.910  
E25  24196123.660   127151457.047    24196129.660    94950755.926  
E30  26272293.000   138061784.4532   26272300.040   103098072.2302 
> 2021  1  5 21 53 46.0000000  0 16       0.000000000000
G 4  22372670.380   117569146.902    22372674.120    87795148.406  
G 5  24396502.700   128204453.3592                                 
G 7  20993210.560   110320065.898                                  
G 8  22500966.520   118243304.141    22500967.900    88298567.102  
G 9  20389813.800   107149148.363    20389814.800    80013977.133  
G14  23352292.600   122717084.2852                                 
G16  24468911.100   128584978.6482                                 
G27  23060426.640   121183300.141    23060427.760    90494021.969  
G28  23602023.520   124029443.0002                                 
G30  22226858.380   116802868.723    22226860.100    87222920.477  
E 2  23592027.420   123976919.914    23592032.400    92580160.125  
E 3  23569913.720   123860703.727    23569919.620    92493375.656  
E 5  26887459.080   141294499.5632   26887466.680   105512112.8322 
E 8  22664539.840   119102950.168    22664544.140    88940509.543  
E25  24196415.560   127152990.977    24196421.560    94951901.395  
E30  26271804.680   138059218.2542   26271811.700   103096155.9102 
> 2021  1  5 21 53 47.0000000  0 16       0.000000000000
G 4  22373176.060   117571804.285    22373179.800    87797132.813  
G 5  24396103.160   128202353.7382                                 
G 7  20993106.040   110319516.555                                  
G 8  22500619.520   118241480.609    22500620.880    88297205.375  
G 9  20389963.340   107149934.160    20389964.340    80014563.930  
G14  23351644.520   122713678.6372                                 
G16  24469622.480   128588716.9882                                 
G27  23060464.180   121183497.477    23060465.300    90494169.328  
G28  23601377.740   124026049.3402                                 
G30  22226499.400   116800982.266    22226501.120    87221511.762  
E 2  23591842.560   123975948.461    23591847.540    92579434.691  
E 3  23570091.260   123861636.676    23570097.160    92494072.336  
E 5  26887977.100   141297221.7972   26887984.700   105514145.6682 
E 8  22664210.560   119101219.777    22664214.860    88939217.371  
E25  24196707.500   127154525.137    24196713.500    94953047.035  
E30  26271316.380   138056652.2152   26271323.400   103094239.7152 
> 2021  1  5 21 53 48.0000000  0 16       0.000000000000
G 4  22373681.820   117574462.016    22373685.560    87799117.480  
G 5  24395703.720   128200254.6252                                 
G 7  20993001.540   110318967.414                                  
G 8  22500272.600   118239657.578    22500273.980    88295844.020  
G 9  20390112.980   107150720.484    20390113.960    80015151.121  
G14  23350996.500   122710273.2232                                 
G16  24470333.880   128592455.4452                                 
G27  23060501.860   121183695.477    23060502.980    90494317.184  
G28  23600731.980   124022655.9142                                 
G30  22226140.460   116799095.973    22226142.180    87220103.168  
E 2  23591657.760   123974977.352    23591662.740    92578709.516  
E 3  23570268.880   123862570.016    23570274.760    92494769.313  
E 5  26888495.140   141299944.1722   26888502.760   105516178.6092 
E 8  22663881.340   119099489.664    22663885.640    88937925.402  
E25  24196999.480   127156059.535    24197005.480    94954192.848  
E30  26270828.100   138054086.3322   26270835.140   103092323.6332 
> 2021  1  5 21 53 49.0000000  0 16       0.000000000000
G 4  22374187.620   117577120.078    22374191.360    87801102.395  
G 5  24395304.360   128198156.0162                                 
G 7  20992897.080   110318418.434                                  
G 8  22499925.780   118237835.047    22499927.160    88294483.039  
G 9  20390262.720   107151507.352    20390263.700    80015738.715  
G14  23350348.520   122706868.0312                                 
G16  24471045.320   128596194.0432                                 
G27  23060539.680   121183894.141    23060540.800    90494465.539  
G28  23600086.280   124019262.7032                                 
G30  22225781.540   116797209.836    22225783.260    87218694.688  
E 2  23591473.040   123974006.582    23591478.020    92577984.590  
E 3  23570446.560   123863503.734    23570452.440    92495466.570  
E 5  26889013.240   141302666.7152   26889020.840   105518211.6762 
E 8  22663552.160   119097759.813    22663556.460    88936633.633  
E25  24197291.520   127157594.156    24197297.520    94955338.832  
E30  26270339.860   138051520.6052   26270346.900   103090407.6722 
> 2021  1  5 21 53 50.0000000  0 16       0.000000000000
G 4  22374693.520   117579778.492    22374697.240    87803087.574  
G 5  24394905.100   128196057.8982                                 
G 7  20992792.640   110317869.660                                  
G 8  22499579.060   118236012.988    22499580.440    88293122.410  
G 9  20390412.560   107152294.734    20390413.540    80016326.695  
G14  23349700.580   122703463.0902                                 
G16  24471756.760   128599932.7382                                 
G27  23060577.600   121184093.480    23060578.720    90494614.395  
G28  23599440.620   124015869.7382                                 
G30  22225422.660   116795323.879    22225424.360    87217286.344  
E 2  23591288.360   123973036.160    23591293.360    92577259.922  
E 3  23570624.300   123864437.840    23570630.200    92496164.113  
E 5  26889531.360   141305389.4382   26889538.960   105520244.8752 
E 8  22663223.020   119096030.250    22663227.340    88935342.074  
E25  24197583.580   127159129.023    24197589.580    94956485.000  
E30  26269851.660   138048955.0552   26269858.680   103088491.8402 
> 2021  1  5 21 53 51.0000000  0 16       0.000000000000
G 4  22375199.460   117582437.242    22375203.200    87805073.004  
G 5  24394505.940   128193960.2972                                 
G 7  20992688.260   110317321.051                                  
G 8  22499232.440   118234191.422    22499233.800    88291762.152  
G 9  20390562.480   107153082.652    20390563.480    80016915.078  
G14  23349052.680   122700058.3632                                 
G16  24472468.240   128603671.5632                                 
G27  23060615.680   121184293.488    23060616.800    90494763.754  
G28  23598795.000   124012476.9882                                 
G30  22225063.800   116793438.082    22225065.520    87215878.117  
E 2  23591103.760   123972066.070    23591108.740    92576535.504  
E 3  23570802.140   123865372.320    23570808.040    92496861.941  
E 5  26890049.500   141308112.3092   26890057.100   105522278.1882 
E 8  22662893.960   119094300.941    22662898.260    88934050.707  
E25  24197875.700   127160664.113    24197881.700    94957631.332  
E30  26269363.480   138046389.6642   26269370.500   103086576.1252 
> 2021  1  5 21 53 52.0000000  0 16       0.000000000000
G 4  22375705.460   117585096.328    22375709.200    87807058.684  
G 5  24394106.880   128191863.1882                                 
G 7  20992583.900   110316772.637                                  
G 8  22498885.900   118232370.348    22498887.260    88290402.258  
G 9  20390712.520   107153871.098    20390713.520    80017503.848  
G14  23348404.820   122696653.8872                                 
G16  24473179.740   128607410.4922                                 
G27  23060653.860   121184494.156    23060654.980    90494913.602  
G28  23598149.420   124009084.4452                                 
G30  22224704.980   116791552.441    22224706.700    87214470.008  
E 2  23590919.220   123971096.313    23590924.220    92575811.336  
E 3  23570980.040   123866307.184    23570985.920    92497560.055  
E 5  26890567.680   141310835.3402   26890575.280   105524311.6172 
E 8  22662564.920   119092571.906    22662569.220    88932759.547  
E25  24198167.860   127162199.438    24198173.860    94958777.840  
E30  26268875.320   138043824.4142   26268882.360   103084660.5162 
> 2021  1  5 21 53 54.0000000  0 16       0.000000000000
G 4  22376717.680   117590415.543    22376721.420    87811030.820  
G 5  24393309.040   128187670.4842                                 
G 7  20992375.280   110315676.367                                  
G 8  22498193.100   118228729.676    22498194.480    88287683.574  
G 9  20391012.900   107155449.574    20391013.900    80018682.582  
G14  23347109.260   122689845.6212                                 
G16  24474602.800   128614888.7342                                 
G27  23060730.620   121184897.516    23060731.740    90495214.813  
G28  23596858.420   124002300.1092                                 
G30  22223987.420   116787781.676    22223989.140    87211654.180  
E 2  23590550.340   123969157.840    23590555.340    92574363.773  
E 3  23571336.040   123868178.070    23571341.940    92498957.145  
E 5  26891604.120   141316281.8952   26891611.720   105528378.8482 
E 8  22661907.040   119089114.656    22661911.340    88930177.836  
E25  24198752.320   127165270.789    24198758.320    94961071.383  
E30  26267899.120   138038694.4302   26267906.140   103080829.6842 
> 2021  1  5 21 53 55.0000000  0 16       0.000000000000
G 4  22377223.880   117593075.652    22377227.620    87813017.270  
G 5  24392910.260   128185574.8872                                 
G 7  20992271.040   110315128.520                                  
G 8  22497846.840   118226910.074    22497848.220    88286324.781  
G 9  20391163.240   107156239.594    20391164.240    80019272.531  
G14  23346461.540   122686441.8442                                 
G16  24475314.380   128618628.0272                                 
G27  23060769.180   121185100.188    23060770.300    90495366.156  
G28  23596212.960   123998908.2702                                 
G30  22223628.700   116785896.539    22223630.420    87210246.449  
E 2  23590366.000   123968189.113    23590370.980    92573640.375  
E 3  23571514.160   123869114.078    23571520.060    92499656.109  
E 5  26892122.380   141319005.4102   26892130.000   105530412.6412 
E 8  22661578.160   119087386.441    22661582.460    88928887.285  
E25  24199044.620   127166806.816    24199050.620    94962218.414  
E30  26267411.060   138036129.6802   26267418.100   103078914.4492 
> 2021  1  5 21 53 56.0000000  0 16       0.000000000000
G 4  22377730.160   117595736.109    22377733.900    87815003.973  
G 5  24392511.580   128183479.7972                                 
G 7  20992166.820   110314580.852                                  
G 8  22497500.680   118225090.973    22497502.060    88284966.363  
G 9  20391313.680   107157030.141    20391314.680    80019862.875  
G14  23345813.880   122683038.2892                                 
G16  24476025.960   128622367.4382                                 
G27  23060807.880   121185303.539    23060809.000    90495518.012  
G28  23595567.580   123995516.6762                                 
G30  22223270.000   116784011.570    22223271.720    87208838.844  
E 2  23590181.720   123967220.727    23590186.720    92572917.230  
E 3  23571692.360   123870050.480    23571698.260    92500355.371  
E 5  26892640.680   141321729.0902   26892648.300   105532446.5552 
E 8  22661249.340   119085658.496    22661253.660    88927596.934  
E25  24199336.960   127168343.074    24199342.960    94963365.621  
E30  26266923.040   138033565.0862   26266930.060   103076999.3322 
> 2021  1  5 21 53 57.0000000  0 16       0.000000000000
G 4  22378236.500   117598396.914    22378240.240    87816990.934  
G 5  24392113.000   128181385.2112                                 
G 7  20992062.640   110314033.379                                  
G 8  22497154.620   118223272.367    22497155.980    88283608.313  
G 9  20391464.220   107157821.238    20391465.220    80020453.629  
G14  23345166.240   122679634.9882                                 
G16  24476737.580   128626106.9802                                 
G27  23060846.720   121185507.566    23060847.840    90495670.367  
G28  23594922.220   123992125.2932                                 
G30  22222911.340   116782126.758    22222913.040    87207431.352  
E 2  23589997.520   123966252.676    23590002.500    92572194.336  
E 3  23571870.620   123870987.266    23571876.520    92501054.918  
E 5  26893159.020   141324452.9382   26893166.620   105534480.5942 
E 8  22660920.580   119083930.824    22660924.880    88926306.793  
E25  24199629.360   127169879.570    24199635.340    94964513.004  
E30  26266435.040   138031000.6562   26266442.080   103075084.3322 
> 2021  1  5 21 53 58.0000000  0 16       0.000000000000
G 4  22378742.900   117601058.020    22378746.640    87818978.105  
G 5  24391714.420   128179291.5982                                 
G 7  20991958.520   110313485.883                                  
G 8  22496808.620   118221454.305    22496810.000    88282250.703  
G 9  20391614.860   107158612.809    20391615.860    80021044.727  
G14  23344518.640   122676232.012                                  
G16  24477449.240   128629846.512                                  
G27  23060885.640   121185712.328    23060886.760    90495823.324  
G28  23594276.880   123988734.2072                                 
G30  22222552.700   116780242.117    22222554.420    87206023.992  
E 2  23589813.360   123965284.992    23589818.340    92571471.734  
E 3  23572048.960   123871924.422    23572054.860    92501754.742  
E 5  26893677.400   141327176.875    26893685.020   105536514.668  
E 8  22660591.880   119082203.395    22660596.180    88925016.820  
E25  24199921.780   127171416.332    24199927.760    94965660.609  
E30  26265947.080   138028436.4142   26265954.100   103073169.4962 
> 2021  1  5 21 53 59.0000000  0 16       0.000000000000
G 4  22379249.360   117603719.500    22379253.120    87820965.574  
G 5  24391316.020   128177198.0202                                 
G 7  20991854.420   110312938.766                                  
G 8  22496462.740   118219636.688    22496464.120    88280893.391  
G 9  20391765.600   107159404.949    20391766.600    80021636.258  
G14  23343871.100   122672829.184                                  
G16  24478160.900   128633586.273                                  
G27  23060924.720   121185917.676    23060925.840    90495976.668  
G28  23593631.620   123985343.2732                                 
G30  22222194.100   116778357.645    22222195.820    87204616.758  
E 2  23589629.280   123964317.617    23589634.260    92570749.344  
E 3  23572227.360   123872861.961    23572233.260    92502454.852  
E 5  26894195.780   141329901.039    26894203.400   105538548.945  
E 8  22660263.220   119080476.266    22660267.520    88923727.078  
E25  24200214.240   127172953.277    24200220.240    94966808.328  
E30  26265459.140   138025872.3012   26265466.160   103071254.7382 
> 2021  1  5 21 54  0.0000000  0 16       0.000000000000
G 4  22379755.900   117606381.313    22379759.640    87822953.289  
G 5  24390917.720   128175104.9452                                 
G 7  20991750.340   110312391.836                                  
G 8  22496116.960   118217819.566    22496118.320    88279536.453  
G 9  20391916.440   107160197.609    20391917.440    80022228.180  
G14  23343223.620   122669426.586                                  
G16  24478872.560   128637326.152                                  
G27  23060963.940   121186123.707    23060965.040    90496130.520  
G28  23592986.400   123981952.5982                                 
G30  22221835.540   116776473.340    22221837.240    87203209.645  
E 2  23589445.260   123963350.582    23589450.240    92570027.211  
E 3  23572405.860   123873799.875    23572411.740    92503155.242  
E 5  26894714.220   141332625.352    26894721.820   105540583.332  
E 8  22659934.600   119078749.391    22659938.900    88922437.531  
E25  24200506.760   127174490.461    24200512.760    94967956.223  
E30  26264971.240   138023308.3552   26264978.260   103069340.1022 
> 2021  1  5 21 54  1.0000000  0 16       0.000000000000
G 4  22380262.500   117609043.473    22380266.240    87824941.266  
G 5  24390519.520   128173012.3712                                 
G 7  20991646.300   110311845.098                                  
G 8  22495771.280   118216002.953    22495772.640    88278179.891  
G 9  20392067.380   107160990.793    20392068.380    80022820.488  
G14  23342576.160   122666024.203                                  
G16  24479584.280   128641066.156                                  
G27  23061003.280   121186330.402    23061004.380    90496284.871  
G28  23592341.220   123978562.1452                                 
G30  22221476.980   116774589.180    22221478.700    87201802.645  
E 2  23589261.300   123962383.883    23589266.280    92569305.324  
E 3  23572584.400   123874738.176    23572590.300    92503855.922  
E 5  26895232.660   141335349.828    26895240.280   105542617.844  
E 8  22659606.040   119077022.801    22659610.340    88921148.195  
E25  24200799.320   127176027.875    24200805.320    94969104.293  
E30  26264483.380   138020744.5742   26264490.400   103067425.5902 
> 2021  1  5 21 54  2.0000000  0 16       0.000000000000
G 4  22380769.140   117611705.969    22380772.900    87826929.492  
G 5  24390121.420   128170920.3092                                 
G 7  20991542.300   110311298.535                                  
G 8  22495425.680   118214186.848    22495427.040    88276823.711  
G 9  20392218.420   107161784.512    20392219.420    80023413.203  
G14  23341928.760   122662622.066                                  
G16  24480296.000   128644806.277                                  
G27  23061042.720   121186537.750    23061043.840    90496439.707  
G28  23591696.080   123975171.8872                                 
G30  22221118.480   116772705.207    22221120.200    87200395.781  
E 2  23589077.400   123961417.523    23589082.380    92568583.691  
E 3  23572763.040   123875676.863    23572768.940    92504556.891  
E 5  26895751.140   141338074.465    26895758.760   105544652.473  
E 8  22659277.540   119075296.473    22659281.840    88919859.055  
E25  24201091.940   127177565.516    24201097.920    94970252.531  
E30  26263995.520   138018180.9382   26264002.560   103065511.1882 
> 2021  1  5 21 54  3.0000000  0 16       0.000000000000
G 4  22381275.880   117614368.824    22381279.620    87828917.980  
G 5  24389723.400   128168828.7192                                 
G 7  20991438.320   110310752.164                                  
G 8  22495080.180   118212371.258    22495081.560    88275467.910  
G 9  20392369.560   107162578.750    20392370.560    80024006.297  
G14  23341281.400   122659220.176                                  
G16  24481007.740   128648546.512                                  
G27  23061082.320   121186745.781    23061083.420    90496595.055  
G28  23591050.980   123971781.8712                                 
G30  22220760.000   116770821.395    22220761.720    87198989.035  
E 2  23588893.580   123960451.508    23588898.560    92567862.316  
E 3  23572941.740   123876615.934    23572947.640    92505258.145  
E 5  26896269.660   141340799.270    26896277.280   105546687.230  
E 8  22658949.080   119073570.422    22658953.380    88918570.121  
E25  24201384.580   127179103.402    24201390.580    94971400.953  
E30  26263507.720   138015617.4732   26263514.740   103063596.9142 
> 2021  1  5 21 54  4.0000000  0 16       0.000000000000
G 4  22381782.660   117617032.000    22381786.400    87830906.715  
G 5  24389325.480   128166737.6332                                 
G 7  20991334.400   110310205.988                                  
G 8  22494734.780   118210556.121    22494736.140    88274112.445  
G 9  20392520.800   107163373.523    20392521.800    80024599.793  
G14  23340634.080   122655818.516                                  
G16  24481719.500   128652286.859                                  
G27  23061122.040   121186954.477    23061123.140    90496750.895  
G28  23590405.920   123968392.0942                                 
G30  22220401.560   116768937.750    22220403.280    87197582.414  
E 2  23588709.820   123959485.828    23588714.800    92567141.188  
E 3  23573120.500   123877555.391    23573126.400    92505959.680  
E 5  26896788.200   141343524.234    26896795.820   105548722.102  
E 8  22658620.680   119071844.648    22658624.980    88917281.391  
E25  24201677.280   127180641.520    24201683.280    94972549.539  
E30  26263019.940   138013054.1642   26263026.960   103061682.7502 
> 2021  1  5 21 54  5.0000000  0 16       0.000000000000
G 4  22382289.520   117619695.535    22382293.260    87832895.711  
G 5  24388927.660   128164647.0592                                 
G 7  20991230.500   110309660.000                                  
G 8  22494389.460   118208741.480    22494390.820    88272757.355  
G 9  20392672.140   107164168.816    20392673.140    80025193.676  
G14  23339986.820   122652417.098                                  
G16  24482431.300   128656027.344                                  
G27  23061161.880   121187163.844    23061162.980    90496907.234  
G28  23589760.900   123965002.5272                                 
G30  22220043.140   116767054.270    22220044.860    87196175.914  
E 2  23588526.120   123958520.496    23588531.100    92566420.320  
E 3  23573299.360   123878495.234    23573305.260    92506661.508  
E 5  26897306.780   141346249.371    26897314.400   105550757.102  
E 8  22658292.320   119070119.148    22658296.640    88915992.867  
E25  24201970.020   127182179.871    24201976.020    94973698.305  
E30  26262532.180   138010491.0232   26262539.220   103059768.7152 
> 2021  1  5 21 54  6.0000000  0 16       0.000000000000
G 4  22382796.440   117622359.406    22382800.180    87834884.961  
G 5  24388529.920   128162556.9842                                 
G 7  20991126.620   110309114.195                                  
G 8  22494044.240   118206927.320    22494045.600    88271402.621  
G 9  20392823.580   107164964.652    20392824.580    80025787.965  
G14  23339339.580   122649015.906                                  
G16  24483143.100   128659767.934                                  
G27  23061201.840   121187373.871    23061202.940    90497064.070  
G28  23589115.940   123961613.1992                                 
G30  22219684.760   116765170.949    22219686.480    87194769.535  
E 2  23588342.500   123957555.508    23588347.480    92565699.707  
E 3  23573478.280   123879435.453    23573484.180    92507363.617  
E 5  26897825.400   141348974.656    26897833.020   105552792.211  
E 8  22657964.020   119068393.918    22657968.340    88914704.539  
E25  24202262.800   127183718.449    24202268.800    94974847.242  
E30  26262044.480   138007928.0472   26262051.500   103057854.8012 
> 2021  1  5 21 54  7.0000000  0 16       0.000000000000
G 4  22383303.420   117625023.613    22383307.160    87836874.461  
G 5  24388132.300   128160467.4342                                 
G 7  20991022.800   110308568.570                                  
G 8  22493699.100   118205113.648    22493700.480    88270048.250  
G 9  20392975.120   107165761.000    20392976.120    80026382.637  
G14  23338692.400   122645614.941                                  
G16  24483854.940   128663508.648                                  
G27  23061241.940   121187584.578    23061243.040    90497221.410  
G28  23588471.000   123958224.0782                                 
G30  22219326.400   116763287.789    22219328.120    87193363.277  
E 2  23588158.920   123956590.844    23588163.900    92564979.340  
E 3  23573657.260   123880376.051    23573663.160    92508066.008  
E 5  26898344.020   141351700.102    26898351.660   105554827.438  
E 8  22657635.780   119066668.957    22657640.080    88913416.414  
E25  24202555.620   127185257.258    24202561.620    94975996.344  
E30  26261556.780   138005365.2272   26261563.800   103055941.0042 
> 2021  1  5 21 54  8.0000000  0 16       0.000000000000
G 4  22383810.460   117627688.156    22383814.220    87838864.215  
G 5  24387734.760   128158378.3552                                 
G 7  20990919.000   110308023.133                                  
G 8  22493354.080   118203300.488    22493355.440    88268694.266  
G 9  20393126.780   107166557.906    20393127.780    80026977.727  
G14  23338045.280   122642214.238                                  
G16  24484566.800   128667249.469                                  
G27  23061282.160   121187795.949    23061283.280    90497379.250  
G28  23587826.120   123954835.2032                                 
G30  22218968.080   116761404.805    22218969.800    87191957.148  
E 2  23587975.420   123955626.535    23587980.400    92564259.234  
E 3  23573836.320   123881317.039    23573842.220    92508768.688  
E 5  26898862.700   141354425.715    26898870.320   105556862.797  
E 8  22657307.580   119064944.273    22657311.880    88912128.500  
E25  24202848.500   127186796.305    24202854.500    94977145.633  
E30  26261069.120   138002802.5902   26261076.160   103054027.3402 
> 2021  1  5 21 54  9.0000000  0 16       0.000000000000
G 4  22384317.580   117630353.051    22384321.320    87840854.227  
G 5  24387337.320   128156289.8092                                 
G 7  20990815.260   110307477.887                                  
G 8  22493009.140   118201487.844    22493010.500    88267340.664  
G 9  20393278.520   107167355.313    20393279.520    80027573.188  
G14  23337398.180   122638813.738                                  
G16  24485278.680   128670990.422                                  
G27  23061322.500   121188007.992    23061323.620    90497537.590  
G28  23587181.280   123951446.5632                                 
G30  22218609.800   116759521.977    22218611.520    87190551.141  
E 2  23587791.980   123954662.559    23587796.960    92563539.379  
E 3  23574015.460   123882258.410    23574021.360    92509471.660  
E 5  26899381.400   141357151.484    26899389.020   105558898.273  
E 8  22656979.440   119063219.855    22656983.740    88910840.785  
E25  24203141.420   127188335.582    24203147.420    94978295.094  
E30  26260581.500   138000240.0982   26260588.520   103052113.7932 
> 2021  1  5 21 54 10.0000000  0 16       0.000000000000
G 4  22384824.760   117633018.281    22384828.500    87842844.492  
G 5  24386939.980   128154201.7662                                 
G 7  20990711.520   110306932.813                                  
G 8  22492664.300   118199675.688    22492665.660    88265987.426  
G 9  20393430.360   107168153.258    20393431.360    80028169.051  
G14  23336751.140   122635413.504                                  
G16  24485990.580   128674731.4772                                 
G27  23061362.980   121188220.703    23061364.100    90497696.430  
G28  23586536.500   123948058.1452                                 
G30  22218251.540   116757639.328    22218253.260    87189145.258  
E 2  23587608.600   123953698.918    23587613.600    92562819.781  
E 3  23574194.680   123883200.160    23574200.580    92510174.914  
E 5  26899900.120   141359877.414    26899907.740   105560933.867  
E 8  22656651.340   119061495.711    22656655.640    88909553.277  
E25  24203434.380   127189875.090    24203440.360    94979444.723  
E30  26260093.900   137997677.7662   26260100.940   103050200.3632 
> 2021  1  5 21 54 11.0000000  0 16       0.000000000000
G 4  22385332.000   117635683.848    22385335.740    87844835.008  
G 5  24386542.740   128152114.2272                                 
G 7  20990607.840   110306387.934                                  
G 8  22492319.560   118197864.023    22492320.920    88264634.559  
G 9  20393582.300   107168951.715    20393583.300    80028765.297  
G14  23336104.120   122632013.484                                  
G16  24486702.500   128678472.6482                                 
G27  23061403.600   121188434.090    23061404.700    90497855.773  
G28  23585891.740   123944669.9382                                 
G30  22217893.320   116755756.832    22217895.040    87187739.496  
E 2  23587425.300   123952735.621    23587430.280    92562100.434  
E 3  23574373.960   123884142.289    23574379.860    92510878.453  
E 5  26900418.880   141362603.500    26900426.500   105562969.578  
E 8  22656323.300   119059771.832    22656327.600    88908265.965  
E25  24203727.380   127191414.828    24203733.380    94980594.527  
E30  26259606.340   137995115.6052   26259613.360   103048287.0632 
> 2021  1  5 21 54 12.0000000  0 16       0.000000000000
G 4  22385839.300   117638349.758    22385843.060    87846825.777  
G 5  24386145.580   128150027.1952                                 
G 7  20990504.180   110305843.242                                  
G 8  22491974.900   118196052.848    22491976.260    88263282.055  
G 9  20393734.340   107169750.715    20393735.360    80029361.949  
G14  23335457.180   122628613.703                                  
G16  24487414.440   128682213.9412                                 
G27  23061444.320   121188648.137    23061445.440    90498015.605  
G28  23585247.020   123941281.9802                                 
G30  22217535.120   116753874.512    22217536.840    87186333.863  
E 2  23587242.060   123951772.660    23587247.040    92561381.344  
E 3  23574553.300   123885084.805    23574559.220    92511582.281  
E 5  26900937.660   141365329.754    26900945.300   105565005.418  
E 8  22655995.300   119058048.227    22655999.620    88906978.859  
E25  24204020.420   127192954.801    24204026.420    94981744.508  
E30  26259118.800   137992553.5942   26259125.840   103046373.8752 
> 2021  1  5 21 54 13.0000000  0 16       0.000000000000
G 4  22386346.680   117641016.008    22386350.420    87848816.805  
G 5  24385748.540   128147940.6682                                 
G 7  20990400.580   110305298.727                                  
G 8  22491630.340   118194242.168    22491631.700    88261929.918  
G 9  20393886.480   107170550.223    20393887.500    80029958.980  
G14  23334810.260   122625214.156                                  
G16  24488126.420   128685955.3552                                 
G27  23061485.180   121188862.844    23061486.300    90498175.938  
G28  23584602.360   123937894.2462                                 
G30  22217176.960   116751992.348    22217178.680    87184928.348  
E 2  23587058.880   123950810.043    23587063.860    92560662.504  
E 3  23574732.740   123886027.703    23574738.640    92512286.395  
E 5  26901456.480   141368056.160    26901464.120   105567041.367  
E 8  22655667.360   119056324.914    22655671.680    88905691.969  
E25  24204313.520   127194495.004    24204319.500    94982894.660  
E30  26258631.300   137989991.7582   26258638.340   103044460.8162 
> 2021  1  5 21 54 14.0000000  0 16       0.000000000000
G 4  22386854.100   117643682.602    22386857.860    87850808.086  
G 5  24385351.580   128145854.6452                                 
G 7  20990296.980   110304754.402                                  
G 8  22491285.860   118192431.977    22491287.240    88260578.148  
G 9  20394038.740   107171350.273    20394039.740    80030556.414  
G14  23334163.400   122621814.852                                  
G16  24488838.400   128689696.8872                                 
G27  23061526.160   121189078.230    23061527.280    90498336.777  
G28  23583957.740   123934506.7342                                 
G30  22216818.820   116750110.352    22216820.540    87183522.957  
E 2  23586875.760   123949847.766    23586880.740    92559943.922  
E 3  23574912.240   123886970.984    23574918.140    92512990.793  
E 5  26901975.340   141370782.738    26901982.960   105569077.449  
E 8  22655339.480   119054601.848    22655343.780    88904405.262  
E25  24204606.640   127196035.445    24204612.640    94984044.988  
E30  26258143.820   137987430.0662   26258150.860   103042547.8632 
> 2021  1  5 21 54 15.0000000  0 16       0.000000000000
G 4  22387361.600   117646349.535    22387365.360    87852799.625  
G 5  24384954.720   128143769.1372                                 
G 7  20990193.440   110304210.273                                  
G 8  22490941.480   118190622.270    22490942.860    88259226.742  
G 9  20394191.080   107172150.859    20394192.080    80031154.254  
G14  23333516.580   122618415.789                                  
G16  24489550.420   128693438.5432                                 
G27  23061567.280   121189294.285    23061568.400    90498498.109  
G28  23583313.160   123931119.4412                                 
G30  22216460.720   116748228.531    22216462.440    87182117.699  
E 2  23586692.700   123948885.828    23586697.680    92559225.594  
E 3  23575091.820   123887914.656    23575097.720    92513695.480  
E 5  26902494.220   141373509.477    26902501.840   105571113.648  
E 8  22655011.640   119052879.078    22655015.960    88903118.777  
E25  24204899.820   127197576.113    24204905.820    94985195.488  
E30  26257656.400   137984868.5632   26257663.420   103040635.0552 
> 2021  1  5 21 54 16.0000000  0 16       0.000000000000
G 4  22387869.180   117649016.813    22387872.940    87854791.414  
G 5  24384557.940   128141684.1172                                 
G 7  20990089.940   110303666.313                                  
G 8  22490597.200   118188813.039    22490598.580    88257875.688  
G 9  20394343.520   107172951.969    20394344.540    80031752.477  
G14  23332869.800   122615016.949                                  
G16  24490262.440   128697180.3012                                 
G27  23061608.520   121189511.008    23061609.640    90498659.945  
G28  23582668.620   123927732.4022                                 
G30  22216102.660   116746346.859    22216104.380    87180712.555  
E 2  23586509.720   123947924.223    23586514.700    92558507.512  
E 3  23575271.460   123888858.691    23575277.360    92514400.441  
E 5  26903013.140   141376236.367    26903020.760   105573149.957  
E 8  22654683.860   119051156.566    22654688.160    88901832.488  
E25  24205193.060   127199117.020    24205199.060    94986346.164  
E30  26257168.980   137982307.1882   26257176.000   103038722.3402 
> 2021  1  5 21 54 17.0000000  0 16       0.000000000000
G 4  22388376.800   117651684.414    22388380.560    87856783.453  
G 5  24384161.280   128139599.6132                                 
G 7  20989986.460   110303122.543                                  
G 8  22490253.020   118187004.301    22490254.380    88256525.004  
G 9  20394496.060   107173753.590    20394497.080    80032351.086  
G14  23332223.060   122611618.363                                  
G16  24490974.500   128700922.1722                                 
G27  23061649.900   121189728.398    23061651.020    90498822.277  
G28  23582024.140   123924345.5702                                 
G30  22215744.620   116744465.359    22215746.340    87179307.531  
E 2  23586326.800   123946962.969    23586331.780    92557789.691  
E 3  23575451.180   123889803.125    23575457.080    92515105.703  
E 5  26903532.080   141378963.418    26903539.700   105575186.391  
E 8  22654356.140   119049434.332    22654360.440    88900546.402  
E25  24205486.320   127200658.145    24205492.320    94987497.004  
E30  26256681.600   137979746.0122   26256688.620   103036809.7732 
> 2021  1  5 21 54 18.0000000  0 16       0.000000000000
G 4  22388884.500   117654352.375    22388888.260    87858775.758  
G 5  24383764.700   128137515.6212                                 
G 7  20989883.020   110302578.969                                  
G 8  22489908.920   118185196.059    22489910.280    88255174.691  
G 9  20394648.720   107174555.754    20394649.720    80032950.102  
G14  23331576.380   122608219.988                                  
G16  24491686.580   128704664.1802                                 
G27  23061691.380   121189946.453    23061692.500    90498985.105  
G28  23581379.680   123920958.9652                                 
G30  22215386.600   116742584.020    22215388.340    87177902.633  
E 2  23586143.940   123946002.043    23586148.920    92557072.117  
E 3  23575630.960   123890747.934    23575636.880    92515811.238  
E 5  26904051.040   141381690.625    26904058.680   105577222.941  
E 8  22654028.460   119047712.359    22654032.760    88899260.516  
E25  24205779.640   127202199.508    24205785.620    94988648.023  
E30  26256194.240   137977184.9612   26256201.280   103034897.3012 
> 2021  1  5 21 54 19.0000000  0 16       0.000000000000
G 4  22389392.260   117657020.672    22389396.020    87860768.309  
G 5  24383368.240   128135432.1292                                 
G 7  20989779.620   110302035.566                                  
G 8  22489564.920   118183388.328    22489566.280    88253824.758  
G 9  20394801.460   107175358.438    20394802.480    80033549.508  
G14  23330929.720   122604821.859                                  
G16  24492398.680   128708406.2932                                 
G27  23061733.000   121190165.176    23061734.140    90499148.438  
G28  23580735.280   123917572.6022                                 
G30  22215028.620   116740702.848    22215030.360    87176497.859  
E 2  23585961.140   123945041.465    23585966.140    92556354.801  
E 3  23575810.840   123891693.125    23575816.740    92516517.066  
E 5  26904570.040   141384418.004    26904577.680   105579259.621  
E 8  22653700.820   119045990.672    22653705.140    88897974.840  
E25  24206072.980   127203741.105    24206078.980    94989799.215  
E30  26255706.940   137974624.0982   26255713.960   103032984.9692 
> 2021  1  5 21 54 20.0000000  0 16       0.000000000000
G 4  22389900.080   117659689.301    22389903.860    87862761.113  
G 5  24382971.860   128133349.1412                                 
G 7  20989676.240   110301492.367                                  
G 8  22489221.000   118181581.098    22489222.380    88252475.199  
G 9  20394954.300   107176161.648    20394955.320    80034149.301  
G14  23330283.140   122601423.977                                  
G16  24493110.800   128712148.5202                                 
G27  23061774.760   121190384.570    23061775.880    90499312.266  
G28  23580090.920   123914186.4572                                 
G30  22214670.680   116738821.836    22214672.420    87175093.203  
E 2  23585778.420   123944081.215    23585783.400    92555637.734  
E 3  23575990.760   123892638.703    23575996.680    92517223.176  
E 5  26905089.080   141387145.535    26905096.700   105581296.410  
E 8  22653373.240   119044269.242    22653377.560    88896689.359  
E25  24206366.380   127205282.930    24206372.380    94990950.574  
E30  26255219.640   137972063.3792   26255226.660   103031072.7462 
> 2021  1  5 21 54 21.0000000  0 16       0.000000000000
G 4  22390407.980   117662358.273    22390411.740    87864754.172  
G 5  24382575.560   128131266.6562                                 
G 7  20989572.900   110300949.332                                  
G 8  22488877.200   118179774.391    22488878.580    88251126.035  
G 9  20395107.260   107176965.395    20395108.260    80034749.496  
G14  23329636.580   122598026.313                                  
G16  24493822.960   128715890.8552                                 
G27  23061816.640   121190604.637    23061817.760    90499476.594  
G28  23579446.600   123910800.5472                                 
G30  22214312.780   116736940.996    22214314.500    87173688.676  
E 2  23585595.760   123943121.309    23585600.740    92554920.918  
E 3  23576170.780   123893584.664    23576176.680    92517929.574  
E 5  26905608.140   141389873.230    26905615.780   105583333.324  
E 8  22653045.720   119042548.094    22653050.040    88895404.086  
E25  24206659.840   127206824.988    24206665.820    94992102.113  
E30  26254732.380   137969502.8322   26254739.420   103029160.6482 
> 2021  1  5 21 54 22.0000000  0 16       0.000000000000
G 4  22390915.920   117665027.590    22390919.700    87866747.488  
G 5  24382179.380   128129184.6722                                 
G 7  20989469.620   110300406.508                                  
G 8  22488533.500   118177968.176    22488534.860    88249777.234  
G 9  20395260.300   107177769.652    20395261.320    80035350.074  
G14  23328990.080   122594628.898                                  
G16  24494535.120   128719633.3202                                 
G27  23061858.640   121190825.363    23061859.760    90499641.422  
G28  23578802.320   123907414.8672                                 
G30  22213954.880   116735060.313    22213956.620    87172284.270  
E 2  23585413.160   123942161.746    23585418.140    92554204.363  
E 3  23576350.860   123894531.000    23576356.760    92518636.254  
E 5  26906127.240   141392601.078    26906134.860   105585370.355  
E 8  22652718.260   119040827.223    22652722.560    88894119.020  
E25  24206953.320   127208367.273    24206959.320    94993253.820  
E30  26254245.160   137966942.4492   26254252.180   103027248.6762 
> 2021  1  5 21 54 23.0000000  0 16       0.000000000000
G 4  22391423.940   117667697.242    22391427.720    87868741.055  
G 5  24381783.280   128127103.2072                                 
G 7  20989366.340   110299863.855                                  
G 8  22488189.880   118176162.445    22488191.260    88248428.797  
G 9  20395413.440   107178574.457    20395414.460    80035951.063  
G14  23328343.600   122591231.715                                  
G16  24495247.300   128723375.9022                                 
G27  23061900.760   121191046.766    23061901.900    90499806.750  
G28  23578158.100   123904029.4102                                 
G30  22213597.040   116733179.809    22213598.780    87170879.988  
E 2  23585230.620   123941202.527    23585235.600    92553488.063  
E 3  23576531.020   123895477.719    23576536.920    92519343.223  
E 5  26906646.360   141395329.094    26906654.000   105587407.504  
E 8  22652390.820   119039106.613    22652395.140    88892834.148  
E25  24207246.840   127209909.793    24207252.840    94994405.699  
E30  26253757.960   137964382.2302   26253765.000   103025336.8242 
> 2021  1  5 21 54 25.0000000  0 16       0.000000000000
G 4  22392440.180   117673037.570    22392443.960    87872728.957  
G 5  24380991.400   128122941.7932                                 
G 7  20989159.920   110298779.105                                  
G 8  22487502.920   118172552.512    22487504.300    88245733.063  
G 9  20395720.040   107180185.629    20395721.060    80037154.203  
G14  23327050.820   122584438.059                                  
G16  24496671.760   128730861.4302                                 
G27  23061985.420   121191491.574    23061986.540    90500138.910  
G28  23576869.760   123897259.1912                                 
G30  22212881.440   116729419.281    22212883.160    87168071.805  
E 2  23584865.740   123939285.094    23584870.720    92552056.211  
E 3  23576891.540   123897372.316    23576897.440    92520758.016  
E 5  26907684.700   141400785.602    26907692.340   105591482.168  
E 8  22651736.140   119035666.230    22651740.460    88890265.031  
E25  24207834.040   127212995.531    24207840.040    94996709.984  
E30  26252783.680   137959262.2702   26252790.700   103021513.4772 
> 2021  1  5 21 54 26.0000000  0 16       0.000000000000
G 4  22392948.400   117675708.238    22392952.160    87874723.281  
G 5  24380595.600   128120861.8402                                 
G 7  20989056.760   110298237.012                                  
G 8  22487159.580   118170748.281    22487160.980    88244385.746  
G 9  20395873.500   107180992.023    20395874.520    80037756.379  
G14  23326404.480   122581041.590                                  
G16  24497384.020   128734604.3792                                 
G27  23062027.920   121191714.988    23062029.060    90500305.738  
G28  23576225.660   123893874.4302                                 
G30  22212523.680   116727539.285    22212525.420    87166667.906  
E 2  23584683.400   123938326.891    23584688.380    92551340.672  
E 3  23577071.920   123898320.184    23577077.820    92521465.840  
E 5  26908203.920   141403514.105    26908211.560   105593519.688  
E 8  22651408.880   119033946.445    22651413.180    88888980.777  
E25  24208127.700   127214538.738    24208133.700    94997862.379  
E30  26252296.560   137956702.5232   26252303.600   103019601.9802 
> 2021  1  5 21 54 27.0000000  0 16       0.000000000000
G 4  22393456.660   117678379.262    22393460.440    87876717.871  
G 5  24380199.900   128118782.4102                                 
G 7  20988953.640   110297695.098                                  
G 8  22486816.360   118168944.551    22486817.740    88243038.801  
G 9  20396027.040   107181798.930    20396028.060    80038358.934  
G14  23325758.200   122577645.363                                  
G16  24498096.300   128738347.4302                                 
G27  23062070.560   121191939.059    23062071.700    90500473.059  
G28  23575581.600   123890489.8832                                 
G30  22212165.960   116725659.434    22212167.700    87165264.117  
E 2  23584501.120   123937369.023    23584506.120    92550625.383  
E 3  23577252.360   123899268.438    23577258.280    92522173.949  
E 5  26908723.160   141406242.758    26908730.800   105595557.316  
E 8  22651081.680   119032226.941    22651085.980    88887696.734  
E25  24208421.420   127216082.188    24208427.420    94999014.953  
E30  26251809.500   137954142.9532   26251816.520   103017690.6132 
> 2021  1  5 21 54 28.0000000  0 16       0.000000000000
G 4  22393965.020   117681050.609    22393968.780    87878712.703  
G 5  24379804.280   128116703.4732                                 
G 7  20988850.560   110297153.363                                  
G 8  22486473.200   118167141.313    22486474.580    88241692.223  
G 9  20396180.700   107182606.359    20396181.720    80038961.883  
G14  23325111.980   122574249.371                                  
G16  24498808.600   128742090.6022                                 
G27  23062113.340   121192163.816    23062114.460    90500640.895  
G28  23574937.600   123887105.5632                                 
G30  22211808.260   116723779.754    22211810.000    87163860.457  
E 2  23584318.920   123936411.488    23584323.900    92549910.340  
E 3  23577432.880   123900217.078    23577438.800    92522882.352  
E 5  26909242.440   141408971.574    26909250.080   105597595.066  
E 8  22650754.500   119030507.695    22650758.820    88886412.883  
E25  24208715.160   127217625.859    24208721.160    95000167.699  
E30  26251322.460   137951583.5432   26251329.480   103015779.3672 
> 2021  1  5 21 54 29.0000000  0 16       0.000000000000
G 4  22394473.420   117683722.305    22394477.200    87880707.797  
G 5  24379408.760   128114625.0392                                 
G 7  20988747.500   110296611.813                                  
G 8  22486130.160   118165338.570    22486131.540    88240346.016  
G 9  20396334.440   107183414.320    20396335.460    80039565.227  
G14  23324465.780   122570853.598                                  
G16  24499520.920   128745833.8912                                 
G27  23062156.220   121192389.230    23062157.360    90500809.223  
G28  23574293.620   123883721.4842                                 
G30  22211450.600   116721900.246    22211452.340    87162456.926  
E 2  23584136.760   123935454.309    23584141.760    92549195.563  
E 3  23577613.480   123901166.098    23577619.380    92523591.031  
E 5  26909761.760   141411700.547    26909769.380   105599632.934  
E 8  22650427.400   119028788.730    22650431.700    88885129.238  
E25  24209008.960   127219169.770    24209014.960    95001320.617  
E30  26250835.440   137949024.2972   26250842.480   103013868.2422 
> 2021  1  5 21 54 30.0000000  0 16       0.000000000000
G 4  22394981.900   117686394.340    22394985.660    87882703.145  
G 5  24379013.360   128112547.1212                                 
G 7  20988644.480   110296070.457                                  
G 8  22485787.200   118163536.332    22485788.580    88239000.184  
G 9  20396488.300   107184222.805    20396489.320    80040168.961  
G14  23323819.620   122567458.078                                  
G16  24500233.280   128749577.3012                                 
G27  23062199.260   121192615.316    23062200.380    90500978.047  
G28  23573649.700   123880337.6292                                 
G30  22211092.980   116720020.891    22211094.720    87161053.508  
E 2  23583954.680   123934497.465    23583959.680    92548481.035  
E 3  23577794.140   123902115.500    23577800.040    92524300.004  
E 5  26910281.100   141414429.695    26910288.720   105601670.930  
E 8  22650100.340   119027070.039    22650104.660    88883845.801  
E25  24209302.800   127220713.910    24209308.800    95002473.711  
E30  26250348.480   137946465.2192   26250355.500   103011957.2422 
> 2021  1  5 21 54 31.0000000  0 16       0.000000000000
G 4  22395490.420   117689066.707    22395494.200    87884698.734  
G 5  24378618.040   128110469.6992                                 
G 7  20988541.500   110295529.273                                  
G 8  22485444.340   118161734.574    22485445.720    88237654.711  
G 9  20396642.240   107185031.832    20396643.280    80040773.102  
G14  23323173.520   122564062.793                                  
G16  24500945.640   128753320.8092                                 
G27  23062242.400   121192842.070    23062243.540    90501147.371  
G28  23573005.820   123876954.0002                                 
G30  22210735.380   116718141.703    22210737.120    87159650.215  
E 2  23583772.660   123933540.949    23583777.660    92547766.758  
E 3  23577974.880   123903065.289    23577980.780    92525009.262  
E 5  26910800.460   141417158.977    26910808.100   105603709.031  
E 8  22649773.340   119025351.629    22649777.640    88882562.574  
E25  24209596.680   127222258.281    24209602.680    95003626.973  
E30  26249861.520   137943906.2852   26249868.540   103010046.3522 
> 2021  1  5 21 54 32.0000000  0 16       0.000000000000
G 4  22395999.020   117691739.414    22396002.800    87886694.586  
G 5  24378222.800   128108392.7892                                 
G 7  20988438.560   110294988.285                                  
G 8  22485101.560   118159933.320    22485102.960    88236309.617  
G 9  20396796.300   107185841.379    20396797.320    80041377.625  
G14  23322527.460   122560667.734                                  
G16  24501658.020   128757064.4452                                 
G27  23062285.680   121193069.488    23062286.820    90501317.191  
G28  23572361.980   123873570.5982                                 
G30  22210377.820   116716262.695    22210379.560    87158247.055  
E 2  23583590.720   123932584.777    23583595.700    92547052.734  
E 3  23578155.700   123904015.453    23578161.600    92525718.801  
E 5  26911319.860   141419888.438    26911327.500   105605747.262  
E 8  22649446.380   119023633.480    22649450.700    88881279.539  
E25  24209890.620   127223802.883    24209896.620    95004780.410  
E30  26249374.600   137941347.5202   26249381.620   103008135.5862 
> 2021  1  5 21 54 33.0000000  0 16       0.000000000000
G 4  22396507.700   117694412.473    22396511.480    87888690.695  
G 5  24377827.680   128106316.3872                                 
G 7  20988335.640   110294447.488                                  
G 8  22484758.900   118158132.563    22484760.280    88234964.895  
G 9  20396950.460   107186651.453    20396951.480    80041982.551  
G14  23321881.460   122557272.922                                  
G16  24502370.440   128760808.1952                                 
G27  23062329.080   121193297.574    23062330.220    90501487.516  
G28  23571718.180   123870187.4302                                 
G30  22210020.280   116714383.828    22210022.020    87156844.004  
E 2  23583408.820   123931628.953    23583413.820    92546338.969  
E 3  23578336.580   123904966.004    23578342.480    92526428.625  
E 5  26911839.280   141422618.055    26911846.920   105607785.613  
E 8  22649119.480   119021915.605    22649123.800    88879996.715  
E25  24210184.600   127225347.715    24210190.600    95005934.016  
E30  26248887.720   137938788.9302   26248894.740   103006224.9492 
> 2021  1  5 21 54 34.0000000  0 16       0.000000000000
G 4  22397016.420   117697085.867    22397020.200    87890687.055  
G 5  24377432.660   128104240.4882                                 
G 7  20988232.760   110293906.859                                  
G 8  22484416.320   118156332.289    22484417.700    88233620.531  
G 9  20397104.700   107187462.051    20397105.720    80042587.859  
G14  23321235.480   122553878.344                                  
G16  24503082.880   128764552.0512                                 
G27  23062372.620   121193526.336    23062373.760    90501658.336  
G28  23571074.420   123866804.5002                                 
G30  22209662.780   116712505.129    22209664.520    87155441.074  
E 2  23583227.000   123930673.465    23583231.980    92545625.453  
E 3  23578517.540   123905916.941    23578523.440    92527138.742  
E 5  26912358.740   141425347.820    26912366.380   105609824.074  
E 8  22648792.640   119020198.004    22648796.940    88878714.090  
E25  24210478.600   127226892.773    24210484.600    95007087.793  
E30  26248400.860   137936230.4882   26248407.880   103004314.4262 
> 2021  1  5 21 54 35.0000000  0 16       0.000000000000
G 4  22397525.220   117699759.590    22397529.000    87892683.664  
G 5  24377037.720   128102165.1022                                 
G 7  20988129.920   110293366.422                                  
G 8  22484073.820   118154532.523    22484075.220    88232276.543  
G 9  20397259.060   107188273.180    20397260.080    80043193.570  
G14  23320589.560   122550484.004                                  
G16  24503795.320   128768296.0312                                 
G27  23062416.260   121193755.754    23062417.400    90501829.652  
G28  23570430.720   123863421.7892                                 
G30  22209305.300   116710626.605    22209307.040    87154038.277  
E 2  23583045.240   123929718.309    23583050.220    92544912.188  
E 3  23578698.560   123906868.246    23578704.460    92527849.129  
E 5  26912878.240   141428077.758    26912885.860   105611862.660  
E 8  22648465.840   119018480.676    22648470.140    88877431.668  
E25  24210772.660   127228438.066    24210778.660    95008241.746  
E30  26247914.040   137933672.2152   26247921.060   103002404.0312 
> 2021  1  5 21 54 36.0000000  0 16       0.000000000000
G 4  22398034.080   117702433.660    22398037.860    87894680.527  
G 5  24376642.880   128100090.2192                                 
G 7  20988027.120   110292826.168                                  
G 8  22483731.440   118152733.254    22483732.820    88230932.930  
G 9  20397413.500   107189084.836    20397414.540    80043799.672  
G14  23319943.680   122547089.906                                  
G16  24504507.800   128772040.1252                                 
G27  23062460.060   121193985.859    23062461.200    90502001.480  
G28  23569787.060   123860039.3322                                 
G30  22208947.860   116708748.238    22208949.600    87152635.594  
E 2  23582863.540   123928763.492    23582868.540    92544199.180  
E 3  23578879.660   123907819.941    23578885.560    92528559.813  
E 5  26913397.760   141430807.852    26913405.400   105613901.367  
E 8  22648139.100   119016763.621    22648143.400    88876149.449  
E25  24211066.760   127229983.586    24211072.760    95009395.867  
E30  26247427.240   137931114.0902   26247434.260   103000493.7422 
> 2021  1  5 21 54 37.0000000  0 16       0.000000000000
G 4  22398543.000   117705108.074    22398546.780    87896677.648  
G 5  24376248.140   128098015.8522                                 
G 7  20987924.340   110292286.105                                  
G 8  22483389.140   118150934.484    22483390.540    88229589.691  
G 9  20397568.060   107189897.020    20397569.100    80044406.168  
G14  23319297.860   122543696.027                                  
G16  24505220.300   128775784.3282                                 
G27  23062503.960   121194216.621    23062505.120    90502173.797  
G28  23569143.440   123856657.0702                                 
G30  22208590.460   116706870.039    22208592.200    87151233.043  
E 2  23582681.920   123927809.023    23582686.900    92543486.426  
E 3  23579060.840   123908772.027    23579066.740    92529270.785  
E 5  26913917.300   141433538.105    26913924.940   105615940.191  
E 8  22647812.400   119015046.848    22647816.720    88874867.445  
E25  24211360.920   127231529.328    24211366.920    95010550.152  
E30  26246940.480   137928556.1602   26246947.500   102998583.6022 
> 2021  1  5 21 54 38.0000000  0 16       0.000000000000
G 4  22399051.980   117707782.828    22399055.780    87898675.027  
G 5  24375853.500   128095941.9772                                 
G 7  20987821.620   110291746.242                                  
G 8  22483046.940   118149136.219    22483048.340    88228246.828  
G 9  20397722.720   107190709.730    20397723.740    80045013.059  
G14  23318652.080   122540302.418                                  
G16  24505932.820   128779528.6372                                 
G27  23062548.000   121194448.047    23062549.140    90502346.613  
G28  23568499.860   123853275.0742                                 
G30  22208233.080   116704992.012    22208234.820    87149830.617  
E 2  23582500.360   123926854.883    23582505.340    92542773.918  
E 3  23579242.080   123909724.484    23579248.000    92529982.035  
E 5  26914436.880   141436268.523    26914444.520   105617979.137  
E 8  22647485.760   119013330.348    22647490.080    88873585.645  
E25  24211655.100   127233075.313    24211661.100    95011704.621  
E30  26246453.760   137925998.3672   26246460.780   102996673.5632 
> 2021  1  5 21 54 39.0000000  0 16       0.000000000000
G 4  22399561.040   117710457.918    22399564.840    87900672.656  
G 5  24375458.940   128093868.6252                                 
G 7  20987718.920   110291206.555                                  
G 8  22482704.840   118147338.445    22482706.240    88226904.332  
G 9  20397877.480   107191522.973    20397878.500    80045620.348  
G14  23318006.320   122536909.027                                  
G16  24506645.360   128783273.0702                                 
G27  23062592.180   121194680.156    23062593.320    90502519.938  
G28  23567856.320   123849893.2892                                 
G30  22207875.720   116703114.148    22207877.480    87148428.313  
E 2  23582318.860   123925901.094    23582323.840    92542061.672  
E 3  23579423.400   123910677.332    23579429.320    92530693.578  
E 5  26914956.500   141438999.090    26914964.140   105620018.195  
E 8  22647159.180   119011614.109    22647163.480    88872304.039  
E25  24211949.340   127234621.527    24211955.340    95012859.262  
E30  26245967.060   137923440.7382   26245974.080   102994763.6452 
> 2021  1  5 21 54 40.0000000  0 16       0.000000000000
G 4  22400070.160   117713133.344    22400073.940    87902670.535  
G 5  24375064.500   128091795.7812                                 
G 7  20987616.240   110290667.039                                  
G 8  22482362.820   118145541.164    22482364.220    88225562.203  
G 9  20398032.320   107192336.738    20398033.360    80046228.027  
G14  23317360.640   122533515.879                                  
G16  24507357.940   128787017.6252                                 
G27  23062636.480   121194912.930    23062637.620    90502693.758  
G28  23567212.840   123846511.7502                                 
G30  22207518.420   116701236.445    22207520.160    87147026.129  
E 2  23582137.420   123924947.637    23582142.400    92541349.676  
E 3  23579604.800   123911630.559    23579610.700    92531405.402  
E 5  26915476.140   141441729.828    26915483.780   105622057.383  
E 8  22646832.640   119009898.160    22646836.940    88871022.648  
E25  24212243.620   127236167.977    24212249.620    95014014.078  
E30  26245480.380   137920883.2812   26245487.400   102992853.8592 
> 2021  1  5 21 54 41.0000000  0 16       0.000000000000
G 4  22400579.340   117715809.113    22400583.140    87904668.668  
G 5  24374670.140   128089723.4342                                 
G 7  20987513.620   110290127.723                                  
G 8  22482020.920   118143744.391    22482022.300    88224220.453  
G 9  20398187.280   107193151.023    20398188.320    80046836.094  
G14  23316714.980   122530122.957                                  
G16  24508070.520   128790762.2812                                 
G27  23062680.900   121195146.375    23062682.040    90502868.082  
G28  23566569.400   123843130.4302                                 
G30  22207161.120   116699358.906    22207162.880    87145624.066  
E 2  23581956.040   123923994.523    23581961.020    92540637.938  
E 3  23579786.260   123912584.168    23579792.180    92532117.516  
E 5  26915995.820   141444460.719    26916003.460   105624096.684  
E 8  22646506.160   119008182.484    22646510.460    88869741.461  
E25  24212537.940   127237714.652    24212543.940    95015169.063  
E30  26244993.740   137918325.9802   26245000.760   102990944.1842 
> 2021  1  5 21 54 42.0000000  0 16       0.000000000000
G 4  22401088.580   117718485.230    22401092.380    87906667.063  
G 5  24374275.880   128087651.5942                                 
G 7  20987411.020   110289588.594                                  
G 8  22481679.100   118141948.125    22481680.480    88222879.082  
G 9  20398342.340   107193965.852    20398343.380    80047444.563  
G14  23316069.380   122526730.285                                  
G16  24508783.120   128794507.0592                                 
G27  23062725.440   121195380.477    23062726.580    90503042.895  
G28  23565926.000   123839749.3362                                 
G30  22206803.880   116697481.539    22206805.620    87144222.133  
E 2  23581774.740   123923041.738    23581779.720    92539926.441  
E 3  23579967.800   123913538.160    23579973.720    92532829.910  
E 5  26916515.520   141447191.766    26916523.160   105626136.102  
E 8  22646179.720   119006467.074    22646184.040    88868460.477  
E25  24212832.300   127239261.559    24212838.300    95016324.219  
E30  26244507.140   137915768.8402   26244514.160   102989034.6332 
> 2021  1  5 21 54 43.0000000  0 16       0.000000000000
G 4  22401597.900   117721161.672    22401601.700    87908665.699  
G 5  24373881.720   128085580.2622                                 
G 7  20987308.460   110289049.637                                  
G 8  22481337.360   118140152.344    22481338.760    88221538.074  
G 9  20398497.500   107194781.199    20398498.520    80048053.422  
G14  23315423.820   122523337.855                                  
G16  24509495.760   128798251.9452                                 
G27  23062770.120   121195615.254    23062771.260    90503218.211  
G28  23565282.640   123836368.4772                                 
G30  22206446.660   116695604.336    22206448.400    87142820.324  
E 2  23581593.500   123922089.297    23581598.480    92539215.203  
E 3  23580149.420   123914492.531    23580155.320    92533542.590  
E 5  26917035.240   141449922.977    26917042.880   105628175.637  
E 8  22645853.340   119004751.926    22645857.660    88867179.684  
E25  24213126.720   127240808.688    24213132.720    95017479.543  
E30  26244020.560   137913211.8752   26244027.580   102987125.2112 
> 2021  1  5 21 54 44.0000000  0 16       0.000000000000
G 4  22402107.280   117723838.457    22402111.080    87910664.594  
G 5  24373487.660   128083509.4412                                 
G 7  20987205.940   110288510.887                                  
G 8  22480995.740   118138357.090    22480997.140    88220197.461  
G 9  20398652.740   107195597.070    20398653.780    80048662.676  
G14  23314778.300   122519945.648                                  
G16  24510208.400   128801996.9492                                 
G27  23062814.920   121195850.695    23062816.080    90503394.023  
G28  23564639.320   123832987.8362                                 
G30  22206089.460   116693727.297    22206091.220    87141418.637  
E 2  23581412.320   123921137.199    23581417.300    92538504.219  
E 3  23580331.100   123915447.289    23580337.000    92534255.559  
E 5  26917555.020   141452654.348    26917562.660   105630215.297  
E 8  22645527.020   119003037.063    22645531.320    88865899.102  
E25  24213421.180   127242356.051    24213427.180    95018635.039  
E30  26243534.020   137910655.0472   26243541.040   102985215.8912 
> 2021  1  5 21 54 45.0000000  0 16       0.000000000000
G 4  22402616.720   117726515.574    22402620.520    87912663.734  
G 5  24373093.680   128081439.1252                                 
G 7  20987103.460   110287972.313                                  
G 8  22480654.200   118136562.324    22480655.600    88218857.211  
G 9  20398808.100   107196413.465    20398809.140    80049272.313  
G14  23314132.840   122516553.676                                  
G16  24510921.080   128805742.0702                                 
G27  23062859.860   121196086.816    23062861.000    90503570.344  
G28  23563996.060   123829607.4412                                 
G30  22205732.320   116691850.414    22205734.060    87140017.063  
E 2  23581231.200   123920185.434    23581236.180    92537793.484  
E 3  23580512.860   123916402.426    23580518.760    92534968.809  
E 5  26918074.800   141455385.875    26918082.440   105632255.074  
E 8  22645200.740   119001322.477    22645205.040    88864618.730  
E25  24213715.660   127243903.645    24213721.680    95019790.715  
E30  26243047.500   137908098.4022   26243054.520   102983306.7112 
> 2021  1  5 21 54 46.0000000  0 16       0.000000000000
G 4  22403126.220   117729193.047    22403130.020    87914663.141  
G 5  24372699.820   128079369.3202                                 
G 7  20987001.000   110287433.918                                  
G 8  22480312.760   118134768.051    22480314.160    88217517.328  
G 9  20398963.560   107197230.402    20398964.600    80049882.359  
G14  23313487.400   122513161.961                                  
G16  24511633.780   128809487.3012                                 
G27  23062904.920   121196323.602    23062906.060    90503747.160  
G28  23563352.820   123826227.2772                                 
G30  22205375.180   116689973.711    22205376.940    87138615.625  
E 2  23581050.140   123919234.012    23581055.120    92537083.008  
E 3  23580694.680   123917357.945    23580700.600    92535682.344  
E 5  26918594.640   141458117.566    26918602.260   105634294.973  
E 8  22644874.520   118999608.160    22644878.820    88863338.559  
E25  24214010.220   127245451.469    24214016.220    95020946.555  
E30  26242561.020   137905541.9062   26242568.040   102981397.6412 
> 2021  1  5 21 54 47.0000000  0 16       0.000000000000
G 4  22403635.780   117731870.844    22403639.580    87916662.785  
G 5  24372306.040   128077300.0042                                 
G 7  20986898.580   110286895.715                                  
G 8  22479971.420   118132974.281    22479972.820    88216177.820  
G 9  20399119.120   107198047.867    20399120.160    80050492.805  
G14  23312842.020   122509770.457                                  
G16  24512346.480   128813232.6412                                 
G27  23062950.100   121196561.051    23062951.260    90503924.473  
G28  23562709.640   123822847.3522                                 
G30  22205018.080   116688097.156    22205019.840    87137214.297  
E 2  23580869.160   123918282.926    23580874.140    92536372.781  
E 3  23580876.600   123918313.852    23580882.500    92536396.172  
E 5  26919114.480   141460849.410    26919122.120   105636334.984  
E 8  22644548.340   118997894.125    22644552.660    88862058.598  
E25  24214304.800   127246999.520    24214310.800    95022102.566  
E30  26242074.560   137902985.5902   26242081.580   102979488.6992 
> 2021  1  5 21 54 48.0000000  0 16       0.000000000000
G 4  22404145.420   117734548.984    22404149.220    87918662.695  
G 5  24371912.360   128075231.2192                                 
G 7  20986796.200   110286357.691                                  
G 8  22479630.180   118131181.016    22479631.580    88214838.691  
G 9  20399274.780   107198865.859    20399275.820    80051103.637  
G14  23312196.700   122506379.215                                  
G16  24513059.220   128816978.0942                                 
G27  23062995.420   121196799.176    23062996.560    90504102.289  
G28  23562066.520   123819467.6412                                 
G30  22204661.020   116686220.781    22204662.780    87135813.105  
E 2  23580688.240   123917332.172    23580693.220    92535662.805  
E 3  23581058.560   123919270.137    23581064.480    92537110.281  
E 5  26919634.360   141463581.410    26919642.000   105638375.113  
E 8  22644222.220   118996180.359    22644226.540    88860778.840  
E25  24214599.420   127248547.809    24214605.420    95023258.754  
E30  26241588.140   137900429.4302   26241595.160   102977579.8792 
> 2021  1  5 21 54 49.0000000  0 16       0.000000000000
G 4  22404655.120   117737227.473    22404658.920    87920662.859  
G 5  24371518.780   128073162.9412                                 
G 7  20986693.860   110285819.848                                  
G 8  22479289.020   118129388.242    22479290.420    88213499.930  
G 9  20399430.540   107199684.375    20399431.580    80051714.863  
G14  23311551.400   122502988.199                                  
G16  24513771.980   128820723.6682                                 
G27  23063040.860   121197037.957    23063042.000    90504280.594  
G28  23561423.420   123816088.1722                                 
G30  22204304.000   116684344.563    22204305.740    87134412.027  
E 2  23580507.380   123916381.777    23580512.360    92534953.094  
E 3  23581240.620   123920226.805    23581246.520    92537824.676  
E 5  26920154.280   141466313.578    26920161.920   105640415.367  
E 8  22643896.160   118994466.863    22643900.460    88859499.281  
E25  24214894.100   127250096.324    24214900.100    95024415.113  
E30  26241101.760   137897873.4302   26241108.780   102975671.1802 
> 2021  1  5 21 54 50.0000000  0 16       0.000000000000
G 4  22405164.880   117739906.293    22405168.700    87922663.270  
G 5  24371125.300   128071095.1562                                 
G 7  20986591.540   110285282.207                                  
G 8  22478947.960   118127595.965    22478949.360    88212161.535  
G 9  20399586.400   107200503.414    20399587.440    80052326.477  
G14  23310906.160   122499597.430                                  
G16  24514484.760   128824469.3482                                 
G27  23063086.420   121197277.414    23063087.580    90504459.406  
G28  23560780.360   123812708.9302                                 
G30  22203947.000   116682468.512    22203948.740    87133011.082  
E 2  23580326.600   123915431.711    23580331.580    92534243.629  
E 3  23581422.740   123921183.855    23581428.640    92538539.355  
E 5  26920674.220   141469045.902    26920681.860   105642455.738  
E 8  22643570.140   118992753.633    22643574.440    88858219.922  
E25  24215188.820   127251645.066    24215194.820    95025571.641  
E30  26240615.400   137895317.6052   26240622.420   102973762.6092 
