     3.03           OBSERVATION DATA    M: Mixed            RINEX VERSION / TYPE
sbp2rinex v2.2 (RTKL                    20210504 171529 UTC PGM / RUN BY / DATE 
log: 202101052110-202101052130.sbp                          COMMENT             
format: Swift Navigation SBP, option: CONVBASE,EPHALL,OBSALLCOMMENT             
                                                            MARKER NAME         
                                                            MARKER NUMBER       
                                                            MARKER TYPE         
                                                            OBSERVER / AGENCY   
                                                            REC # / TYPE / VERS 
                                                            ANT # / TYPE        
 -2711592.7870 -4352797.4638  3779532.8122                  APPROX POSITION XYZ 
        0.0000        0.0000        0.0000                  ANTENNA: DELTA H/E/N
G    4 C1C L1C C5I L5I                                      SYS / # / OBS TYPES 
E    4 C1B L1B C5I L5I                                      SYS / # / OBS TYPES 
  2021     1     5    21    10   20.0000000     GPS         TIME OF FIRST OBS   
  2021     1     5    21    40   16.0000000     GPS         TIME OF LAST OBS    
G                                                           SYS / PHASE SHIFT   
E                                                           SYS / PHASE SHIFT   
  0                                                         GLONASS SLOT / FRQ #
 C1C    0.000 C1P    0.000 C2C    0.000 C2P    0.000        GLONASS COD/PHS/BIS 
                                                            END OF HEADER       
> 2021  1  5 21 10 20.0000000  0 14       0.000000000000
G 3  24194577.380   127143285.078    24194581.240    94944653.242  
G 4  21290896.100   111884391.895    21290899.400    83550040.953  
G 7  21389125.100   112400605.020                                  
G 8  23662946.880   124349539.242    23662949.300    92858413.848  
G 9  20327926.000   106823927.301    20327926.980    79771117.375  
G16  22750643.960   119555429.719                                  
G27  23374583.280   122834198.602    23374584.920    91726833.695  
G30  23268693.960   122277742.883    23268696.440    91311297.605  
E 2  24295077.360   127671465.418    24295082.880    95339071.895  
E 3  23349014.820   122699871.371    23349020.800    91626520.043  
E 5  25660258.140   134845524.195    25660265.080   100696322.160  
E 8  23666005.400   124365679.730    23666010.260    92870467.684  
E24  27170672.120   142782828.371    27170690.580   106623552.195  
E25  23615710.740   124101365.051    23615716.880    92673089.320  
> 2021  1  5 21 10 21.0000000  0 14       0.000000000000
G 3  24195287.660   127147017.680    24195291.540    94947440.574  
G 4  21291216.640   111886076.262    21291219.920    83551298.762  
G 7  21388923.860   112399547.512                                  
G 8  23662426.960   124346807.105    23662429.400    92856373.621  
G 9  20327831.300   106823429.629    20327832.280    79770745.738  
G16  22751227.940   119558498.480                                  
G27  23374316.780   122832798.109    23374318.420    91725787.875  
G30  23268253.480   122275428.113    23268255.960    91309569.047  
E 2  24294723.620   127669606.527    24294729.140    95337683.758  
E 3  23349010.540   122699848.848    23349016.500    91626503.223  
E 5  25660675.900   134847719.539    25660682.840   100697961.539  
E 8  23665578.080   124363434.160    23665582.940    92868790.797  
E24  27171181.760   142785506.605    27171200.240   106625552.172  
E25  23615853.640   124102115.957    23615859.760    92673650.063  
> 2021  1  5 21 10 22.0000000  0 14       0.000000000000
G 3  24195997.960   127150750.293    24196001.820    94950227.914  
G 4  21291537.240   111887761.020    21291540.520    83552556.859  
G 7  21388722.660   112398490.223                                  
G 8  23661907.100   124344075.180    23661909.520    92854333.543  
G 9  20327736.680   106822932.402    20327737.660    79770374.434  
G16  22751811.980   119561567.633                                  
G27  23374050.360   122831398.137    23374052.020    91724742.441  
G30  23267813.020   122273113.512    23267815.500    91307840.609  
E 2  24294369.940   127667747.965    24294375.460    95336295.875  
E 3  23349006.300   122699826.656    23349012.280    91626486.652  
E 5  25661093.700   134849915.117    25661100.640   100699601.090  
E 8  23665150.780   124361188.707    23665155.640    92867113.996  
E24  27171691.420   142788184.910    27171709.900   106627552.203  
E25  23615996.600   124102867.219    23616002.720    92674211.070  
> 2021  1  5 21 10 23.0000000  0 14       0.000000000000
G 3  24196708.260   127154482.957    24196712.140    94953015.289  
G 4  21291857.900   111889446.172    21291861.200    83553815.250  
G 7  21388521.500   112397433.141                                  
G 8  23661387.260   124341343.449    23661389.680    92852293.617  
G 9  20327642.140   106822435.609    20327643.120    79770003.449  
G16  22752396.100   119564637.188                                  
G27  23373784.060   122829998.691    23373785.700    91723697.402  
G30  23267372.600   122270799.066    23267375.080    91306112.293  
E 2  24294016.320   127665889.727    24294021.840    95334908.230  
E 3  23349002.140   122699804.805    23349008.120    91626470.336  
E 5  25661511.560   134852110.926    25661518.500   100701240.816  
E 8  23664723.500   124358943.379    23664728.380    92865437.297  
E24  27172201.100   142790863.285    27172219.580   106629552.289  
E25  23616139.620   124103618.852    23616145.760    92674772.352  
> 2021  1  5 21 10 24.0000000  0 14       0.000000000000
G 3  24197418.580   127158215.652    24197422.440    94955802.688  
G 4  21292178.660   111891131.707    21292181.940    83555073.930  
G 7  21388320.380   112396376.277                                  
G 8  23660867.480   124338611.918    23660869.900    92850253.840  
G 9  20327547.700   106821939.258    20327548.660    79769632.801  
G16  22752980.280   119567707.137                                  
G27  23373517.860   122828599.750    23373519.500    91722652.738  
G30  23266932.200   122268484.785    23266934.680    91304384.094  
E 2  24293662.780   127664031.824    24293668.300    95333520.836  
E 3  23348998.060   122699783.293    23349004.020    91626454.273  
E 5  25661929.440   134854306.973    25661936.400   100702880.723  
E 8  23664296.240   124356698.184    23664301.120    92863760.688  
E24  27172710.800   142793541.742    27172729.260   106631552.430  
E25  23616282.720   124104370.840    23616288.840    92675333.902  
> 2021  1  5 21 10 25.0000000  0 14       0.000000000000
G 3  24198128.900   127161948.375    24198132.760    94958590.109  
G 4  21292499.480   111892817.645    21292502.760    83556332.906  
G 7  21388119.300   112395319.609                                  
G 8  23660347.720   124335880.586    23660350.140    92848214.211  
G 9  20327453.320   106821443.355    20327454.300    79769262.480  
G16  22753564.560   119570777.500                                  
G27  23373251.740   122827201.348    23373253.400    91721608.477  
G30  23266491.840   122266170.676    23266494.320    91302656.027  
E 2  24293309.300   127662174.246    24293314.820    95332133.684  
E 3  23348994.020   122699762.117    23349000.000    91626438.457  
E 5  25662347.380   134856503.250    25662354.320   100704520.797  
E 8  23663869.020   124354453.113    23663873.900    92862084.176  
E24  27173220.500   142796220.285    27173238.980   106633552.641  
E25  23616425.880   124105123.191    23616432.020    92675895.723  
> 2021  1  5 21 10 26.0000000  0 14       0.000000000000
G 3  24198839.220   127165681.129    24198843.080    94961377.555  
G 4  21292820.360   111894503.957    21292823.660    83557592.168  
G 7  21387918.280   112394263.156                                  
G 8  23659828.000   124333149.438    23659830.420    92846174.719  
G 9  20327359.040   106820947.887    20327360.000    79768892.488  
G16  22754148.900   119573848.242                                  
G27  23372985.740   122825803.477    23372987.380    91720564.613  
G30  23266051.520   122263856.730    23266053.980    91300928.082  
E 2  24292955.860   127660317.004    24292961.380    95330746.781  
E 3  23348990.060   122699741.293    23348996.020    91626422.906  
E 5  25662765.360   134858699.770    25662772.300   100706161.055  
E 8  23663441.820   124352208.172    23663446.700    92860407.758  
E24  27173730.220   142798898.906    27173748.700   106635552.910  
E25  23616569.120   124105875.918    23616575.260    92676457.824  
> 2021  1  5 21 10 27.0000000  0 14       0.000000000000
G 3  24199549.540   127169413.910    24199553.400    94964165.020  
G 4  21293141.340   111896190.680    21293144.640    83558851.734  
G 7  21387717.280   112393206.914                                  
G 8  23659308.320   124330418.512    23659310.740    92844135.395  
G 9  20327264.840   106820452.871    20327265.820    79768522.836  
G16  22754733.320   119576919.414                                  
G27  23372719.840   122824406.129    23372721.480    91719521.141  
G30  23265611.220   122261542.938    23265613.680    91299200.250  
E 2  24292602.500   127658460.094    24292608.020    95329360.129  
E 3  23348986.160   122699720.805    23348992.120    91626407.605  
E 5  25663183.400   134860896.523    25663190.340   100707801.488  
E 8  23663014.640   124349963.363    23663019.520    92858731.441  
E24  27174239.960   142801577.609    27174258.440   106637553.238  
E25  23616712.420   124106629.008    23616718.560    92677020.195  
> 2021  1  5 21 10 28.0000000  0 14       0.000000000000
G 3  24200259.880   127173146.758    24200263.740    94966952.535  
G 4  21293462.380   111897877.777    21293465.680    83560111.578  
G 7  21387516.320   112392150.875                                  
G 8  23658788.680   124327687.758    23658791.100    92842096.195  
G 9  20327170.720   106819958.285    20327171.700    79768153.500  
G16  22755317.820   119579990.961                                  
G27  23372454.020   122823009.289    23372455.660    91718478.047  
G30  23265170.940   122259229.332    23265173.420    91297472.559  
E 2  24292249.200   127656603.508    24292254.720    95327973.719  
E 3  23348982.320   122699700.645    23348988.280    91626392.555  
E 5  25663601.460   134863093.504    25663608.400   100709442.090  
E 8  23662587.500   124347718.676    23662592.360    92857055.215  
E24  27174749.720   142804256.387    27174768.200   106639553.621  
E25  23616855.800   124107382.453    23616861.940    92677582.836  
> 2021  1  5 21 10 30.0000000  0 14       0.000000000000
G 3  24201680.560   127180612.500    24201684.420    94972527.594  
G 4  21294104.700   111901253.156    21294107.980    83562632.152  
G 7  21387114.520   112390039.438                                  
G 8  23657749.480   124322226.777    23657751.900    92838018.191  
G 9  20326982.740   106818970.422    20326983.720    79767415.813  
G16  22756487.040   119586135.262                                  
G27  23371922.700   122820217.215    23371924.360    91716393.059  
G30  23264290.500   122254602.570    23264292.980    91294017.512  
E 2  24291542.800   127652891.301    24291548.320    95325201.617  
E 3  23348974.840   122699661.352    23348980.820    91626363.211  
E 5  25664437.740   134867488.152    25664444.680   100712723.805  
E 8  23661733.260   124343229.676    23661738.140    92853703.039  
E24  27175769.280   142809614.172    27175787.740   106643554.566  
E25  23617142.760   124108890.438    23617148.900    92678708.926  
> 2021  1  5 21 10 31.0000000  0 14       0.000000000000
G 3  24202390.920   127184345.434    24202394.780    94975315.172  
G 4  21294425.960   111902941.430    21294429.260    83563892.875  
G 7  21386913.680   112388984.031                                  
G 8  23657229.940   124319496.602    23657232.360    92835979.426  
G 9  20326888.880   106818477.168    20326889.840    79767047.473  
G16  22757071.760   119589208.020                                  
G27  23371657.200   122818821.965    23371658.840    91715351.148  
G30  23263850.320   122252289.438    23263852.800    91292290.176  
E 2  24291189.680   127651035.699    24291195.200    95323815.945  
E 3  23348971.200   122699642.207    23348977.160    91626348.918  
E 5  25664855.940   134869685.855    25664862.900   100714364.949  
E 8  23661306.180   124340985.355    23661311.060    92852027.090  
E24  27176279.080   142812293.180    27176297.540   106645555.125  
E25  23617286.340   124109644.965    23617292.480    92679272.375  
> 2021  1  5 21 10 32.0000000  0 14       0.000000000000
G 3  24203101.280   127188078.422    24203105.160    94978102.793  
G 4  21294747.320   111904630.094    21294750.600    83565153.891  
G 7  21386712.880   112387928.832                                  
G 8  23656710.440   124316766.633    23656712.860    92833940.816  
G 9  20326795.100   106817984.348    20326796.060    79766679.457  
G16  22757656.580   119592281.176                                  
G27  23371391.800   122817427.234    23371393.440    91714309.633  
G30  23263410.180   122249976.469    23263412.660    91290562.957  
E 2  24290836.640   127649180.422    24290842.160    95322430.516  
E 3  23348967.620   122699623.406    23348973.580    91626334.883  
E 5  25665274.200   134871883.777    25665281.140   100716006.258  
E 8  23660879.140   124338741.176    23660884.000    92850351.246  
E24  27176788.880   142814972.258    27176807.360   106647555.738  
E25  23617430.000   124110399.859    23617436.120    92679836.102  
> 2021  1  5 21 10 33.0000000  0 14       0.000000000000
G 3  24203811.640   127191811.395    24203815.520    94980890.398  
G 4  21295068.720   111906319.156    21295072.020    83566415.199  
G 7  21386512.140   112386873.840                                  
G 8  23656190.980   124314036.863    23656193.400    92831902.352  
G 9  20326701.400   106817491.961    20326702.360    79766311.766  
G16  22758241.460   119595354.738                                  
G27  23371126.480   122816033.047    23371128.120    91713268.520  
G30  23262970.080   122247663.668    23262972.540    91288835.867  
E 2  24290483.660   127647325.477    24290489.160    95321045.332  
E 3  23348964.100   122699604.938    23348970.080    91626321.098  
E 5  25665692.500   134874081.926    25665699.440   100717647.734  
E 8  23660452.100   124336497.117    23660456.980    92848675.492  
E24  27177298.720   142817651.418    27177317.180   106649556.414  
E25  23617573.720   124111155.121    23617579.840    92680400.098  
> 2021  1  5 21 10 34.0000000  0 14       0.000000000000
G 3  24204522.020   127195544.449    24204525.900    94983678.070  
G 4  21295390.220   111908008.605    21295393.520    83567676.801  
G 7  21386311.420   112385819.059                                  
G 8  23655671.560   124311307.305    23655673.980    92829864.047  
G 9  20326607.800   106817000.031    20326608.760    79765944.414  
G16  22758826.400   119598428.703                                  
G27  23370861.280   122814639.352    23370862.920    91712227.773  
G30  23262530.000   122245351.027    23262532.460    91287108.895  
E 2  24290130.740   127645470.852    24290136.240    95319660.391  
E 3  23348960.660   122699586.820    23348966.620    91626307.570  
E 5  25666110.840   134876280.297    25666117.780   100719289.379  
E 8  23660025.100   124334253.188    23660029.960    92846999.836  
E24  27177808.560   142820330.664    27177827.020   106651557.148  
E25  23617717.500   124111910.746    23617723.640    92680964.367  
> 2021  1  5 21 10 35.0000000  0 14       0.000000000000
G 3  24205232.400   127199277.496    24205236.260    94986465.730  
G 4  21295711.780   111909698.438    21295715.080    83568938.691  
G 7  21386110.740   112384764.492                                  
G 8  23655152.180   124308577.922    23655154.600    92827825.875  
G 9  20326514.260   106816508.527    20326515.220    79765577.383  
G16  22759411.440   119601503.055                                  
G27  23370596.160   122813246.188    23370597.800    91711187.426  
G30  23262089.940   122243038.555    23262092.420    91285382.051  
E 2  24289777.880   127643616.559    24289783.380    95318275.695  
E 3  23348957.280   122699569.027    23348963.240    91626294.289  
E 5  25666529.220   134878478.926    25666536.160   100720931.215  
E 8  23659598.120   124332009.375    23659602.980    92845324.266  
E24  27178318.420   142823009.980    27178336.880   106653557.941  
E25  23617861.360   124112666.730    23617867.500    92681528.906  
> 2021  1  5 21 10 36.0000000  0 14       0.000000000000
G 3  24205942.780   127203010.621    24205946.660    94989253.453  
G 4  21296033.420   111911388.664    21296036.720    83570200.875  
G 7  21385910.100   112383710.125                                  
G 8  23654632.840   124305848.762    23654635.260    92825787.867  
G 9  20326420.820   106816017.473    20326421.780    79765210.688  
G16  22759996.540   119604577.809                                  
G27  23370331.160   122811853.566    23370332.800    91710147.480  
G30  23261649.920   122240726.238    23261652.400    91283655.320  
E 2  24289425.080   127641762.590    24289430.580    95316891.242  
E 3  23348953.960   122699551.578    23348959.920    91626281.262  
E 5  25666947.640   134880677.785    25666954.580   100722573.223  
E 8  23659171.160   124329765.715    23659176.020    92843648.813  
E24  27178828.300   142825689.387    27178846.760   106655558.797  
E25  23618005.300   124113423.082    23618011.420    92682093.715  
> 2021  1  5 21 10 37.0000000  0 14       0.000000000000
G 3  24206653.180   127206743.727    24206657.040    94992041.160  
G 4  21296355.140   111913079.273    21296358.420    83571463.340  
G 7  21385709.500   112382655.973                                  
G 8  23654113.540   124303119.777    23654115.940    92823749.988  
G 9  20326327.460   106815526.855    20326328.420    79764844.316  
G16  22760581.720   119607652.965                                  
G27  23370066.240   122810461.453    23370067.880    91709107.914  
G30  23261209.940   122238414.098    23261212.400    91281928.723  
E 2  24289072.340   127639908.953    24289077.840    95315507.039  
E 3  23348950.700   122699534.473    23348956.660    91626268.492  
E 5  25667366.120   134882876.840    25667373.060   100724215.371  
E 8  23658744.220   124327522.168    23658749.080    92841973.441  
E24  27179338.180   142828368.855    27179356.640   106657559.707  
E25  23618149.300   124114179.789    23618155.420    92682658.797  
> 2021  1  5 21 10 38.0000000  0 14       0.000000000000
G 3  24207363.580   127210476.891    24207367.440    94994828.910  
G 4  21296676.920   111914770.289    21296680.220    83572726.109  
G 7  21385508.940   112381602.035                                  
G 8  23653594.260   124300390.984    23653596.680    92821712.254  
G 9  20326234.180   106815036.680    20326235.140    79764478.277  
G16  22761166.980   119610728.508                                  
G27  23369801.440   122809069.887    23369803.080    91708068.758  
G30  23260769.980   122236102.102    23260772.440    91280202.230  
E 2  24288719.660   127638055.652    24288725.180    95314123.082  
E 3  23348947.500   122699517.699    23348953.460    91626255.969  
E 5  25667784.640   134885076.191    25667791.580   100725857.750  
E 8  23658317.320   124325278.742    23658322.180    92840298.160  
E24  27179848.080   142831048.414    27179866.540   106659560.676  
E25  23618293.360   124114936.871    23618299.480    92683224.148  
> 2021  1  5 21 10 39.0000000  0 14       0.000000000000
G 3  24208073.980   127214210.098    24208077.860    94997616.695  
G 4  21296998.800   111916461.688    21297002.080    83573989.168  
G 7  21385308.420   112380548.309                                  
G 8  23653075.020   124297662.402    23653077.440    92819674.680  
G 9  20326140.980   106814546.957    20326141.960    79764112.574  
G16  22761752.320   119613804.457                                  
G27  23369536.720   122807678.832    23369538.360    91707029.988  
G30  23260330.060   122233790.285    23260332.520    91278475.879  
E 2  24288367.060   127636202.680    24288372.560    95312739.375  
E 3  23348944.380   122699501.285    23348950.340    91626243.715  
E 5  25668203.200   134887275.750    25668210.140   100727500.281  
E 8  23657890.420   124323035.445    23657895.280    92838622.973  
E24  27180358.000   142833728.051    27180376.460   106661561.707  
E25  23618437.500   124115694.309    23618443.620    92683789.773  
> 2021  1  5 21 10 40.0000000  0 14       0.000000000000
G 3  24208784.400   127217943.336    24208788.260    95000404.500  
G 4  21297320.720   111918153.480    21297324.020    83575252.520  
G 7  21385107.940   112379494.781                                  
G 8  23652555.840   124294934.020    23652558.240    92817637.250  
G 9  20326047.880   106814057.668    20326048.840    79763747.195  
G16  22762337.740   119616880.813                                  
G27  23369272.120   122806288.313    23369273.760    91705991.613  
G30  23259890.160   122231478.625    23259892.620    91276749.637  
E 2  24288014.500   127634350.031    24288020.020    95311355.906  
E 3  23348941.320   122699485.195    23348947.280    91626231.703  
E 5  25668621.820   134889475.551    25668628.740   100729142.992  
E 8  23657463.560   124320792.289    23657468.420    92836947.895  
E24  27180867.940   142836407.766    27180886.400   106663562.793  
E25  23618581.700   124116452.113    23618587.820    92684355.672  
> 2021  1  5 21 10 41.0000000  0 14       0.000000000000
G 3  24209494.800   127221676.578    24209498.680    95003192.309  
G 4  21297642.740   111919845.660    21297646.040    83576516.156  
G 7  21384907.500   112378441.469                                  
G 8  23652036.680   124292205.828    23652039.080    92815599.969  
G 9  20325954.860   106813568.809    20325955.820    79763382.137  
G16  22762923.220   119619957.563                                  
G27  23369007.620   122804898.313    23369009.260    91704953.625  
G30  23259450.300   122229167.129    23259452.760    91275023.523  
E 2  24287662.020   127632497.703    24287667.520    95309972.680  
E 3  23348938.320   122699469.438    23348944.280    91626219.941  
E 5  25669040.460   134891675.574    25669047.400   100730785.867  
E 8  23657036.740   124318549.254    23657041.600    92835272.906  
E24  27181377.880   142839087.551    27181396.340   106665563.938  
E25  23618725.980   124117210.277    23618732.100    92684921.836  
> 2021  1  5 21 10 42.0000000  0 14       0.000000000000
G 3  24210205.240   127225409.871    24210209.100    95005980.156  
G 4  21297964.820   111921538.230    21297968.120    83577780.094  
G 7  21384707.100   112377388.375                                  
G 8  23651517.560   124289477.836    23651519.960    92813562.832  
G 9  20325861.920   106813080.398    20325862.880    79763017.418  
G16  22763508.780   119623034.715                                  
G27  23368743.200   122803508.832    23368744.840    91703916.027  
G30  23259010.460   122226855.797    23259012.940    91273297.527  
E 2  24287309.600   127630645.727    24287315.100    95308589.715  
E 3  23348935.380   122699454.035    23348941.340    91626208.445  
E 5  25669459.160   134893875.820    25669466.100   100732428.914  
E 8  23656609.920   124316306.348    23656614.780    92833598.012  
E24  27181887.840   142841767.418    27181906.300   106667565.141  
E25  23618870.320   124117968.813    23618876.440    92685488.277  
> 2021  1  5 21 10 43.0000000  0 14       0.000000000000
G 3  24210915.660   127229143.207    24210919.540    95008768.035  
G 4  21298286.980   111923231.195    21298290.280    83579044.316  
G 7  21384506.740   112376335.477                                  
G 8  23650998.460   124286750.043    23651000.880    92811525.844  
G 9  20325769.060   106812592.434    20325770.020    79762653.027  
G16  22764094.420   119626112.254                                  
G27  23368478.900   122802119.891    23368480.540    91702878.832  
G30  23258570.660   122224544.629    23258573.120    91271571.656  
E 2  24286957.240   127628794.066    24286962.740    95307206.984  
E 3  23348932.520   122699438.957    23348938.480    91626197.188  
E 5  25669877.900   134896076.313    25669884.840   100734072.141  
E 8  23656183.140   124314063.566    23656188.000    92831923.215  
E24  27182397.820   142844447.367    27182416.280   106669566.398  
E25  23619014.720   124118727.695    23619020.840    92686054.980  
> 2021  1  5 21 10 44.0000000  0 14       0.000000000000
G 3  24211626.100   127232876.566    24211629.980    95011555.930  
G 4  21298609.220   111924924.535    21298612.500    83580308.824  
G 7  21384306.420   112375282.785                                  
G 8  23650479.420   124284022.430    23650481.840    92809488.992  
G 9  20325676.280   106812104.910    20325677.240    79762288.969  
G16  22764680.140   119629190.195                                  
G27  23368214.680   122800731.445    23368216.320    91701842.008  
G30  23258130.900   122222233.617    23258133.360    91269845.902  
E 2  24286604.940   127626942.734    24286610.440    95305824.500  
E 3  23348929.720   122699424.223    23348935.680    91626186.191  
E 5  25670296.680   134898277.055    25670303.620   100735715.555  
E 8  23655756.380   124311820.914    23655761.220    92830248.508  
E24  27182907.820   142847127.383    27182926.280   106671567.715  
E25  23619159.200   124119486.945    23619165.320    92686621.957  
> 2021  1  5 21 10 45.0000000  0 14       0.000000000000
G 3  24212336.540   127236609.953    24212340.420    95014343.848  
G 4  21298931.520   111926618.281    21298934.820    83581573.633  
G 7  21384106.140   112374230.313                                  
G 8  23649960.420   124281295.035    23649962.820    92807452.305  
G 9  20325583.600   106811617.836    20325584.560    79761925.242  
G16  22765265.920   119632268.543                                  
G27  23367950.580   122799343.559    23367952.220    91700805.602  
G30  23257691.160   122219922.797    23257693.620    91268120.293  
E 2  24286252.720   127625091.730    24286258.220    95304442.262  
E 3  23348926.980   122699409.836    23348932.940    91626175.449  
E 5  25670715.520   134900478.008    25670722.440   100737359.125  
E 8  23655329.640   124309578.395    23655334.480    92828573.906  
E24  27183417.820   142849807.484    27183436.280   106673569.094  
E25  23619303.760   124120246.574    23619309.880    92687189.215  
> 2021  1  5 21 10 46.0000000  0 14       0.000000000000
G 3  24213046.980   127240343.375    24213050.860    95017131.789  
G 4  21299253.920   111928312.410    21299257.200    83582838.730  
G 7  21383905.900   112373178.043                                  
G 8  23649441.440   124278567.828    23649443.860    92805415.754  
G 9  20325490.980   106811131.199    20325491.960    79761561.844  
G16  22765851.780   119635347.281                                  
G27  23367686.560   122797956.191    23367688.200    91699769.578  
G30  23257251.440   122217612.117    23257253.920    91266394.785  
E 2  24285900.540   127623241.055    24285906.040    95303060.270  
E 3  23348924.300   122699395.777    23348930.260    91626164.957  
E 5  25671134.380   134902679.199    25671141.320   100739002.875  
E 8  23654902.920   124307335.996    23654907.780    92826899.395  
E24  27183927.840   142852487.672    27183946.300   106675570.535  
E25  23619448.380   124121006.547    23619454.500    92687756.734  
> 2021  1  5 21 10 47.0000000  0 14       0.000000000000
G 3  24213757.440   127244076.824    24213761.320    95019919.754  
G 4  21299576.380   111930006.941    21299579.660    83584104.125  
G 7  21383705.700   112372125.988                                  
G 8  23648922.500   124275840.820    23648924.920    92803379.355  
G 9  20325398.460   106810644.992    20325399.440    79761198.773  
G16  22766437.740   119638426.422                                  
G27  23367422.660   122796569.348    23367424.300    91698733.949  
G30  23256811.760   122215301.598    23256814.240    91264669.398  
E 2  24285548.420   127621390.715    24285553.920    95301678.523  
E 3  23348921.700   122699382.074    23348927.640    91626154.727  
E 5  25671553.300   134904880.641    25671560.240   100740646.813  
E 8  23654476.240   124305093.734    23654481.080    92825224.980  
E24  27184437.880   142855167.922    27184456.340   106677572.020  
E25  23619593.060   124121766.895    23619599.180    92688324.527  
> 2021  1  5 21 10 48.0000000  0 14       0.000000000000
G 3  24214467.900   127247810.328    24214471.780    95022707.754  
G 4  21299898.900   111931701.848    21299902.200    83585369.801  
G 7  21383505.540   112371074.129                                  
G 8  23648403.620   124273114.012    23648406.020    92801343.102  
G 9  20325306.040   106810159.242    20325307.000    79760836.035  
G16  22767023.740   119641505.949                                  
G27  23367158.860   122795183.027    23367160.500    91697698.711  
G30  23256372.120   122212991.250    23256374.580    91262944.137  
E 2  24285196.380   127619540.699    24285201.880    95300297.027  
E 3  23348919.140   122699368.691    23348925.100    91626144.738  
E 5  25671972.280   134907082.305    25671979.200   100742290.914  
E 8  23654049.560   124302851.598    23654054.420    92823550.664  
E24  27184947.940   142857848.262    27184966.380   106679573.574  
E25  23619737.820   124122527.598    23619743.940    92688892.590  
> 2021  1  5 21 10 49.0000000  0 14       0.000000000000
G 3  24215178.380   127251543.836    24215182.240    95025495.766  
G 4  21300221.500   111933397.148    21300224.800    83586635.770  
G 7  21383305.420   112370022.477                                  
G 8  23647884.760   124270387.406    23647887.160    92799307.004  
G 9  20325213.680   106809673.922    20325214.640    79760473.617  
G16  22767609.840   119644585.887                                  
G27  23366895.140   122793797.227    23366896.780    91696663.859  
G30  23255932.520   122210681.070    23255934.980    91261219.004  
E 2  24284844.400   127617691.004    24284849.900    95298915.766  
E 3  23348916.660   122699355.652    23348922.620    91626135.004  
E 5  25672391.280   134909284.219    25672398.220   100743935.203  
E 8  23653622.920   124300609.578    23653627.780    92821876.434  
E24  27185458.000   142860528.668    27185476.460   106681575.180  
E25  23619882.660   124123288.660    23619888.760    92689460.918  
> 2021  1  5 21 10 50.0000000  0 14       0.000000000000
G 3  24215888.840   127255277.3912   24215892.720    95028283.8052 
G 4  21300544.180   111935092.840    21300547.480    83587902.035  
G 7  21383105.340   112368971.047                                  
G 8  23647365.940   124267661.008    23647368.340    92797271.059  
G 9  20325121.420   106809189.047    20325122.380    79760111.539  
G16  22768196.000   119647666.219                                  
G27  23366631.540   122792411.961    23366633.180    91695629.410  
G30  23255492.920   122208371.047    23255495.400    91259493.988  
E 2  24284492.480   127615841.656    24284497.980    95297534.762  
E 3  23348914.260   122699342.957    23348920.200    91626125.527  
E 5  25672810.340   134911486.359    25672817.260   100745579.660  
E 8  23653196.300   124298367.691    23653201.160    92820202.301  
E24  27185968.080   142863209.152    27185986.540   106683576.844  
E25  23620027.540   124124050.094    23620033.660    92690029.523  
> 2021  1  5 21 10 51.0000000  0 14       0.000000000000
G 3  24216599.320   127259010.9692   24216603.200    95031071.8672 
G 4  21300866.940   111936788.938    21300870.240    83589168.602  
G 7  21382905.300   112367919.813                                  
G 8  23646847.160   124264934.816    23646849.580    92795235.270  
G 9  20325029.220   106808704.629    20325030.200    79759749.797  
G16  22768782.260   119650746.957                                  
G27  23366368.020   122791027.230    23366369.660    91694595.359  
G30  23255053.380   122206061.184    23255055.840    91257769.094  
E 2  24284140.620   127613992.633    24284146.120    95296154.000  
E 3  23348911.900   122699330.605    23348917.860    91626116.305  
E 5  25673229.440   134913688.715    25673236.360   100747224.277  
E 8  23652769.720   124296125.941    23652774.560    92818528.270  
E24  27186478.180   142865889.730    27186496.640   106685578.574  
E25  23620172.520   124124811.891    23620178.620    92690598.402  
> 2021  1  5 21 10 52.0000000  0 14       0.000000000000
G 3  24217309.800   127262744.5862   24217313.680    95033859.9572 
G 4  21301189.760   111938485.406    21301193.060    83590435.445  
G 7  21382705.300   112366868.785                                  
G 8  23646328.420   124262208.820    23646330.840    92793199.625  
G 9  20324937.120   106808220.637    20324938.100    79759388.375  
G16  22769368.580   119653828.074                                  
G27  23366104.620   122789643.008    23366106.260    91693561.688  
G30  23254613.860   122203751.484    23254616.320    91256044.320  
E 2  24283788.820   127612143.926    24283794.320    95294773.473  
E 3  23348909.620   122699318.586    23348915.560    91626107.328  
E 5  25673648.580   134915891.328    25673655.500   100748869.086  
E 8  23652343.140   124293884.309    23652348.000    92816854.320  
E24  27186988.280   142868570.371    27187006.740   106687580.352  
E25  23620317.540   124125574.035    23620323.660    92691167.535  
> 2021  1  5 21 10 53.0000000  0 14       0.000000000000
G 3  24218020.300   127266478.2342   24218024.180    95036648.0662 
G 4  21301512.680   111940182.273    21301515.960    83591702.582  
G 7  21382505.340   112365817.980                                  
G 8  23645809.720   124259483.043    23645812.140    92791164.141  
G 9  20324845.120   106807737.102    20324846.080    79759027.293  
G16  22769954.960   119656909.613                                  
G27  23365841.320   122788259.324    23365842.960    91692528.418  
G30  23254174.360   122201441.961    23254176.820    91254319.672  
E 2  24283437.080   127610295.555    24283442.580    95293393.195  
E 3  23348907.400   122699306.914    23348913.340    91626098.613  
E 5  25674067.760   134918094.164    25674074.700   100750514.059  
E 8  23651916.600   124291642.824    23651921.460    92815180.488  
E24  27187498.400   142871251.090    27187516.860   106689582.184  
E25  23620462.640   124126336.566    23620468.760    92691736.957  
> 2021  1  5 21 10 54.0000000  0 14       0.000000000000
G 3  24218730.800   127270211.9062   24218734.680    95039436.1992 
G 4  21301835.660   111941879.531    21301838.940    83592970.016  
G 7  21382305.400   112364767.375                                  
G 8  23645291.060   124256757.449    23645293.460    92789128.797  
G 9  20324753.180   106807254.012    20324754.140    79758666.543  
G16  22770541.440   119659991.531                                  
G27  23365578.100   122786876.172    23365579.740    91691495.547  
G30  23253734.900   122199132.605    23253737.380    91252595.156  
E 2  24283085.420   127608447.512    24283090.920    95292013.164  
E 3  23348905.240   122699295.574    23348911.180    91626090.145  
E 5  25674486.980   134920297.219    25674493.920   100752159.195  
E 8  23651490.080   124289401.465    23651494.940    92813506.746  
E24  27188008.560   142873931.902    27188027.000   106691584.086  
E25  23620607.820   124127099.449    23620613.940    92692306.641  
> 2021  1  5 21 10 55.0000000  0 14       0.000000000000
G 3  24219441.300   127273945.6052   24219445.180    95042224.3482 
G 4  21302158.700   111943577.180    21302162.000    83594237.742  
G 7  21382105.520   112363716.977                                  
G 8  23644772.420   124254032.055    23644774.840    92787093.602  
G 9  20324661.340   106806771.340    20324662.300    79758306.109  
G16  22771127.980   119663073.859                                  
G27  23365315.000   122785493.539    23365316.640    91690463.059  
G30  23253295.480   122196823.387    23253297.940    91250870.742  
E 2  24282733.800   127606599.797    24282739.300    95290633.379  
E 3  23348903.140   122699284.586    23348909.100    91626081.941  
E 5  25674906.260   134922500.520    25674913.200   100753804.516  
E 8  23651063.600   124287160.223    23651068.440    92811833.090  
E24  27188518.700   142876612.773    27188537.160   106693586.035  
E25  23620753.060   124127862.691    23620759.180    92692876.594  
> 2021  1  5 21 10 56.0000000  0 14       0.000000000000
G 3  24220151.800   127277679.3442   24220155.680    95045012.5272 
G 4  21302481.820   111945275.207    21302485.120    83595505.746  
G 7  21381905.680   112362666.781                                  
G 8  23644253.840   124251306.863    23644256.260    92785058.555  
G 9  20324569.580   106806289.121    20324570.540    79757946.008  
G16  22771714.600   119666156.574                                  
G27  23365052.000   122784111.441    23365053.640    91689430.973  
G30  23252856.080   122194514.348    23252858.540    91249146.461  
E 2  24282382.260   127604752.410    24282387.760    95289253.836  
E 3  23348901.120   122699273.922    23348907.060    91626073.977  
E 5  25675325.580   134924704.082    25675332.520   100755450.031  
E 8  23650637.120   124284919.105    23650641.960    92810159.527  
E24  27189028.880   142879293.730    27189047.340   106695588.047  
E25  23620898.380   124128626.293    23620904.480    92693446.816  
> 2021  1  5 21 10 57.0000000  0 14       0.000000000000
G 3  24220862.320   127281413.1172   24220866.200    95047800.7302 
G 4  21302805.020   111946973.641    21302808.320    83596774.059  
G 7  21381705.880   112361616.805                                  
G 8  23643735.300   124248581.875    23643737.700    92783023.664  
G 9  20324477.900   106805807.352    20324478.860    79757586.246  
G16  22772301.300   119669239.703                                  
G27  23364789.080   122782729.863    23364790.720    91688399.277  
G30  23252416.720   122192205.473    23252419.180    91247422.301  
E 2  24282030.780   127602905.355    24282036.280    95287874.543  
E 3  23348899.160   122699263.605    23348905.100    91626066.273  
E 5  25675744.940   134926907.832    25675751.880   100757095.688  
E 8  23650210.680   124282678.121    23650215.520    92808486.066  
E24  27189539.060   142881974.758    27189557.520   106697590.113  
E25  23621043.740   124129390.262    23621049.860    92694017.313  
> 2021  1  5 21 10 58.0000000  0 14       0.000000000000
G 3  24221572.840   127285146.9222   24221576.720    95050588.9612 
G 4  21303128.300   111948672.457    21303131.600    83598042.656  
G 7  21381506.100   112360567.035                                  
G 8  23643216.780   124245857.070    23643219.180    92780988.910  
G 9  20324386.300   106805326.016    20324387.260    79757226.809  
G16  22772888.080   119672323.211                                  
G27  23364526.280   122781348.813    23364527.920    91687367.973  
G30  23251977.380   122189896.762    23251979.840    91245698.262  
E 2  24281679.360   127601058.637    24281684.860    95286495.496  
E 3  23348897.260   122699253.629    23348903.200    91626058.824  
E 5  25676164.360   134929111.844    25676171.300   100758741.543  
E 8  23649784.260   124280437.270    23649789.100    92806812.703  
E24  27190049.260   142884655.863    27190067.720   106699592.234  
E25  23621189.200   124130154.594    23621195.300    92694588.082  
> 2021  1  5 21 10 59.0000000  0 14       0.000000000000
G 3  24222283.360   127288880.7542   24222287.240    95053377.2072 
G 4  21303451.660   111950371.660    21303454.940    83599311.539  
G 7  21381306.380   112359517.477                                  
G 8  23642698.300   124243132.477    23642700.720    92778954.313  
G 9  20324294.780   106804845.117    20324295.760    79756867.695  
G16  22773474.940   119675407.121                                  
G27  23364263.580   122779968.297    23364265.220    91686337.070  
G30  23251538.080   122187588.219    23251540.540    91243974.352  
E 2  24281328.000   127599212.238    24281333.500    95285116.695  
E 3  23348895.420   122699243.992    23348901.380    91626051.625  
E 5  25676583.820   134931316.098    25676590.740   100760387.574  
E 8  23649357.860   124278196.547    23649362.700    92805139.438  
E24  27190559.480   142887337.051    27190577.920   106701594.422  
E25  23621334.720   124130919.285    23621340.820    92695159.113  
> 2021  1  5 21 11  1.0000000  0 14       0.000000000000
G 3  24223704.420   127296348.5122   24223708.300    95058953.7892 
G 4  21304098.580   111953771.262    21304101.860    83601850.207  
G 7  21380907.060   112357418.984                                  
G 8  23641661.460   124237683.867    23641663.880    92774885.547  
G 9  20324112.020   106803884.676    20324112.980    79756150.484  
G16  22774648.860   119681576.109                                  
G27  23363738.480   122777208.801    23363740.120    91684276.387  
G30  23250659.560   122182971.621    23250662.020    91240526.906  
E 2  24280625.480   127595520.430    24280630.960    95282359.824  
E 3  23348891.940   122699225.742    23348897.900    91626037.996  
E 5  25677422.840   134935725.297    25677429.780   100763680.172  
E 8  23648505.140   124273715.488    23648509.980    92801793.203  
E24  27191579.940   142892699.629    27191598.400   106705598.926  
E25  23621625.960   124132449.758    23621632.060    92696302.004  
> 2021  1  5 21 11  2.0000000  0 14       0.000000000000
G 3  24224414.960   127300082.4262   24224418.840    95061742.0982 
G 4  21304422.140   111955471.641    21304425.440    83603119.969  
G 7  21380707.440   112356370.051                                  
G 8  23641143.100   124234959.867    23641145.520    92772851.395  
G 9  20324020.760   106803405.102    20324021.720    79755792.359  
G16  22775235.940   119684661.211                                  
G27  23363476.080   122775829.852    23363477.720    91683246.652  
G30  23250220.360   122180663.566    23250222.820    91238803.359  
E 2  24280274.300   127593675.020    24280279.800    95280981.758  
E 3  23348890.300   122699217.109    23348896.260    91626031.551  
E 5  25677842.440   134937930.254    25677849.360   100765326.730  
E 8  23648078.820   124271475.145    23648083.660    92800120.219  
E24  27192090.200   142895381.035    27192108.660   106707601.273  
E25  23621771.680   124133215.531    23621777.780    92696873.848  
> 2021  1  5 21 11  3.0000000  0 14       0.000000000000
G 3  24225125.520   127303816.3952   24225129.400    95064530.4492 
G 4  21304745.780   111957172.410    21304749.080    83604390.023  
G 7  21380507.880   112355321.328                                  
G 8  23640624.780   124232236.051    23640627.180    92770817.379  
G 9  20323929.580   106802925.988    20323930.560    79755434.582  
G16  22775823.080   119687746.707                                  
G27  23363213.760   122774451.449    23363215.420    91682217.328  
G30  23249781.180   122178355.664    23249783.640    91237079.926  
E 2  24279923.200   127591829.941    24279928.700    95279603.941  
E 3  23348888.740   122699208.844    23348894.680    91626025.379  
E 5  25678262.060   134940135.422    25678269.000   100766973.445  
E 8  23647652.520   124269234.938    23647657.360    92798447.340  
E24  27192600.480   142898062.523    27192618.940   106709603.684  
E25  23621917.460   124133981.680    23621923.580    92697445.969  
> 2021  1  5 21 11  4.0000000  0 14       0.000000000000
G 3  24225836.060   127307550.3522   24225839.960    95067318.7932 
G 4  21305069.500   111958873.570    21305072.800    83605660.371  
G 7  21380308.360   112354272.797                                  
G 8  23640106.500   124229512.430    23640108.900    92768783.508  
G 9  20323838.500   106802447.316    20323839.460    79755077.129  
G16  22776410.320   119690832.598                                  
G27  23362951.560   122773073.555    23362953.200    91681188.383  
G30  23249342.020   122176047.934    23249344.480    91235356.621  
E 2  24279572.160   127589985.195    24279577.640    95278226.375  
E 3  23348887.220   122699200.902    23348893.180    91626019.449  
E 5  25678681.740   134942340.840    25678688.680   100768620.352  
E 8  23647226.240   124266994.855    23647231.080    92796774.551  
E24  27193110.760   142900744.090    27193129.220   106711606.148  
E25  23622063.320   124134748.180    23622069.440    92698018.355  
> 2021  1  5 21 11  5.0000000  0 14       0.000000000000
G 3  24226546.620   127311284.3672   24226550.520    95070107.1802 
G 4  21305393.300   111960575.121    21305396.600    83606931.008  
G 7  21380108.860   112353224.484                                  
G 8  23639588.240   124226789.000    23639590.640    92766749.777  
G 9  20323747.500   106801969.086    20323748.460    79754720.012  
G16  22776997.620   119693918.879                                  
G27  23362689.460   122771696.203    23362691.100    91680159.840  
G30  23248902.920   122173740.363    23248905.380    91233633.438  
E 2  24279221.180   127588140.770    24279226.660    95276849.039  
E 3  23348885.780   122699193.305    23348891.720    91626013.773  
E 5  25679101.460   134944546.469    25679108.400   100770267.406  
E 8  23646800.000   124264754.898    23646804.840    92795101.855  
E24  27193621.060   142903425.734    27193639.520   106713608.672  
E25  23622209.260   124135515.043    23622215.360    92698591.012  
> 2021  1  5 21 11  6.0000000  0 14       0.000000000000
G 3  24227257.200   127315018.4142   24227261.080    95072895.5862 
G 4  21305717.180   111962277.066    21305720.460    83608201.941  
G 7  21379909.420   112352176.371                                  
G 8  23639070.020   124224065.785    23639072.440    92764716.207  
G 9  20323656.580   106801491.301    20323657.540    79754363.223  
G16  22777585.000   119697005.559                                  
G27  23362427.460   122770319.367    23362429.100    91679131.684  
G30  23248463.820   122171432.949    23248466.280    91231910.371  
E 2  24278870.260   127586296.680    24278875.740    95275471.961  
E 3  23348884.400   122699186.051    23348890.340    91626008.355  
E 5  25679521.220   134946752.348    25679528.160   100771914.652  
E 8  23646373.760   124262515.078    23646378.620    92793429.266  
E24  27194131.380   142906107.445    27194149.840   106715611.250  
E25  23622355.260   124136282.266    23622361.360    92699163.941  
> 2021  1  5 21 11  7.0000000  0 14       0.000000000000
G 3  24227967.760   127318752.4842   24227971.660    95075684.0162 
G 4  21306041.120   111963979.391    21306044.400    83609473.156  
G 7  21379710.000   112351128.461                                  
G 8  23638551.860   124221342.789    23638554.260    92762682.805  
G 9  20323565.740   106801013.945    20323566.700    79754006.758  
G16  22778172.440   119700092.637                                  
G27  23362165.560   122768943.074    23362167.200    91678103.934  
G30  23248024.780   122169125.711    23248027.240    91230187.434  
E 2  24278519.400   127584452.914    24278524.880    95274095.125  
E 3  23348883.080   122699179.125    23348889.020    91626003.188  
E 5  25679941.040   134948958.453    25679947.960   100773562.070  
E 8  23645947.560   124260275.379    23645952.420    92791756.762  
E24  27194641.700   142908789.258    27194660.180   106717613.902  
E25  23622501.320   124137049.848    23622507.440    92699737.133  
> 2021  1  5 21 11  8.0000000  0 14       0.000000000000
G 3  24228678.340   127322486.5862   24228682.220    95078472.4652 
G 4  21306365.140   111965682.113    21306368.420    83610744.672  
G 7  21379510.640   112350080.773                                  
G 8  23638033.720   124218620.008    23638036.140    92760649.563  
G 9  20323474.980   106800537.043    20323475.960    79753650.629  
G16  22778759.980   119703180.109                                  
G27  23361903.760   122767567.297    23361905.400    91677076.570  
G30  23247585.760   122166818.645    23247588.200    91228464.625  
E 2  24278168.600   127582609.484    24278174.100    95272718.539  
E 3  23348881.820   122699172.551    23348887.780    91625998.273  
E 5  25680360.900   134951164.813    25680367.820   100775209.676  
E 8  23645521.400   124258035.816    23645526.240    92790084.363  
E24  27195152.040   142911471.129    27195170.520   106719616.594  
E25  23622647.460   124137817.805    23622653.560    92700310.609  
> 2021  1  5 21 11  9.0000000  0 14       0.000000000000
G 3  24229388.920   127326220.7112   24229392.820    95081260.9342 
G 4  21306689.220   111967385.219    21306692.520    83612016.473  
G 7  21379311.300   112349033.293                                  
G 8  23637515.640   124215897.426    23637518.040    92758616.465  
G 9  20323384.320   106800060.582    20323385.280    79753294.828  
G16  22779347.580   119706267.973                                  
G27  23361642.060   122766192.051    23361643.700    91676049.598  
G30  23247146.760   122164511.723    23247149.220    91226741.922  
E 2  24277817.880   127580766.383    24277823.360    95271342.195  
E 3  23348880.640   122699166.313    23348886.580    91625993.617  
E 5  25680780.800   134953371.398    25680787.720   100776857.449  
E 8  23645095.240   124255796.383    23645100.080    92788412.059  
E24  27195662.400   142914153.082    27195680.880   106721619.352  
E25  23622793.660   124138586.113    23622799.780    92700884.344  
> 2021  1  5 21 11 10.0000000  0 14       0.000000000000
G 3  24230099.520   127329954.8712   24230103.400    95084049.4302 
G 4  21307013.400   111969088.730    21307016.680    83613288.574  
G 7  21379112.020   112347986.023                                  
G 8  23636997.580   124213175.063    23637000.000    92756583.535  
G 9  20323293.740   106799584.566    20323294.700    79752939.363  
G16  22779935.240   119709356.234                                  
G27  23361380.460   122764817.348    23361382.100    91675023.035  
G30  23246707.800   122162204.977    23246710.260    91225019.355  
E 2  24277467.200   127578923.613    24277472.700    95269966.105  
E 3  23348879.520   122699160.418    23348885.460    91625989.219  
E 5  25681200.740   134955578.203    25681207.660   100778505.387  
E 8  23644669.120   124253557.082    23644673.960    92786739.852  
E24  27196172.780   142916835.121    27196191.240   106723622.172  
E25  23622939.940   124139354.797    23622946.040    92701458.359  
> 2021  1  5 21 11 11.0000000  0 14       0.000000000000
G 3  24230810.100   127333689.0702   24230814.000    95086837.9492 
G 4  21307337.640   111970792.621    21307340.920    83614560.957  
G 7  21378912.760   112346938.953                                  
G 8  23636479.560   124210452.855    23636481.960    92754550.719  
G 9  20323203.240   106799108.992    20323204.200    79752584.227  
G16  22780523.000   119712444.898                                  
G27  23361118.960   122763443.148    23361120.600    91673996.848  
G30  23246268.860   122159898.383    23246271.320    91223296.898  
E 2  24277116.600   127577081.172    24277122.100    95268590.254  
E 3  23348878.460   122699154.855    23348884.400    91625985.063  
E 5  25681620.720   134957785.266    25681627.660   100780153.516  
E 8  23644243.020   124251317.895    23644247.860    92785067.734  
E24  27196683.160   142919517.211    27196701.640   106725625.027  
E25  23623086.280   124140123.820    23623092.400    92702032.633  
> 2021  1  5 21 11 12.0000000  0 14       0.000000000000
G 3  24231520.720   127337423.2932   24231524.600    95089626.4922 
G 4  21307661.940   111972496.898    21307665.240    83615833.633  
G 7  21378713.560   112345892.109                                  
G 8  23635961.580   124207730.863    23635963.980    92752518.066  
G 9  20323112.820   106798633.867    20323113.780    79752229.426  
G16  22781110.840   119715533.957                                  
G27  23360857.560   122762069.504    23360859.200    91672971.074  
G30  23245829.960   122157591.961    23245832.420    91221574.570  
E 2  24276766.060   127575239.063    24276771.540    95267214.656  
E 3  23348877.460   122699149.645    23348883.420    91625981.172  
E 5  25682040.760   134959992.527    25682047.680   100781801.793  
E 8  23643816.940   124249078.852    23643821.780    92783395.723  
E24  27197193.580   142922199.391    27197212.040   106727627.953  
E25  23623232.700   124140893.223    23623238.800    92702607.188  
> 2021  1  5 21 11 13.0000000  0 14       0.000000000000
G 3  24232231.320   127341157.5432   24232235.200    95092415.0552 
G 4  21307986.340   111974201.582    21307989.620    83617106.609  
G 7  21378514.400   112344845.469                                  
G 8  23635443.640   124205009.059    23635446.040    92750485.551  
G 9  20323022.500   106798159.180    20323023.460    79751874.949  
G16  22781698.740   119718623.402                                  
G27  23360596.260   122760696.371    23360597.900    91671945.684  
G30  23245391.100   122155285.707    23245393.560    91219852.367  
E 2  24276415.580   127573397.281    24276421.060    95265839.297  
E 3  23348876.540   122699144.766    23348882.480    91625977.527  
E 5  25682460.840   134962200.047    25682467.760   100783450.266  
E 8  23643390.880   124246839.934    23643395.720    92781723.805  
E24  27197704.000   142924881.652    27197722.460   106729630.941  
E25  23623379.180   124141662.980    23623385.280    92703182.004  
> 2021  1  5 21 11 14.0000000  0 14       0.000000000000
G 3  24232941.920   127344891.8162   24232945.820    95095203.6332 
G 4  21308310.800   111975906.645    21308314.100    83618379.871  
G 7  21378315.260   112343799.027                                  
G 8  23634925.740   124202287.461    23634928.140    92748453.191  
G 9  20322932.240   106797684.934    20322933.220    79751520.805  
G16  22782286.720   119721713.250                                  
G27  23360335.060   122759323.770    23360336.700    91670920.691  
G30  23244952.260   122152979.621    23244954.720    91218130.293  
E 2  24276065.160   127571555.832    24276070.660    95264464.188  
E 3  23348875.680   122699140.234    23348881.620    91625974.145  
E 5  25682880.960   134964407.816    25682887.900   100785098.922  
E 8  23642964.860   124244601.148    23642969.700    92780051.984  
E24  27198214.420   142927563.984    27198232.880   106731633.980  
E25  23623525.720   124142433.105    23623531.840    92703757.098  
> 2021  1  5 21 11 15.0000000  0 14       0.000000000000
G 3  24233652.540   127348626.1482   24233656.440    95097992.2542 
G 4  21308635.340   111977612.109    21308638.640    83619653.430  
G 7  21378116.160   112342752.801                                  
G 8  23634407.880   124199566.063    23634410.280    92746420.977  
G 9  20322842.080   106797211.137    20322843.060    79751166.996  
G16  22782874.760   119724803.500                                  
G27  23360073.960   122757951.723    23360075.600    91669896.113  
G30  23244513.460   122150673.691    23244515.920    91216408.336  
E 2  24275714.800   127569714.719    24275720.300    95263089.332  
E 3  23348874.880   122699136.043    23348880.820    91625971.012  
E 5  25683301.120   134966615.801    25683308.060   100786747.742  
E 8  23642538.860   124242362.492    23642543.700    92778380.258  
E24  27198724.860   142930246.387    27198743.340   106733637.070  
E25  23623672.340   124143203.594    23623678.460    92704332.461  
> 2021  1  5 21 11 16.0000000  0 14       0.000000000000
G 3  24234363.160   127352360.4842   24234367.060    95100780.8792 
G 4  21308959.940   111979317.949    21308963.240    83620927.273  
G 7  21377917.120   112341706.781                                  
G 8  23633890.040   124196844.859    23633892.440    92744388.910  
G 9  20322752.020   106796737.781    20322752.980    79750813.516  
G16  22783462.900   119727894.145                                  
G27  23359812.980   122756580.184    23359814.620    91668871.914  
G30  23244074.700   122148367.934    23244077.140    91214686.504  
E 2  24275364.520   127567873.926    24275370.000    95261714.715  
E 3  23348874.140   122699132.191    23348880.100    91625968.137  
E 5  25683721.340   134968824.000    25683728.260   100788396.723  
E 8  23642112.880   124240123.969    23642117.720    92776708.637  
E24  27199235.320   142932928.883    27199253.800   106735640.230  
E25  23623819.020   124143974.441    23623825.140    92704908.098  
> 2021  1  5 21 11 17.0000000  0 14       0.000000000000
G 3  24235073.800   127356094.8552   24235077.680    95103569.5312 
G 4  21309284.640   111981024.184    21309287.920    83622201.406  
G 7  21377718.100   112340660.969                                  
G 8  23633372.260   124194123.844    23633374.660    92742356.984  
G 9  20322662.020   106796264.871    20322662.980    79750460.371  
G16  22784051.100   119730985.180                                  
G27  23359552.080   122755209.172    23359553.720    91667848.105  
G30  23243635.960   122146062.332    23243638.400    91212964.789  
E 2  24275014.280   127566033.457    24275019.780    95260340.340  
E 3  23348873.480   122699128.676    23348879.420    91625965.512  
E 5  25684141.600   134971032.469    25684148.520   100790045.898  
E 8  23641686.920   124237885.570    23641691.760    92775037.105  
E24  27199745.800   142935611.453    27199764.280   106737643.449  
E25  23623965.780   124144745.645    23623971.900    92705483.992  
> 2021  1  5 21 11 18.0000000  0 14       0.000000000000
G 3  24235784.440   127359829.2662   24235788.320    95106358.2112 
G 4  21309609.400   111982730.816    21309612.680    83623475.840  
G 7  21377519.140   112339615.367                                  
G 8  23632854.500   124191403.039    23632856.900    92740325.219  
G 9  20322572.120   106795792.398    20322573.080    79750107.551  
G16  22784639.380   119734076.613                                  
G27  23359291.280   122753838.695    23359292.920    91666824.699  
G30  23243197.240   122143756.891    23243199.700    91211243.191  
E 2  24274664.120   127564193.328    24274669.620    95258966.219  
E 3  23348872.880   122699125.512    23348878.820    91625963.148  
E 5  25684561.900   134973241.160    25684568.820   100791695.246  
E 8  23641261.000   124235647.301    23641265.840    92773365.672  
E24  27200256.300   142938294.094    27200274.760   106739646.719  
E25  23624112.600   124145517.219    23624118.720    92706060.168  
> 2021  1  5 21 11 19.0000000  0 14       0.000000000000
G 3  24236495.080   127363563.6912   24236498.960    95109146.9062 
G 4  21309934.240   111984437.832    21309937.520    83624750.559  
G 7  21377320.200   112338569.965                                  
G 8  23632336.780   124188682.4412   23632339.180    92738293.6052 
G 9  20322482.280   106795320.367    20322483.260    79749755.059  
G16  22785227.740   119737168.430                                  
G27  23359030.600   122752468.746    23359032.240    91665801.684  
G30  23242758.560   122141451.629    23242761.020    91209521.730  
E 2  24274314.020   127562353.523    24274319.500    95257592.340  
E 3  23348872.340   122699122.676    23348878.280    91625961.035  
E 5  25684982.240   134975450.070    25684989.160   100793344.758  
E 8  23640835.100   124233409.168    23640839.940    92771694.336  
E24  27200766.800   142940976.809    27200785.280   106741650.043  
E25  23624259.500   124146289.145    23624265.620    92706636.605  
> 2021  1  5 21 11 20.0000000  0 14       0.000000000000
G 3  24237205.720   127367298.1172   24237209.600    95111935.5982 
G 4  21310259.140   111986145.246    21310262.440    83626025.574  
G 7  21377121.300   112337524.781                                  
G 8  23631819.120   124185962.0632   23631821.520    92736262.1522 
G 9  20322392.540   106794848.797    20322393.520    79749402.914  
G16  22785816.180   119740260.656                                  
G27  23358770.000   122751099.320    23358771.640    91664779.063  
G30  23242319.920   122139146.516    23242322.360    91207800.383  
E 2  24273963.980   127560514.055    24273969.480    95256218.711  
E 3  23348871.860   122699120.195    23348877.820    91625959.180  
E 5  25685402.620   134977659.238    25685409.560   100794994.457  
E 8  23640409.220   124231171.168    23640414.060    92770023.105  
E24  27201277.320   142943659.598    27201295.800   106743653.426  
E25  23624406.460   124147061.445    23624412.580    92707213.324  
> 2021  1  5 21 11 21.0000000  0 14       0.000000000000
G 3  24237916.360   127371032.5942   24237920.240    95114724.3282 
G 4  21310584.120   111987853.047    21310587.420    83627300.883  
G 7  21376922.460   112336479.793                                  
G 8  23631301.480   124183241.8912   23631303.880    92734230.8592 
G 9  20322302.900   106794377.664    20322303.860    79749051.094  
G16  22786404.680   119743353.262                                  
G27  23358509.500   122749730.430    23358511.140    91663756.840  
G30  23241881.300   122136841.559    23241883.740    91206079.152  
E 2  24273614.000   127558674.918    24273619.500    95254845.328  
E 3  23348871.460   122699118.043    23348877.400    91625957.570  
E 5  25685823.060   134979868.625    25685830.000   100796644.324  
E 8  23639983.360   124228933.293    23639988.200    92768351.965  
E24  27201787.860   142946342.469    27201806.320   106745656.867  
E25  23624553.500   124147834.094    23624559.600    92707790.301  
> 2021  1  5 21 11 22.0000000  0 14       0.000000000000
G 3  24238627.020   127374767.1172   24238630.900    95117513.0942 
G 4  21310909.180   111989561.230    21310912.480    83628576.473  
G 7  21376723.640   112335435.012                                  
G 8  23630783.880   124180521.9182   23630786.280    92732199.7112 
G 9  20322213.320   106793906.977    20322214.300    79748699.605  
G16  22786993.260   119746446.273                                  
G27  23358249.120   122748362.066    23358250.760    91662735.012  
G30  23241442.720   122134536.797    23241445.160    91204358.063  
E 2  24273264.080   127556836.105    24273269.580    95253472.191  
E 3  23348871.100   122699116.234    23348877.060    91625956.223  
E 5  25686243.540   134982078.246    25686250.480   100798294.363  
E 8  23639557.520   124226695.539    23639562.380    92766680.918  
E24  27202298.400   142949025.4102   27202316.880   106747660.3592 
E25  23624700.600   124148607.105    23624706.700    92708367.551  
> 2021  1  5 21 11 23.0000000  0 14       0.000000000000
G 3  24239337.680   127378501.6642   24239341.580    95120301.8752 
G 4  21311234.320   111991269.816    21311237.620    83629852.363  
G 7  21376524.860   112334390.441                                  
G 8  23630266.320   124177802.1332   23630268.720    92730168.7072 
G 9  20322123.840   106793436.719    20322124.800    79748348.438  
G16  22787581.920   119749539.676                                  
G27  23357988.820   122746994.219    23357990.460    91661713.570  
G30  23241004.160   122132232.164    23241006.600    91202637.070  
E 2  24272914.240   127554997.613    24272919.720    95252099.289  
E 3  23348870.820   122699114.758    23348876.780    91625955.117  
E 5  25686664.060   134984288.086    25686671.000   100799944.570  
E 8  23639131.720   124224457.930    23639136.560    92765009.977  
E24  27202808.960   142951708.4222   27202827.440   106749663.9062 
E25  23624847.760   124149380.477    23624853.880    92708945.066  
> 2021  1  5 21 11 24.0000000  0 14       0.000000000000
G 3  24240048.340   127382236.2112   24240052.240    95123090.6602 
G 4  21311559.520   111992978.777    21311562.820    83631128.535  
G 7  21376326.120   112333346.066                                  
G 8  23629748.800   124175082.5512   23629751.200    92728137.8522 
G 9  20322034.440   106792966.906    20322035.400    79747997.605  
G16  22788170.640   119752633.461                                  
G27  23357728.640   122745626.918    23357730.280    91660692.531  
G30  23240565.640   122129927.711    23240568.080    91200916.215  
E 2  24272564.440   127553159.461    24272569.940    95250726.645  
E 3  23348870.620   122699113.617    23348876.560    91625954.270  
E 5  25687084.620   134986498.168    25687091.560   100801594.953  
E 8  23638705.940   124222220.426    23638710.780    92763339.113  
E24  27203319.540   142954391.5042   27203338.000   106751667.5042 
E25  23624995.000   124150154.199    23625001.100    92709522.848  
> 2021  1  5 21 11 25.0000000  0 14       0.000000000000
G 3  24240759.020   127385970.8362   24240762.900    95125879.5002 
G 4  21311884.800   111994688.148    21311888.100    83632405.016  
G 7  21376127.440   112332301.918                                  
G 8  23629231.340   124172363.2072   23629233.740    92726107.1722 
G 9  20321945.120   106792497.555    20321946.080    79747647.117  
G16  22788759.440   119755727.656                                  
G27  23357468.540   122744260.152    23357470.180    91659671.895  
G30  23240127.140   122127623.414    23240129.600    91199195.473  
E 2  24272214.720   127551321.629    24272220.200    95249354.238  
E 3  23348870.460   122699112.844    23348876.420    91625953.688  
E 5  25687505.240   134988708.496    25687512.160   100803245.520  
E 8  23638280.180   124219983.070    23638285.020    92761668.363  
E24  27203830.140   142957074.6912   27203848.600   106753671.1842 
E25  23625142.300   124150928.309    23625148.420    92710100.914  
> 2021  1  5 21 11 26.0000000  0 14       0.000000000000
G 3  24241469.700   127389705.4572   24241473.580    95128668.3402 
G 4  21312210.160   111996397.895    21312213.460    83633681.770  
G 7  21375928.780   112331257.969                                  
G 8  23628713.900   124169644.0472   23628716.280    92724076.6332 
G 9  20321855.880   106792028.629    20321856.860    79747296.941  
G16  22789348.320   119758822.234                                  
G27  23357208.560   122742893.898    23357210.200    91658651.641  
G30  23239688.680   122125319.281    23239691.120    91197474.855  
E 2  24271865.060   127549484.141    24271870.540    95247982.086  
E 3  23348870.380   122699112.391    23348876.320    91625953.352  
E 5  25687925.880   134990919.051    25687932.820   100804896.262  
E 8  23637854.460   124217745.844    23637859.300    92759997.707  
E24  27204340.740   142959757.9342   27204359.200   106755674.8982 
E25  23625289.680   124151702.766    23625295.800    92710679.242  
> 2021  1  5 21 11 27.0000000  0 14       0.000000000000
G 3  24242180.380   127393440.1052   24242184.260    95131457.1992 
G 4  21312535.580   111998108.039    21312538.880    83634958.824  
G 7  21375730.160   112330214.227                                  
G 8  23628196.500   124166925.1132   23628198.900    92722046.2622 
G 9  20321766.740   106791560.160    20321767.700    79746947.113  
G16  22789937.280   119761917.211                                  
G27  23356948.660   122741528.180    23356950.300    91657631.789  
G30  23239250.240   122123015.336    23239252.700    91195754.379  
E 2  24271515.460   127547646.977    24271520.940    95246610.180  
E 3  23348870.360   122699112.285    23348876.300    91625953.273  
E 5  25688346.580   134993129.836    25688353.520   100806547.168  
E 8  23637428.760   124215508.742    23637433.600    92758327.145  
E24  27204851.360   142962441.2582   27204869.820   106757678.6802 
E25  23625437.120   124152477.586    23625443.240    92711257.844  
> 2021  1  5 21 11 28.0000000  0 14       0.000000000000
G 3  24242891.060   127397174.7812   24242894.960    95134246.0782 
G 4  21312861.100   111999818.570    21312864.380    83636236.172  
G 7  21375531.580   112329170.707                                  
G 8  23627679.140   124164206.3792   23627681.540    92720016.0392 
G 9  20321677.680   106791092.129    20321678.640    79746597.609  
G16  22790526.320   119765012.574                                  
G27  23356688.880   122740163.000    23356690.520    91656612.336  
G30  23238811.860   122120711.547    23238814.300    91194034.016  
E 2  24271165.920   127545810.141    24271171.400    95245238.516  
E 3  23348870.400   122699112.520    23348876.360    91625953.449  
E 5  25688767.340   134995340.855    25688774.260   100808198.254  
E 8  23637003.080   124213271.781    23637007.920    92756656.684  
E24  27205362.000   142965124.6522   27205380.460   106759682.5122 
E25  23625584.640   124153252.766    23625590.740    92711836.711  
> 2021  1  5 21 11 29.0000000  0 14       0.000000000000
G 3  24243601.760   127400909.4802   24243605.640    95137034.9772 
G 4  21313186.680   112001529.500    21313189.960    83637513.813  
G 7  21375333.040   112328127.379                                  
G 8  23627161.820   124161487.8242   23627164.200    92717985.9532 
G 9  20321588.700   106790624.543    20321589.660    79746248.438  
G16  22791115.420   119768108.344                                  
G27  23356429.200   122738798.340    23356430.840    91655593.273  
G30  23238373.480   122118407.898    23238375.940    91192313.762  
E 2  24270816.440   127543973.625    24270821.920    95243867.094  
E 3  23348870.500   122699113.086    23348876.460    91625953.871  
E 5  25689188.120   134997552.105    25689195.060   100809849.512  
E 8  23636577.420   124211034.934    23636582.260    92754986.316  
E24  27205872.640   142967808.1212   27205891.120   106761686.3982 
E25  23625732.220   124154028.305    23625738.320    92712415.848  
> 2021  1  5 21 11 30.0000000  0 14       0.000000000000
G 3  24244312.460   127404644.2302   24244316.340    95139823.9102 
G 4  21313512.320   112003240.809    21313515.620    83638791.738  
G 7  21375134.540   112327084.270                                  
G 8  23626644.520   124158769.4772   23626646.920    92715956.0202 
G 9  20321499.800   106790157.402    20321500.780    79745899.598  
G16  22791704.600   119771204.492                                  
G27  23356169.620   122737434.219    23356171.240    91654574.613  
G30  23237935.140   122116104.430    23237937.600    91190593.637  
E 2  24270467.020   127542137.457    24270472.520    95242495.930  
E 3  23348870.680   122699114.016    23348876.640    91625954.563  
E 5  25689608.960   134999763.598    25689615.880   100811500.949  
E 8  23636151.780   124208798.238    23636156.620    92753316.055  
E24  27206383.300   142970491.6722   27206401.780   106763690.3482 
E25  23625879.860   124154804.207    23625885.980    92712995.258  
> 2021  1  5 21 11 32.0000000  0 14       0.000000000000
G 3  24245733.860   127412113.7972   24245737.760    95145401.8282 
G 4  21314163.860   112006664.609    21314167.140    83641348.469  
G 7  21374737.660   112324998.652                                  
G 8  23625610.080   124153333.3872   23625612.460    92711896.6052 
G 9  20321322.280   106789224.457    20321323.240    79745202.922  
G16  22792883.180   119777397.980                                  
G27  23355650.740   122734707.570    23355652.380    91652538.480  
G30  23237058.560   122111497.977    23237061.020    91187153.758  
E 2  24269768.380   127538466.094    24269773.880    95239754.328  
E 3  23348871.220   122699116.863    23348877.180    91625956.691  
E 5  25690450.760   135004187.270    25690457.680   100814804.340  
E 8  23635300.600   124204325.223    23635305.440    92749975.816  
E24  27207404.680   142975858.9882   27207423.140   106767698.4062 
E25  23626175.360   124156357.090    23626181.480    92714154.875  
> 2021  1  5 21 11 33.0000000  0 14       0.000000000000
G 3  24246444.580   127415848.6092   24246448.480    95148190.8132 
G 4  21314489.720   112008377.094    21314493.020    83642627.273  
G 7  21374539.280   112323956.164                                  
G 8  23625092.900   124150615.6482   23625095.300    92709867.1252 
G 9  20321233.640   106788758.645    20321234.600    79744855.070  
G16  22793472.580   119780495.305                                  
G27  23355391.460   122733345.035    23355393.100    91651521.004  
G30  23236620.320   122109195.000    23236622.780    91185434.004  
E 2  24269419.160   127536630.918    24269424.660    95238383.906  
E 3  23348871.600   122699118.801    23348877.540    91625958.137  
E 5  25690871.720   135006399.453    25690878.660   100816456.293  
E 8  23634875.040   124202088.902    23634879.880    92748305.840  
E24  27207915.380   142978542.7582   27207933.840   106769702.5202 
E25  23626323.220   124157134.074    23626329.340    92714735.090  
> 2021  1  5 21 11 34.0000000  0 14       0.000000000000
G 3  24247155.300   127419583.4572   24247159.200    95150979.8162 
G 4  21314815.680   112010089.969    21314818.980    83643906.367  
G 7  21374340.940   112322913.871                                  
G 8  23624575.780   124147898.1052   23624578.160    92707837.7932 
G 9  20321145.080   106788293.266    20321146.040    79744507.551  
G16  22794062.060   119783593.035                                  
G27  23355132.280   122731983.031    23355133.920    91650503.922  
G30  23236182.100   122106892.184    23236184.560    91183714.367  
E 2  24269070.000   127534796.055    24269075.500    95237013.715  
E 3  23348872.020   122699121.078    23348877.980    91625959.836  
E 5  25691292.720   135008611.887    25691299.660   100818108.434  
E 8  23634449.500   124199852.715    23634454.340    92746635.961  
E24  27208426.100   142981226.6022   27208444.560   106771706.6882 
E25  23626471.140   124157911.426    23626477.260    92715315.578  
> 2021  1  5 21 11 35.0000000  0 14       0.000000000000
G 3  24247866.020   127423318.3362   24247869.920    95153768.8482 
G 4  21315141.700   112011803.230    21315145.000    83645185.750  
G 7  21374142.640   112321871.789                                  
G 8  23624058.680   124145180.7772   23624061.080    92705808.6212 
G 9  20321056.600   106787828.355    20321057.560    79744160.379  
G16  22794651.620   119786691.152                                  
G27  23354873.200   122730621.566    23354874.840    91649487.246  
G30  23235743.920   122104589.531    23235746.380    91181994.855  
E 2  24268720.900   127532961.520    24268726.400    95235643.773  
E 3  23348872.520   122699123.695    23348878.480    91625961.793  
E 5  25691713.780   135010824.535    25691720.720   100819760.734  
E 8  23634024.000   124197616.660    23634028.840    92744966.180  
E24  27208936.820   142983910.5122   27208955.300   106773710.9062 
E25  23626619.140   124158689.117    23626625.260    92715896.324  
> 2021  1  5 21 11 36.0000000  0 14       0.000000000000
G 3  24248576.760   127427053.2502   24248580.660    95156557.9062 
G 4  21315467.800   112013516.898    21315471.100    83646465.438  
G 7  21373944.380   112320829.926                                  
G 8  23623541.620   124142463.6642   23623544.020    92703779.6092 
G 9  20320968.220   106787363.883    20320969.180    79743813.531  
G16  22795241.240   119789789.664                                  
G27  23354614.220   122729260.617    23354615.860    91648470.953  
G30  23235305.780   122102287.035    23235308.220    91180275.461  
E 2  24268371.860   127531127.328    24268377.360    95234274.082  
E 3  23348873.100   122699126.664    23348879.040    91625964.008  
E 5  25692134.880   135013037.426    25692141.820   100821413.215  
E 8  23633598.520   124195380.742    23633603.360    92743296.500  
E24  27209447.580   142986594.5272   27209466.060   106775715.1992 
E25  23626767.200   124159467.203    23626773.320    92716477.363  
> 2021  1  5 21 11 37.0000000  0 14       0.000000000000
G 3  24249287.480   127430788.1802   24249291.380    95159346.9732 
G 4  21315793.980   112015230.941    21315797.260    83647745.402  
G 7  21373746.160   112319788.254                                  
G 8  23623024.600   124139746.7152   23623027.000    92701750.7232 
G 9  20320879.920   106786899.859    20320880.880    79743467.020  
G16  22795830.940   119792888.563                                  
G27  23354355.340   122727900.199    23354356.980    91647455.055  
G30  23234867.660   122099984.707    23234870.120    91178556.191  
E 2  24268022.900   127529293.461    24268028.380    95232904.637  
E 3  23348873.720   122699129.965    23348879.680    91625966.473  
E 5  25692556.020   135015250.551    25692562.960   100823065.875  
E 8  23633173.060   124193144.953    23633177.900    92741626.918  
E24  27209958.340   142989278.6022   27209976.820   106777719.5392 
E25  23626915.340   124160245.625    23626921.440    92717058.648  
> 2021  1  5 21 11 38.0000000  0 14       0.000000000000
G 3  24249998.220   127434523.1332   24250002.120    95162136.0632 
G 4  21316120.220   112016945.375    21316123.520    83649025.664  
G 7  21373547.980   112318746.805                                  
G 8  23622507.640   124137030.0122   23622510.020    92699722.0162 
G 9  20320791.700   106786436.270    20320792.660    79743120.832  
G16  22796420.720   119795987.855                                  
G27  23354096.560   122726540.324    23354098.200    91646439.566  
G30  23234429.580   122097682.559    23234432.020    91176837.055  
E 2  24267673.980   127527459.930    24267679.480    95231535.441  
E 3  23348874.420   122699133.609    23348880.360    91625969.195  
E 5  25692977.220   135017463.910    25692984.160   100824718.703  
E 8  23632747.620   124190909.289    23632752.460    92739957.430  
E24  27210469.120   142991962.7462   27210487.600   106779723.9342 
E25  23627063.540   124161024.414    23627069.640    92717640.211  
> 2021  1  5 21 11 39.0000000  0 14       0.000000000000
G 3  24250708.980   127438258.1332   24250712.880    95164925.1802 
G 4  21316446.540   112018660.211    21316449.840    83650306.223  
G 7  21373349.840   112317705.566                                  
G 8  23621990.700   124134313.5042   23621993.100    92697693.4532 
G 9  20320703.560   106785973.133    20320704.520    79742774.984  
G16  22797010.560   119799087.547                                  
G27  23353837.900   122725180.977    23353839.520    91645424.469  
G30  23233991.520   122095380.559    23233993.960    91175118.027  
E 2  24267325.140   127525626.723    24267330.620    95230166.492  
E 3  23348875.180   122699137.594    23348881.120    91625972.172  
E 5  25693398.440   135019677.496    25693405.380   100826371.707  
E 8  23632322.220   124188673.758    23632327.060    92738288.039  
E24  27210979.920   142994646.9692   27210998.380   106781728.3832 
E25  23627211.800   124161803.563    23627217.920    92718222.047  
> 2021  1  5 21 11 40.0000000  0 14       0.000000000000
G 3  24251419.720   127441993.1372   24251423.620    95167714.3052 
G 4  21316772.940   112020375.438    21316776.240    83651587.074  
G 7  21373151.720   112316664.516                                  
G 8  23621473.800   124131597.1992   23621476.200    92695665.0472 
G 9  20320615.520   106785510.438    20320616.480    79742429.465  
G16  22797600.500   119802187.629                                  
G27  23353579.320   122723822.160    23353580.960    91644409.770  
G30  23233553.500   122093078.719    23233555.940    91173399.125  
E 2  24266976.360   127523793.855    24266981.840    95228797.789  
E 3  23348876.000   122699141.922    23348881.940    91625975.402  
E 5  25693819.720   135021891.316    25693826.660   100828024.883  
E 8  23631896.840   124186438.367    23631901.680    92736618.758  
E24  27211490.720   142997331.2702   27211509.200   106783732.8952 
E25  23627360.140   124162583.074    23627366.240    92718804.148  
> 2021  1  5 21 11 41.0000000  0 14       0.000000000000
G 3  24252130.480   127445728.1682   24252134.380    95170503.4532 
G 4  21317099.400   112022091.047    21317102.700    83652868.207  
G 7  21372953.660   112315623.684                                  
G 8  23620956.940   124128881.0822   23620959.340    92693636.7772 
G 9  20320527.560   106785048.184    20320528.520    79742084.277  
G16  22798190.500   119805288.102                                  
G27  23353320.840   122722463.883    23353322.480    91643395.473  
G30  23233115.500   122090777.043    23233117.940    91171680.340  
E 2  24266627.620   127521961.301    24266633.120    95227429.324  
E 3  23348876.880   122699146.594    23348882.840    91625978.891  
E 5  25694241.040   135024105.371    25694247.980   100829678.234  
E 8  23631471.480   124184203.090    23631476.320    92734949.555  
E24  27212001.540   143000015.6412   27212020.020   106785737.4532 
E25  23627508.540   124163362.941    23627514.660    92719386.516  
> 2021  1  5 21 11 42.0000000  0 14       0.000000000000
G 3  24252841.240   127449463.2342   24252845.140    95173292.6212 
G 4  21317425.960   112023807.047    21317429.240    83654149.637  
G 7  21372755.640   112314583.063                                  
G 8  23620440.120   124126165.1682   23620442.520    92691608.6642 
G 9  20320439.680   106784586.383    20320440.640    79741739.426  
G16  22798780.580   119808388.965                                  
G27  23353062.480   122721106.137    23353064.100    91642381.570  
G30  23232677.540   122088475.535    23232679.980    91169961.684  
E 2  24266278.960   127520129.082    24266284.460    95226061.109  
E 3  23348877.840   122699151.594    23348883.780    91625982.625  
E 5  25694662.420   135026319.660    25694669.360   100831331.762  
E 8  23631046.140   124181967.949    23631050.980    92733280.457  
E24  27212512.380   143002700.0902   27212530.840   106787742.0742 
E25  23627657.020   124164143.180    23627663.120    92719969.160  
> 2021  1  5 21 11 43.0000000  0 14       0.000000000000
G 3  24253552.000   127453198.3132   24253555.900    95176081.8012 
G 4  21317752.560   112025523.438    21317755.860    83655431.355  
G 7  21372557.660   112313542.645                                  
G 8  23619923.340   124123449.4612   23619925.720    92689580.7032 
G 9  20320351.880   106784125.016    20320352.840    79741394.898  
G16  22799370.720   119811490.223                                  
G27  23352804.200   122719748.902    23352805.840    91641368.051  
G30  23232239.600   122086174.191    23232242.060    91168243.148  
E 2  24265930.380   127518297.199    24265935.860    95224693.145  
E 3  23348878.860   122699156.941    23348884.800    91625986.617  
E 5  25695083.820   135028534.180    25695090.760   100832985.461  
E 8  23630620.840   124179732.945    23630625.680    92731611.465  
E24  27213023.220   143005384.6132   27213041.700   106789746.7502 
E25  23627805.560   124164923.754    23627811.660    92720552.059  
> 2021  1  5 21 11 44.0000000  0 14       0.000000000000
G 3  24254262.780   127456933.4492   24254266.680    95178871.0232 
G 4  21318079.260   112027240.211    21318082.560    83656713.363  
G 7  21372359.720   112312502.441                                  
G 8  23619406.600   124120733.9732   23619408.980    92687552.9062 
G 9  20320264.180   106783664.113    20320265.140    79741050.715  
G16  22799960.940   119814591.871                                  
G27  23352546.040   122718392.215    23352547.660    91640354.941  
G30  23231801.700   122083873.020    23231804.160    91166524.742  
E 2  24265581.840   127516465.652    24265587.320    95223325.434  
E 3  23348879.940   122699162.645    23348885.900    91625990.879  
E 5  25695505.280   135030748.938    25695512.220   100834639.336  
E 8  23630195.560   124177498.074    23630200.400    92729942.563  
E24  27213534.080   143008069.2112   27213552.560   106791751.4802 
E25  23627954.160   124165704.719    23627960.280    92721135.246  
> 2021  1  5 21 11 45.0000000  0 14       0.000000000000
G 3  24254973.560   127460668.5862   24254977.460    95181660.2462 
G 4  21318406.020   112028957.383    21318409.320    83657995.664  
G 7  21372161.800   112311462.441                                  
G 8  23618889.900   124118018.6762   23618892.280    92685525.2502 
G 9  20320176.540   106783203.637    20320177.520    79740706.852  
G16  22800551.240   119817693.910                                  
G27  23352287.960   122717036.051    23352289.600    91639342.227  
G30  23231363.840   122081572.008    23231366.280    91164806.453  
E 2  24265233.360   127514634.426    24265238.860    95221957.957  
E 3  23348881.080   122699168.672    23348887.040    91625995.379  
E 5  25695926.780   135032963.922    25695933.720   100836293.383  
E 8  23629770.300   124175263.332    23629775.140    92728273.766  
E24  27214044.960   143010753.8832   27214063.440   106793756.2662 
E25  23628102.840   124166486.027    23628108.960    92721718.691  
> 2021  1  5 21 11 46.0000000  0 14       0.000000000000
G 3  24255684.340   127464403.7582   24255688.240    95184449.5002 
G 4  21318732.860   112030674.945    21318736.160    83659278.258  
G 7  21371963.940   112310422.648                                  
G 8  23618373.220   124115303.5982   23618375.620    92683497.7582 
G 9  20320089.000   106782743.605    20320089.980    79740363.324  
G16  22801141.620   119820796.344                                  
G27  23352030.000   122715680.422    23352031.620    91638329.906  
G30  23230926.000   122079271.156    23230928.440    91163088.289  
E 2  24264884.960   127512803.531    24264890.440    95220590.734  
E 3  23348882.300   122699175.047    23348888.260    91626000.137  
E 5  25696348.320   135035179.141    25696355.260   100837947.602  
E 8  23629345.060   124173028.723    23629349.900    92726605.063  
E24  27214555.860   143013438.6292   27214574.320   106795761.1092 
E25  23628251.580   124167267.691    23628257.700    92722302.398  
> 2021  1  5 21 11 47.0000000  0 14       0.000000000000
G 3  24256395.120   127468138.9382   24256399.020    95187238.7542 
G 4  21319059.780   112032392.891    21319063.080    83660561.141  
G 7  21371766.120   112309383.063                                  
G 8  23617856.600   124112588.6952   23617858.980    92681470.3982 
G 9  20320001.560   106782284.020    20320002.520    79740020.129  
G16  22801732.060   119823899.164                                  
G27  23351772.120   122714325.328    23351773.760    91637317.984  
G30  23230488.200   122076970.480    23230490.640    91161370.250  
E 2  24264536.620   127510972.965    24264542.100    95219223.754  
E 3  23348883.580   122699181.754    23348889.520    91626005.148  
E 5  25696769.900   135037394.594    25696776.840   100839601.996  
E 8  23628919.860   124170794.230    23628924.700    92724936.449  
E24  27215066.760   143016123.4412   27215085.240   106797766.0002 
E25  23628400.400   124168049.727    23628406.520    92722886.387  
> 2021  1  5 21 11 48.0000000  0 14       0.000000000000
G 3  24257105.900   127471874.1682   24257109.820    95190028.0472 
G 4  21319386.780   112034111.230    21319390.080    83661844.316  
G 7  21371568.320   112308343.688                                  
G 8  23617340.000   124109873.9882   23617342.400    92679443.1842 
G 9  20319914.180   106781824.883    20319915.140    79739677.266  
G16  22802322.600   119827002.375                                  
G27  23351514.360   122712970.770    23351516.000    91636306.465  
G30  23230050.420   122074669.941    23230052.860    91159652.316  
E 2  24264188.340   127509142.730    24264193.820    95217857.020  
E 3  23348884.920   122699188.809    23348890.880    91626010.418  
E 5  25697191.540   135039610.277    25697198.480   100841256.566  
E 8  23628494.680   124168559.887    23628499.500    92723267.945  
E24  27215577.680   143018808.3362   27215596.160   106799770.9532 
E25  23628549.280   124168832.109    23628555.400    92723470.637  
> 2021  1  5 21 11 49.0000000  0 14       0.000000000000
G 3  24257816.700   127475609.4102   24257820.600    95192817.3522 
G 4  21319713.840   112035829.965    21319717.140    83663127.785  
G 7  21371370.580   112307304.523                                  
G 8  23616823.460   124107159.4962   23616825.840    92677416.1292 
G 9  20319826.900   106781366.191    20319827.860    79739334.734  
G16  22802913.180   119830105.980                                  
G27  23351256.700   122711616.734    23351258.340    91635295.336  
G30  23229612.660   122072369.590    23229615.120    91157934.523  
E 2  24263840.120   127507312.824    24263845.600    95216490.531  
E 3  23348886.320   122699196.211    23348892.280    91626015.941  
E 5  25697613.220   135041826.199    25697620.160   100842911.313  
E 8  23628069.520   124166325.664    23628074.340    92721599.535  
E24  27216088.600   143021493.3052   27216107.080   106801775.9572 
E25  23628698.240   124169614.863    23628704.360    92724055.156  
> 2021  1  5 21 11 50.0000000  0 14       0.000000000000
G 3  24258527.500   127479344.6802   24258531.400    95195606.6722 
G 4  21320040.980   112037549.086    21320044.280    83664411.543  
G 7  21371172.880   112306265.574                                  
G 8  23616306.940   124104445.2192   23616309.340    92675389.2342 
G 9  20319739.700   106780907.945    20319740.660    79738992.539  
G16  22803503.860   119833209.977                                  
G27  23350999.140   122710263.238    23351000.780    91634284.609  
G30  23229174.960   122070069.387    23229177.400    91156216.840  
E 2  24263491.960   127505483.258    24263497.440    95215124.297  
E 3  23348887.800   122699203.953    23348893.760    91626021.723  
E 5  25698034.940   135044042.359    25698041.880   100844566.234  
E 8  23627644.380   124164091.578    23627649.220    92719931.223  
E24  27216599.560   143024178.3552   27216618.040   106803781.0272 
E25  23628847.260   124170397.977    23628853.380    92724639.949  
> 2021  1  5 21 11 51.0000000  0 14       0.000000000000
G 3  24259238.300   127483079.9842   24259242.220    95198396.0202 
G 4  21320368.200   112039268.602    21320371.480    83665695.598  
G 7  21370975.200   112305226.824                                  
G 8  23615790.480   124101731.1602   23615792.860    92673362.5042 
G 9  20319652.580   106780450.152    20319653.540    79738650.680  
G16  22804094.600   119836314.359                                  
G27  23350741.680   122708910.258    23350743.300    91633274.266  
G30  23228737.280   122067769.367    23228739.720    91154499.293  
E 2  24263143.860   127503654.023    24263149.360    95213758.309  
E 3  23348889.340   122699212.031    23348895.300    91626027.758  
E 5  25698456.700   135046258.746    25698463.640   100846221.328  
E 8  23627219.280   124161857.629    23627224.120    92718263.016  
E24  27217110.520   143026863.4802   27217129.000   106805786.1522 
E25  23628996.360   124171181.457    23629002.460    92725225.016  
> 2021  1  5 21 11 52.0000000  0 14       0.000000000000
G 3  24259949.120   127486815.3162   24259953.020    95201185.3912 
G 4  21320695.480   112040988.500    21320698.780    83666979.938  
G 7  21370777.580   112304188.285                                  
G 8  23615274.040   124099017.3162   23615276.440    92671335.9342 
G 9  20319565.540   106779992.797    20319566.500    79738309.148  
G16  22804685.420   119839419.133                                  
G27  23350484.320   122707557.8282   23350485.940    91632264.3362 
G30  23228299.620   122065469.480    23228302.060    91152781.848  
E 2  24262795.840   127501825.102    24262801.320    95212392.559  
E 3  23348890.940   122699220.449    23348896.900    91626034.043  
E 5  25698878.500   135048475.359    25698885.460   100847876.590  
E 8  23626794.180   124159623.797    23626799.020    92716594.895  
E24  27217621.500   143029548.6682   27217639.980   106807791.3242 
E25  23629145.500   124171965.277    23629151.620    92725810.336  
> 2021  1  5 21 11 53.0000000  0 14       0.000000000000
G 3  24260659.920   127490550.6482   24260663.840    95203974.7582 
G 4  21321022.840   112042708.793    21321026.140    83668264.570  
G 7  21370580.000   112303149.957                                  
G 8  23614757.660   124096303.6682   23614760.040    92669309.5082 
G 9  20319478.600   106779535.879    20319479.560    79737967.945  
G16  22805276.320   119842524.289                                  
G27  23350227.060   122706205.9182   23350228.680    91631254.7932 
G30  23227862.000   122063169.777    23227864.440    91151064.535  
E 2  24262447.860   127499996.516    24262453.360    95211027.059  
E 3  23348892.600   122699229.211    23348898.560    91626040.586  
E 5  25699300.360   135050692.211    25699307.300   100849532.027  
E 8  23626369.120   124157390.098    23626373.960    92714926.871  
E24  27218132.480   143032233.9262   27218150.960   106809796.5472 
E25  23629294.740   124172749.473    23629300.860    92726395.938  
> 2021  1  5 21 11 54.0000000  0 14       0.000000000000
G 3  24261370.760   127494286.0312   24261374.660    95206764.1682 
G 4  21321350.280   112044429.477    21321353.580    83669549.496  
G 7  21370382.440   112302111.848                                  
G 8  23614241.300   124093590.2232   23614243.680    92667283.2342 
G 9  20319391.740   106779079.410    20319392.700    79737627.074  
G16  22805867.280   119845629.840                                  
G27  23349969.900   122704854.5512   23349971.520    91630245.6562 
G30  23227424.420   122060870.242    23227426.860    91149347.352  
E 2  24262099.960   127498168.270    24262105.440    95209661.809  
E 3  23348894.340   122699238.313    23348900.300    91626047.383  
E 5  25699722.260   135052909.293    25699729.200   100851187.641  
E 8  23625944.100   124155156.543    23625948.940    92713258.961  
E24  27218643.480   143034919.2662   27218661.960   106811801.8322 
E25  23629444.040   124173534.020    23629450.140    92726981.801  
> 2021  1  5 21 11 55.0000000  0 14       0.000000000000
G 3  24262081.580   127498021.4182   24262085.480    95209553.5782 
G 4  21321677.780   112046150.543    21321681.080    83670834.707  
G 7  21370184.940   112301073.930                                  
G 8  23613725.000   124090876.9922   23613727.380    92665257.1252 
G 9  20319304.960   106778623.371    20319305.920    79737286.527  
G16  22806458.320   119848735.789                                  
G27  23349712.840   122703503.7072   23349714.480    91629236.9102 
G30  23226986.860   122058570.863    23226989.300    91147630.285  
E 2  24261752.120   127496340.344    24261757.600    95208296.797  
E 3  23348896.140   122699247.754    23348902.080    91626054.434  
E 5  25700144.200   135055126.613    25700151.140   100852843.430  
E 8  23625519.080   124152923.105    23625523.920    92711591.133  
E24  27219154.500   143037604.6762   27219172.980   106813807.1722 
E25  23629593.400   124174318.922    23629599.500    92727567.930  
> 2021  1  5 21 11 56.0000000  0 14       0.000000000000
G 3  24262792.400   127501756.844    24262796.320    95212342.973  
G 4  21322005.360   112047872.063    21322008.660    83672120.250  
G 7  21369987.460   112300036.230                                  
G 8  23613208.720   124088163.918    23613211.140    92663231.059  
G 9  20319218.260   106778167.828    20319219.220    79736946.324  
G16  22807049.480   119851841.965                                  
G27  23349455.840   122702153.625    23349457.460    91628228.816  
G30  23226549.280   122056271.813    23226551.720    91145913.527  
E 2  24261404.320   127494512.789    24261409.820    95206932.086  
E 3  23348898.000   122699257.531    23348903.960    91626061.727  
E 5  25700566.180   135057344.195    25700573.120   100854499.434  
E 8  23625094.100   124150689.813    23625098.940    92709923.414  
E24  27219665.520   143040290.227    27219684.000   106815812.645  
E25  23629742.820   124175104.191    23629748.940    92728154.332  
> 2021  1  5 21 11 57.0000000  0 14       0.000000000000
G 3  24263503.240   127505492.293    24263507.160    95215132.430  
G 4  21322333.020   112049593.934    21322336.320    83673406.063  
G 7  21369790.040   112298998.750                                  
G 8  23612692.500   124085451.090    23612694.900    92661205.246  
G 9  20319131.640   106777712.707    20319132.620    79736606.465  
G16  22807640.660   119854948.707                                  
G27  23349198.980   122700803.852    23349200.600    91627220.871  
G30  23226111.800   122053972.766    23226114.220    91144196.707  
E 2  24261056.620   127492685.531    24261062.100    95205567.574  
E 3  23348899.920   122699267.672    23348905.880    91626069.301  
E 5  25700988.220   135059561.984    25700995.160   100856155.574  
E 8  23624669.140   124148456.652    23624673.980    92708255.797  
E24  27220176.580   143042975.793    27220195.040   106817818.098  
E25  23629892.320   124175889.832    23629898.440    92728741.012  
> 2021  1  5 21 11 58.0000000  0 14       0.000000000000
G 3  24264214.080   127509227.777    24264218.000    95217921.914  
G 4  21322660.740   112051316.176    21322664.040    83674692.152  
G 7  21369592.660   112297961.477                                  
G 8  23612176.280   124082738.449    23612178.700    92659179.578  
G 9  20319045.120   106777258.023    20319046.080    79736266.930  
G16  22808231.920   119858055.824                                  
G27  23348942.240   122699454.605    23348943.840    91626213.316  
G30  23225674.320   122051673.895    23225676.760    91142480.020  
E 2  24260708.960   127490858.602    24260714.440    95204203.309  
E 3  23348901.920   122699278.137    23348907.860    91626077.117  
E 5  25701410.280   135061780.008    25701417.220   100857811.887  
E 8  23624244.220   124146223.621    23624249.040    92706588.273  
E24  27220687.620   143045661.434    27220706.100   106819823.609  
E25  23630041.900   124176675.824    23630048.000    92729327.953  
> 2021  1  5 21 11 59.0000000  0 14       0.000000000000
G 3  24264924.920   127512963.277    24264928.840    95220711.406  
G 4  21322988.540   112053038.813    21322991.840    83675978.539  
G 7  21369395.300   112296924.402                                  
G 8  23611660.140   124080026.055    23611662.540    92657154.086  
G 9  20318958.680   106776803.785    20318959.640    79735927.723  
G16  22808823.260   119861163.328                                  
G27  23348685.580   122698105.891    23348687.180    91625206.164  
G30  23225236.900   122049375.176    23225239.320    91140763.445  
E 2  24260361.360   127489032.004    24260366.840    95202839.293  
E 3  23348903.980   122699288.953    23348909.920    91626085.191  
E 5  25701832.400   135063998.250    25701839.340   100859468.367  
E 8  23623819.300   124143990.723    23623824.140    92704920.852  
E24  27221198.700   143048347.141    27221217.180   106821829.168  
E25  23630191.520   124177462.172    23630197.640    92729915.160  
> 2021  1  5 21 12  0.0000000  0 14       0.000000000000
G 3  24265635.760   127516698.762    24265639.680    95223500.891  
G 4  21323316.420   112054761.836    21323319.720    83677265.211  
G 7  21369197.980   112295887.543                                  
G 8  23611144.020   124077313.855    23611146.420    92655128.746  
G 9  20318872.320   106776350.000    20318873.300    79735588.859  
G16  22809414.680   119864271.234                                  
G27  23348429.020   122696757.715    23348430.640    91624199.410  
G30  23224799.500   122047076.629    23224801.920    91139046.996  
E 2  24260013.840   127487205.738    24260019.320    95201475.523  
E 3  23348906.100   122699300.113    23348912.040    91626093.523  
E 5  25702254.560   135066216.742    25702261.500   100861125.031  
E 8  23623394.420   124141757.953    23623399.260    92703253.523  
E24  27221709.780   143051032.922    27221728.260   106823834.785  
E25  23630341.240   124178248.887    23630347.340    92730502.641  
> 2021  1  5 21 12  1.0000000  0 14       0.000000000000
G 3  24266346.600   127520434.336    24266350.520    95226290.441  
G 4  21323644.380   112056485.262    21323647.680    83678552.184  
G 7  21369000.720   112294850.887                                  
G 8  23610627.940   124074601.852    23610630.340    92653103.551  
G 9  20318786.060   106775896.660    20318787.020    79735250.324  
G16  22810006.160   119867379.539                                  
G27  23348172.580   122695410.086    23348174.180    91623193.063  
G30  23224362.120   122044778.234    23224364.560    91137330.668  
E 2  24259666.360   127485379.797    24259671.840    95200111.996  
E 3  23348908.280   122699311.602    23348914.240    91626102.105  
E 5  25702676.780   135068435.453    25702683.720   100862781.859  
E 8  23622969.560   124139525.316    23622974.400    92701586.293  
E24  27222220.880   143053718.781    27222239.360   106825840.453  
E25  23630491.000   124179035.957    23630497.120    92731090.391  
> 2021  1  5 21 12  3.0000000  0 14       0.000000000000
G 3  24267768.320   127527905.531    24267772.260    95231869.578  
G 4  21324300.520   112059933.270    21324303.820    83681126.992  
G 7  21368606.300   112292778.191                                  
G 8  23609595.900   124069178.488    23609598.300    92649053.641  
G 9  20318613.760   106774991.305    20318614.740    79734574.250  
G16  22811189.380   119873597.352                                  
G27  23347659.980   122692716.410    23347661.600    91621181.555  
G30  23223487.480   122040181.938    23223489.900    91133898.367  
E 2  24258971.620   127481728.914    24258977.100    95197385.691  
E 3  23348912.840   122699335.617    23348918.800    91626120.039  
E 5  25703521.320   135072873.586    25703528.260   100866096.047  
E 8  23622119.920   124135060.441    23622124.760    92698252.137  
E24  27223243.140   143059090.715    27223261.600   106829851.965  
E25  23630790.760   124180611.172    23630796.860    92732266.688  
> 2021  1  5 21 12  4.0000000  0 14       0.000000000000
G 3  24268479.180   127531641.137    24268483.120    95234659.152  
G 4  21324628.700   112061657.859    21324632.000    83682414.836  
G 7  21368409.140   112291742.160                                  
G 8  23609079.940   124066467.113    23609082.340    92647028.914  
G 9  20318527.760   106774539.297    20318528.720    79734236.711  
G16  22811781.080   119876706.832                                  
G27  23347403.840   122691370.371    23347405.440    91620176.395  
G30  23223050.200   122037884.023    23223052.620    91132182.395  
E 2  24258624.340   127479903.973    24258629.820    95196022.910  
E 3  23348915.220   122699348.145    23348921.180    91626129.395  
E 5  25703943.660   135075093.012    25703950.600   100867753.410  
E 8  23621695.140   124132828.207    23621699.980    92696585.207  
E24  27223754.280   143061776.797    27223772.760   106831857.801  
E25  23630940.740   124181399.316    23630946.840    92732855.234  
> 2021  1  5 21 12  5.0000000  0 14       0.000000000000
G 3  24269190.060   127535376.785    24269193.980    95237448.758  
G 4  21324956.940   112063382.832    21324960.240    83683702.965  
G 7  21368212.020   112290706.328                                  
G 8  23608564.020   124063755.938    23608566.420    92645004.336  
G 9  20318441.820   106774087.742    20318442.780    79733899.512  
G16  22812372.880   119879816.707                                  
G27  23347147.800   122690024.859    23347149.400    91619171.633  
G30  23222612.940   122035586.293    23222615.380    91130466.559  
E 2  24258277.140   127478079.348    24258282.620    95194660.367  
E 3  23348917.680   122699361.008    23348923.620    91626139.000  
E 5  25704366.040   135077312.652    25704372.980   100869410.934  
E 8  23621270.380   124130596.105    23621275.220    92694918.383  
E24  27224265.440   143064462.945    27224283.900   106833863.691  
E25  23631090.780   124182187.832    23631096.900    92733444.059  
> 2021  1  5 21 12  6.0000000  0 14       0.000000000000
G 3  24269900.940   127539112.469    24269904.860    95240238.391  
G 4  21325285.260   112065108.207    21325288.560    83684991.395  
G 7  21368014.960   112289670.703                                  
G 8  23608048.140   124061044.961    23608050.540    92642979.906  
G 9  20318355.980   106773636.629    20318356.940    79733562.641  
G16  22812964.740   119882926.965                                  
G27  23346891.860   122688679.887    23346893.460    91618167.270  
G30  23222175.720   122033288.703    23222178.160    91128750.824  
E 2  24257929.980   127476255.066    24257935.460    95193298.078  
E 3  23348920.180   122699374.211    23348926.140    91626148.859  
E 5  25704788.480   135079532.535    25704795.420   100871068.641  
E 8  23620845.640   124128364.133    23620850.480    92693251.648  
E24  27224776.600   143067149.164    27224795.080   106835869.633  
E25  23631240.900   124182976.699    23631247.000    92734033.148  
> 2021  1  5 21 12  7.0000000  0 14       0.000000000000
G 3  24270611.820   127542848.172    24270615.740    95243028.035  
G 4  21325613.660   112066833.965    21325616.960    83686280.105  
G 7  21367817.920   112288635.293                                  
G 8  23607532.300   124058334.207    23607534.680    92640955.645  
G 9  20318270.220   106773185.957    20318271.180    79733226.098  
G16  22813556.680   119886037.609                                  
G27  23346636.020   122687335.449    23346637.620    91617163.305  
G30  23221738.540   122030991.301    23221740.960    91127035.234  
E 2  24257582.880   127474431.109    24257588.380    95191936.031  
E 3  23348922.760   122699387.766    23348928.720    91626158.980  
E 5  25705210.940   135081752.652    25705217.880   100872726.516  
E 8  23620420.940   124126132.277    23620425.780    92691585.004  
E24  27225287.780   143069835.469    27225306.260   106837875.637  
E25  23631391.080   124183765.914    23631397.180    92734622.500  
> 2021  1  5 21 12  8.0000000  0 14       0.000000000000
G 3  24271322.700   127546583.891    24271326.620    95245817.695  
G 4  21325942.140   112068560.105    21325945.440    83687569.109  
G 7  21367620.920   112287600.086                                  
G 8  23607016.480   124055623.652    23607018.880    92638931.531  
G 9  20318184.540   106772735.723    20318185.500    79732889.887  
G16  22814148.680   119889148.648                                  
G27  23346380.280   122685991.539    23346381.880    91616159.738  
G30  23221301.380   122028694.055    23221303.820    91125319.762  
E 2  24257235.860   127472607.480    24257241.340    95190574.234  
E 3  23348925.400   122699401.648    23348931.360    91626169.348  
E 5  25705633.460   135083972.996    25705640.400   100874384.563  
E 8  23619996.260   124123900.570    23620001.080    92689918.473  
E24  27225798.980   143072521.840    27225817.460   106839881.695  
E25  23631541.320   124184555.504    23631547.440    92735212.129  
> 2021  1  5 21 12  9.0000000  0 14       0.000000000000
G 3  24272033.580   127550319.641    24272037.520    95248607.375  
G 4  21326270.680   112070286.660    21326274.000    83688858.418  
G 7  21367423.960   112286565.094                                  
G 8  23606500.720   124052913.309    23606503.120    92636907.574  
G 9  20318098.940   106772285.949    20318099.920    79732554.016  
G16  22814740.760   119892260.070                                  
G27  23346124.640   122684648.164    23346126.240    91615156.570  
G30  23220864.260   122026396.969    23220866.700    91123604.406  
E 2  24256888.900   127470784.195    24256894.380    95189212.688  
E 3  23348928.100   122699415.887    23348934.060    91626179.980  
E 5  25706056.020   135086193.586    25706062.960   100876042.793  
E 8  23619571.600   124121669.004    23619576.440    92688252.043  
E24  27226310.200   143075208.289    27226328.680   106841887.809  
E25  23631691.640   124185345.453    23631697.760    92735802.023  
> 2021  1  5 21 12 10.0000000  0 14       0.000000000000
G 3  24272744.480   127554055.418    24272748.400    95251397.078  
G 4  21326599.320   112072013.586    21326602.620    83690148.008  
G 7  21367227.060   112285530.285                                  
G 8  23605985.000   124050203.156    23605987.400    92634883.766  
G 9  20318013.440   106771836.613    20318014.400    79732218.477  
G16  22815332.920   119895371.875                                  
G27  23345869.100   122683305.324    23345870.700    91614153.805  
G30  23220427.180   122024100.051    23220429.600    91121889.176  
E 2  24256542.000   127468961.234    24256547.480    95187851.387  
E 3  23348930.880   122699430.469    23348936.840    91626190.871  
E 5  25706478.640   135088414.398    25706485.580   100877701.195  
E 8  23619146.960   124119437.559    23619151.800    92686585.707  
E24  27226821.420   143077894.809    27226839.900   106843893.973  
E25  23631842.040   124186135.758    23631848.140    92736392.188  
> 2021  1  5 21 12 11.0000000  0 14       0.000000000000
G 3  24273455.380   127557791.2192   24273459.300    95254186.8012 
G 4  21326928.000   112073740.895    21326931.300    83691437.887  
G 7  21367030.180   112284495.695                                  
G 8  23605469.320   124047493.219    23605471.700    92632860.113  
G 9  20317928.020   106771387.711    20317928.980    79731883.262  
G16  22815925.160   119898484.063                                  
G27  23345613.660   122681963.008    23345615.260    91613151.430  
G30  23219990.120   122021803.277    23219992.540    91120174.059  
E 2  24256195.160   127467138.594    24256200.640    95186490.324  
E 3  23348933.720   122699445.375    23348939.680    91626202.000  
E 5  25706901.280   135090635.438    25706908.220   100879359.758  
E 8  23618722.360   124117206.242    23618727.200    92684919.465  
E24  27227332.660   143080581.391    27227351.140   106845900.188  
E25  23631992.500   124186926.414    23631998.600    92736982.613  
> 2021  1  5 21 12 12.0000000  0 14       0.000000000000
G 3  24274166.280   127561527.0202   24274170.200    95256976.5272 
G 4  21327256.780   112075468.605    21327260.080    83692728.063  
G 7  21366833.340   112283461.309                                  
G 8  23604953.660   124044783.516    23604956.060    92630836.641  
G 9  20317842.680   106770939.270    20317843.640    79731548.387  
G16  22816517.460   119901596.641                                  
G27  23345358.340   122680621.242    23345359.940    91612149.465  
G30  23219553.080   122019506.688    23219555.500    91118459.078  
E 2  24255848.380   127465316.293    24255853.860    95185129.516  
E 3  23348936.620   122699460.633    23348942.580    91626213.395  
E 5  25707323.980   135092856.711    25707330.920   100881018.500  
E 8  23618297.780   124114975.063    23618302.600    92683253.324  
E24  27227843.920   143083268.055    27227862.400   106847906.461  
E25  23632143.020   124187717.434    23632149.140    92737573.309  
> 2021  1  5 21 12 13.0000000  0 14       0.000000000000
G 3  24274877.180   127565262.8402   24274881.120    95259766.2622 
G 4  21327585.620   112077196.699    21327588.920    83694018.527  
G 7  21366636.540   112282427.129                                  
G 8  23604438.080   124042074.039    23604440.460    92628813.336  
G 9  20317757.420   106770491.273    20317758.400    79731213.848  
G16  22817109.840   119904709.609                                  
G27  23345103.100   122679279.992    23345104.700    91611147.887  
G30  23219116.080   122017210.254    23219118.500    91116744.215  
E 2  24255501.680   127463494.324    24255507.160    95183768.953  
E 3  23348939.580   122699476.230    23348945.540    91626225.039  
E 5  25707746.720   135095078.223    25707753.660   100882677.418  
E 8  23617873.220   124112744.023    23617878.060    92681587.289  
E24  27228355.180   143085954.793    27228373.660   106849912.789  
E25  23632293.620   124188508.820    23632299.720    92738164.273  
> 2021  1  5 21 12 14.0000000  0 14       0.000000000000
G 3  24275588.100   127568998.7032   24275592.020    95262556.0352 
G 4  21327914.540   112078925.184    21327917.840    83695309.277  
G 7  21366439.780   112281393.152                                  
G 8  23603922.500   124039364.746    23603924.900    92626790.168  
G 9  20317672.260   106770043.719    20317673.220    79730879.641  
G16  22817702.280   119907822.957                                  
G27  23344847.980   122677939.285    23344849.580    91610146.715  
G30  23218679.120   122014913.992    23218681.540    91115029.477  
E 2  24255155.020   127461672.680    24255160.500    95182408.633  
E 3  23348942.620   122699492.168    23348948.560    91626236.941  
E 5  25708169.500   135097299.961    25708176.440   100884336.508  
E 8  23617448.680   124110513.102    23617453.520    92679921.340  
E24  27228866.460   143088641.609    27228884.940   106851919.172  
E25  23632444.280   124189300.563    23632450.380    92738755.512  
> 2021  1  5 21 12 15.0000000  0 14       0.000000000000
G 3  24276299.020   127572734.5942   24276302.940    95265345.8242 
G 4  21328243.540   112080654.063    21328246.840    83696600.328  
G 7  21366243.060   112280359.391                                  
G 8  23603406.980   124036655.668    23603409.380    92624767.160  
G 9  20317587.180   106769596.625    20317588.140    79730545.777  
G16  22818294.820   119910936.711                                  
G27  23344592.940   122676599.105    23344594.540    91609145.938  
G30  23218242.180   122012617.867    23218244.600    91113314.844  
E 2  24254808.440   127459851.363    24254813.920    95181048.563  
E 3  23348945.720   122699508.461    23348951.660    91626249.109  
E 5  25708592.320   135099521.938    25708599.260   100885995.773  
E 8  23617024.180   124108282.328    23617029.020    92678255.500  
E24  27229377.760   143091328.492    27229396.240   106853925.609  
E25  23632595.000   124190092.656    23632601.120    92739347.012  
> 2021  1  5 21 12 16.0000000  0 14       0.000000000000
G 3  24277009.940   127576470.4962   24277013.860    95268135.6252 
G 4  21328572.620   112082383.336    21328575.900    83697891.672  
G 7  21366046.380   112279325.844                                  
G 8  23602891.500   124033946.801    23602893.900    92622744.313  
G 9  20317502.180   106769149.973    20317503.140    79730212.242  
G16  22818887.420   119914050.840                                  
G27  23344338.020   122675259.477    23344339.620    91608145.566  
G30  23217805.280   122010321.934    23217807.700    91111600.352  
E 2  24254461.920   127458030.391    24254467.400    95179688.742  
E 3  23348948.880   122699525.094    23348954.840    91626261.527  
E 5  25709015.200   135101744.148    25709022.140   100887655.215  
E 8  23616599.700   124106051.684    23616604.540    92676589.762  
E24  27229889.080   143094015.441    27229907.560   106855932.098  
E25  23632745.800   124190885.121    23632751.920    92739938.785  
> 2021  1  5 21 12 17.0000000  0 14       0.000000000000
G 3  24277720.860   127580206.4102   24277724.780    95270925.4342 
G 4  21328901.760   112084112.992    21328905.040    83699183.305  
G 7  21365849.740   112278292.496                                  
G 8  23602376.060   124031238.137    23602378.440    92620721.613  
G 9  20317417.280   106768703.758    20317418.240    79729879.035  
G16  22819480.080   119917165.363                                  
G27  23344083.200   122673920.359    23344084.800    91607145.586  
G30  23217368.400   122008026.156    23217370.820    91109885.980  
E 2  24254115.460   127456209.742    24254120.940    95178329.172  
E 3  23348952.100   122699542.055    23348958.060    91626274.195  
E 5  25709438.100   135103966.594    25709445.060   100889314.832  
E 8  23616175.240   124103821.164    23616180.080    92674924.117  
E24  27230400.400   143096702.473    27230418.880   106857938.645  
E25  23632896.660   124191677.938    23632902.780    92740530.824  
> 2021  1  5 21 12 18.0000000  0 14       0.000000000000
G 3  24278431.780   127583942.3712   24278435.720    95273715.2732 
G 4  21329230.980   112085843.035    21329234.260    83700475.223  
G 7  21365653.140   112277259.344                                  
G 8  23601860.660   124028529.676    23601863.040    92618699.066  
G 9  20317332.440   106768257.988    20317333.400    79729546.156  
G16  22820072.840   119920280.270                                  
G27  23343828.480   122672581.789    23343830.060    91606146.004  
G30  23216931.560   122005730.551    23216933.980    91108171.730  
E 2  24253769.060   127454389.422    24253774.540    95176969.844  
E 3  23348955.400   122699559.371    23348961.340    91626287.125  
E 5  25709861.060   135106189.258    25709868.020   100890974.617  
E 8  23615750.820   124101590.785    23615755.660    92673258.574  
E24  27230911.740   143099389.578    27230930.220   106859945.250  
E25  23633047.600   124192471.113    23633053.720    92741123.133  
> 2021  1  5 21 12 19.0000000  0 14       0.000000000000
G 3  24279142.720   127587678.3402   24279146.640    95276505.1252 
G 4  21329560.260   112087573.473    21329563.560    83701767.438  
G 7  21365456.580   112276226.406                                  
G 8  23601345.300   124025821.426    23601347.680    92616676.680  
G 9  20317247.700   106767812.664    20317248.660    79729213.613  
G16  22820665.660   119923395.570                                  
G27  23343573.860   122671243.754    23343575.440    91605146.828  
G30  23216494.760   122003435.086    23216497.180    91106457.590  
E 2  24253422.720   127452569.445    24253428.200    95175610.770  
E 3  23348958.760   122699577.020    23348964.700    91626300.305  
E 5  25710284.080   135108412.172    25710291.020   100892634.582  
E 8  23615326.420   124099360.535    23615331.240    92671593.129  
E24  27231423.080   143102076.758    27231441.560   106861951.910  
E25  23633198.600   124193264.645    23633204.720    92741715.703  
> 2021  1  5 21 12 20.0000000  0 14       0.000000000000
G 3  24279853.660   127591414.3402   24279857.580    95279294.9962 
G 4  21329889.620   112089304.313    21329892.920    83703059.949  
G 7  21365260.060   112275193.684                                  
G 8  23600829.980   124023113.379    23600832.360    92614654.441  
G 9  20317163.040   106767367.809    20317164.000    79728881.422  
G16  22821258.560   119926511.246                                  
G27  23343319.340   122669906.266    23343320.940    91604148.059  
G30  23216057.980   122001139.805    23216060.400    91104743.590  
E 2  24253076.460   127450749.785    24253081.940    95174251.930  
E 3  23348962.180   122699595.016    23348968.120    91626313.742  
E 5  25710707.120   135110635.309    25710714.060   100894294.715  
E 8  23614902.040   124097130.410    23614906.860    92669927.777  
E24  27231934.440   143104764.004    27231952.920   106863958.617  
E25  23633349.680   124194058.539    23633355.780    92742308.547  
> 2021  1  5 21 12 21.0000000  0 14       0.000000000000
G 3  24280564.600   127595150.3592   24280568.520    95282084.8832 
G 4  21330219.080   112091035.531    21330222.360    83704352.746  
G 7  21365063.580   112274161.164                                  
G 8  23600314.680   124020405.547    23600317.060    92612632.363  
G 9  20317078.480   106766923.375    20317079.440    79728549.543  
G16  22821851.520   119929627.313                                  
G27  23343064.920   122668569.293    23343066.520    91603149.676  
G30  23215621.240   121998844.688    23215623.640    91103029.707  
E 2  24252730.240   127448930.465    24252735.720    95172893.348  
E 3  23348965.660   122699613.359    23348971.620    91626327.441  
E 5  25711130.220   135112858.688    25711137.160   100895955.027  
E 8  23614477.680   124094900.434    23614482.520    92668262.535  
E24  27232445.820   143107451.324    27232464.300   106865965.383  
E25  23633500.820   124194852.793    23633506.920    92742901.660  
> 2021  1  5 21 12 22.0000000  0 14       0.000000000000
G 3  24281275.540   127598886.4022   24281279.460    95284874.7892 
G 4  21330548.580   112092767.137    21330551.880    83705645.832  
G 7  21364867.140   112273128.844                                  
G 8  23599799.440   124017697.926    23599801.820    92610610.445  
G 9  20316994.000   106766479.398    20316994.940    79728218.008  
G16  22822444.560   119932743.766                                  
G27  23342810.600   122667232.859    23342812.200    91602151.695  
G30  23215184.520   121996549.727    23215186.920    91101315.941  
E 2  24252384.100   127447111.461    24252389.580    95171535.004  
E 3  23348969.220   122699632.031    23348975.160    91626341.387  
E 5  25711553.340   135115082.285    25711560.300   100897615.508  
E 8  23614053.340   124092670.574    23614058.180    92666597.379  
E24  27232957.220   143110138.715    27232975.700   106867972.199  
E25  23633652.020   124195647.402    23633658.140    92743495.035  
> 2021  1  5 21 12 23.0000000  0 14       0.000000000000
G 3  24281986.500   127602622.4692   24281990.420    95287664.7112 
G 4  21330878.180   112094499.137    21330881.460    83706939.211  
G 7  21364670.720   112272096.730                                  
G 8  23599284.240   124014990.508    23599286.620    92608588.680  
G 9  20316909.580   106766035.855    20316910.540    79727886.793  
G16  22823037.680   119935860.598                                  
G27  23342556.380   122665896.961    23342557.980    91601154.113  
G30  23214747.820   121994254.930    23214750.240    91099602.297  
E 2  24252038.020   127445292.801    24252043.500    95170176.918  
E 3  23348972.840   122699651.051    23348978.780    91626355.594  
E 5  25711976.520   135117306.113    25711983.480   100899276.164  
E 8  23613629.040   124090440.859    23613633.880    92664932.340  
E24  27233468.620   143112826.176    27233487.100   106869979.074  
E25  23633803.300   124196442.367    23633809.420    92744088.680  
> 2021  1  5 21 12 24.0000000  0 14       0.000000000000
G 3  24282697.460   127606358.5552   24282701.380    95290454.6482 
G 4  21331207.840   112096231.535    21331211.120    83708232.887  
G 7  21364474.360   112271064.824                                  
G 8  23598769.060   124012283.289    23598771.440    92606567.059  
G 9  20316825.280   106765592.781    20316826.220    79727555.930  
G16  22823630.860   119938977.828                                  
G27  23342302.280   122664561.594    23342303.860    91600156.930  
G30  23214311.180   121991960.301    23214313.580    91097888.781  
E 2  24251692.000   127443474.461    24251697.480    95168819.070  
E 3  23348976.520   122699670.414    23348982.480    91626370.055  
E 5  25712399.760   135119530.184    25712406.700   100900936.996  
E 8  23613204.780   124088211.270    23613209.600    92663267.387  
E24  27233980.060   143115513.715    27233998.540   106871986.004  
E25  23633954.640   124197237.688    23633960.760    92744682.594  
> 2021  1  5 21 12 25.0000000  0 14       0.000000000000
G 3  24283408.420   127610094.6762   24283412.340    95293244.6092 
G 4  21331537.580   112097964.309    21331540.860    83709526.848  
G 7  21364278.040   112270033.141                                  
G 8  23598253.940   124009576.277    23598256.320    92604545.594  
G 9  20316741.040   106765150.145    20316742.000    79727225.395  
G16  22824224.120   119942095.445                                  
G27  23342048.260   122663226.770    23342049.860    91599160.148  
G30  23213874.560   121989665.832    23213876.960    91096175.387  
E 2  24251346.040   127441656.461    24251351.520    95167461.477  
E 3  23348980.260   122699690.113    23348986.220    91626384.770  
E 5  25712823.020   135121754.477    25712829.980   100902597.996  
E 8  23612780.520   124085981.816    23612785.340    92661602.543  
E24  27234491.480   143118201.324    27234509.960   106873992.988  
E25  23634106.060   124198033.371    23634112.160    92745276.777  
> 2021  1  5 21 12 26.0000000  0 14       0.000000000000
G 3  24284119.380   127613830.8132   24284123.300    95296034.5822 
G 4  21331867.380   112099697.477    21331870.680    83710821.102  
G 7  21364081.760   112269001.656                                  
G 8  23597738.860   124006869.473    23597741.220    92602524.285  
G 9  20316656.900   106764707.953    20316657.840    79726895.191  
G16  22824817.460   119945213.445                                  
G27  23341794.360   122661892.496    23341795.960    91598163.777  
G30  23213437.960   121987371.531    23213440.360    91094462.113  
E 2  24251000.160   127439838.793    24251005.640    95166104.133  
E 3  23348984.080   122699710.164    23348990.040    91626399.746  
E 5  25713246.340   135123979.008    25713253.280   100904259.172  
E 8  23612356.300   124083752.488    23612361.120    92659937.789  
E24  27235002.940   143120889.004    27235021.420   106876000.023  
E25  23634257.540   124198829.414    23634263.640    92745871.227  
> 2021  1  5 21 12 27.0000000  0 14       0.000000000000
G 3  24284830.340   127617566.9732   24284834.260    95298824.5742 
G 4  21332197.280   112101431.039    21332200.560    83712115.648  
G 7  21363885.500   112267970.379                                  
G 8  23597223.800   124004162.891    23597226.180    92600503.141  
G 9  20316572.840   106764266.215    20316573.780    79726565.324  
G16  22825410.880   119948331.836                                  
G27  23341540.560   122660558.723    23341542.140    91597167.785  
G30  23213001.400   121985077.395    23213003.800    91092748.965  
E 2  24250654.320   127438021.441    24250659.800    95164747.023  
E 3  23348987.960   122699730.543    23348993.900    91626414.969  
E 5  25713669.700   135126203.766    25713676.640   100905920.523  
E 8  23611932.100   124081523.309    23611936.920    92658273.145  
E24  27235514.400   143123576.746    27235532.880   106878007.105  
E25  23634409.080   124199625.809    23634415.200    92746465.941  
> 2021  1  5 21 12 28.0000000  0 14       0.000000000000
G 3  24285541.320   127621303.1412   24285545.240    95301614.5742 
G 4  21332527.240   112103164.996    21332530.520    83713410.488  
G 7  21363689.300   112266939.309                                  
G 8  23596708.800   124001456.543    23596711.180    92598482.172  
G 9  20316488.860   106763824.922    20316489.800    79726235.793  
G16  22826004.360   119951450.609                                  
G27  23341286.860   122659225.512    23341288.440    91596172.211  
G30  23212564.860   121982783.422    23212567.280    91091035.938  
E 2  24250308.560   127436204.438    24250314.040    95163390.172  
E 3  23348991.900   122699751.277    23348997.860    91626430.457  
E 5  25714093.100   135128428.766    25714100.040   100907582.051  
E 8  23611507.920   124079294.250    23611512.740    92656608.594  
E24  27236025.880   143126264.566    27236044.340   106880014.250  
E25  23634560.700   124200422.566    23634566.820    92747060.930  
> 2021  1  5 21 12 29.0000000  0 14       0.000000000000
G 3  24286252.300   127625039.3442   24286256.220    95304404.5982 
G 4  21332857.260   112104899.324    21332860.540    83714705.605  
G 7  21363493.140   112265908.438                                  
G 8  23596193.840   123998750.414    23596196.220    92596461.367  
G 9  20316404.960   106763384.066    20316405.920    79725906.586  
G16  22826597.920   119954569.770                                  
G27  23341033.260   122657892.828    23341034.840    91595177.027  
G30  23212128.360   121980489.602    23212130.780    91089323.027  
E 2  24249962.860   127434387.754    24249968.320    95162033.563  
E 3  23348995.920   122699772.348    23349001.860    91626446.195  
E 5  25714516.560   135130653.988    25714523.500   100909243.750  
E 8  23611083.760   124077065.316    23611088.580    92654944.137  
E24  27236537.360   143128952.469    27236555.840   106882021.449  
E25  23634712.380   124201219.680    23634718.500    92747656.176  
> 2021  1  5 21 12 30.0000000  0 14       0.000000000000
G 3  24286963.260   127628775.5272   24286967.180    95307194.6052 
G 4  21333187.380   112106634.066    21333190.660    83716001.035  
G 7  21363297.000   112264877.793                                  
G 8  23595678.920   123996044.480    23595681.280    92594440.707  
G 9  20316321.160   106762943.664    20316322.100    79725577.719  
G16  22827191.540   119957689.313                                  
G27  23340779.740   122656560.676    23340781.340    91594182.246  
G30  23211691.900   121978195.965    23211694.300    91087610.250  
E 2  24249617.220   127432571.414    24249622.680    95160677.211  
E 3  23349000.000   122699793.758    23349005.940    91626462.188  
E 5  25714940.040   135132879.445    25714946.980   100910905.617  
E 8  23610659.640   124074836.531    23610664.460    92653279.789  
E24  27237048.860   143131640.438    27237067.340   106884028.703  
E25  23634864.140   124202017.156    23634870.260    92748251.699  
> 2021  1  5 21 12 31.0000000  0 14       0.000000000000
G 3  24287674.260   127632511.7732   24287678.180    95309984.6602 
G 4  21333517.560   112108369.184    21333520.840    83717296.738  
G 7  21363100.920   112263847.340                                  
G 8  23595164.040   123993338.723    23595166.400    92592420.180  
G 9  20316237.440   106762503.711    20316238.380    79725249.180  
G16  22827785.240   119960809.242                                  
G27  23340526.360   122655229.070    23340527.940    91593187.863  
G30  23211255.460   121975902.477    23211257.860    91085897.582  
E 2  24249271.640   127430755.387    24249277.100    95159321.094  
E 3  23349004.140   122699815.520    23349010.080    91626478.441  
E 5  25715363.580   135135105.137    25715370.520   100912567.660  
E 8  23610235.540   124072607.879    23610240.360    92651615.539  
E24  27237560.380   143134328.484    27237578.860   106886036.012  
E25  23635015.960   124202814.992    23635022.080    92748847.492  
> 2021  1  5 21 12 32.0000000  0 14       0.000000000000
G 3  24288385.240   127636248.0472   24288389.160    95312774.7302 
G 4  21333847.820   112110104.691    21333851.100    83718592.734  
G 7  21362904.880   112262817.105                                  
G 8  23594649.180   123990633.203    23594651.560    92590399.824  
G 9  20316153.800   106762064.211    20316154.760    79724920.984  
G16  22828379.020   119963929.563                                  
G27  23340273.060   122653897.988    23340274.640    91592193.879  
G30  23210819.060   121973609.160    23210821.460    91084185.039  
E 2  24248926.120   127428939.695    24248931.600    95157965.223  
E 3  23349008.340   122699837.625    23349014.280    91626494.953  
E 5  25715787.160   135137331.059    25715794.100   100914229.879  
E 8  23609811.460   124070379.359    23609816.280    92649951.391  
E24  27238071.920   143137016.586    27238090.400   106888043.367  
E25  23635167.860   124203613.176    23635173.960    92749443.539  
> 2021  1  5 21 12 34.0000000  0 14       0.000000000000
G 3  24289807.240   127643720.6412   24289811.160    95318354.9102 
G 4  21334508.560   112113576.895    21334511.840    83721185.609  
G 7  21362512.900   112260757.254                                  
G 8  23593619.620   123985222.785    23593621.980    92586359.578  
G 9  20315986.800   106761186.535    20315987.740    79724265.574  
G16  22829566.800   119970171.352                                  
G27  23339766.780   122651237.445    23339768.360    91590207.109  
G30  23209946.340   121969023.012    23209948.740    91080760.320  
E 2  24248235.280   127425309.324    24248240.760    95155254.238  
E 3  23349016.940   122699882.848    23349022.880    91626528.727  
E 5  25716634.440   135141783.605    25716641.380   100917554.836  
E 8  23608963.400   124065922.719    23608968.220    92646623.383  
E24  27239095.020   143142393.027    27239113.500   106892058.242  
E25  23635471.840   124205210.633    23635477.940    92750636.449  
> 2021  1  5 21 12 35.0000000  0 14       0.000000000000
G 3  24290518.240   127647456.9652   24290522.160    95321145.0202 
G 4  21334839.040   112115313.578    21334842.320    83722482.484  
G 7  21362316.960   112259727.637                                  
G 8  23593104.900   123982517.898    23593107.260    92584339.699  
G 9  20315903.420   106760748.363    20315904.360    79723938.371  
G16  22830160.800   119973292.832                                  
G27  23339513.780   122649907.977    23339515.360    91589214.324  
G30  23209510.040   121966730.184    23209512.440    91079048.145  
E 2  24247889.960   127423494.629    24247895.420    95153899.109  
E 3  23349021.340   122699905.980    23349027.280    91626546.004  
E 5  25717058.160   135144010.219    25717065.100   100919217.570  
E 8  23608539.400   124063694.598    23608544.220    92644959.531  
E24  27239606.600   143145081.355    27239625.060   106894065.762  
E25  23635623.940   124206009.902    23635630.040    92751233.313  
> 2021  1  5 21 12 36.0000000  0 14       0.000000000000
G 3  24291229.240   127651193.3202   24291233.160    95323935.1562 
G 4  21335169.580   112117050.648    21335172.880    83723779.648  
G 7  21362121.080   112258698.223                                  
G 8  23592590.200   123979813.219    23592592.580    92582319.973  
G 9  20315820.120   106760310.645    20315821.060    79723611.504  
G16  22830754.880   119976414.691                                  
G27  23339260.900   122648579.059    23339262.480    91588221.949  
G30  23209073.760   121964437.504    23209076.160    91077336.078  
E 2  24247544.700   127421680.270    24247550.160    95152544.234  
E 3  23349025.820   122699929.453    23349031.760    91626563.539  
E 5  25717481.920   135146237.078    25717488.860   100920880.484  
E 8  23608115.420   124061466.613    23608120.240    92643295.785  
E24  27240118.180   143147769.758    27240136.660   106896073.340  
E25  23635776.100   124206809.523    23635782.200    92751830.438  
> 2021  1  5 21 12 37.0000000  0 14       0.000000000000
G 3  24291940.260   127654929.6952   24291944.160    95326725.3052 
G 4  21335500.220   112118788.117    21335503.500    83725077.105  
G 7  21361925.220   112257669.031                                  
G 8  23592075.560   123977108.754    23592077.920    92580300.402  
G 9  20315736.900   106759873.371    20315737.860    79723284.965  
G16  22831349.020   119979536.938                                  
G27  23339008.100   122647250.648    23339009.680    91587229.957  
G30  23208637.500   121962145.004    23208639.900    91075624.148  
E 2  24247199.500   127419866.238    24247204.960    95151189.605  
E 3  23349030.340   122699953.270    23349036.280    91626581.324  
E 5  25717905.720   135148464.172    25717912.660   100922543.578  
E 8  23607691.480   124059238.762    23607696.300    92641632.133  
E24  27240629.780   143150458.227    27240648.260   106898080.961  
E25  23635928.340   124207609.512    23635934.440    92752427.832  
> 2021  1  5 21 12 38.0000000  0 14       0.000000000000
G 3  24292651.260   127658666.0902   24292655.180    95329515.4652 
G 4  21335830.920   112120525.969    21335834.200    83726374.852  
G 7  21361729.420   112256640.035                                  
G 8  23591560.960   123974404.508    23591563.320    92578281.000  
G 9  20315653.780   106759436.547    20315654.720    79722958.770  
G16  22831943.240   119982659.563                                  
G27  23338755.420   122645922.801    23338757.000    91586238.383  
G30  23208201.280   121959852.676    23208203.680    91073912.348  
E 2  24246854.360   127418052.535    24246859.820    95149835.223  
E 3  23349034.940   122699977.418    23349040.880    91626599.363  
E 5  25718329.560   135150691.488    25718336.500   100924206.840  
E 8  23607267.560   124057011.043    23607272.380    92639968.582  
E24  27241141.400   143153146.766    27241159.860   106900088.641  
E25  23636080.640   124208409.848    23636086.740    92753025.492  
> 2021  1  5 21 12 39.0000000  0 14       0.000000000000
G 3  24293362.280   127662402.5122   24293366.200    95332305.6482 
G 4  21336161.700   112122264.215    21336164.980    83727672.891  
G 7  21361533.640   112255611.250                                  
G 8  23591046.400   123971700.480    23591048.760    92576261.762  
G 9  20315570.740   106759000.172    20315571.680    79722632.902  
G16  22832537.520   119985782.574                                  
G27  23338502.840   122644595.477    23338504.420    91585247.199  
G30  23207765.100   121957560.504    23207767.500    91072200.660  
E 2  24246509.280   127416239.160    24246514.760    95148481.086  
E 3  23349039.600   122700001.922    23349045.540    91626617.664  
E 5  25718753.460   135152919.039    25718760.380   100925870.273  
E 8  23606843.660   124054783.457    23606848.480    92638305.129  
E24  27241653.020   143155835.379    27241671.480   106902096.375  
E25  23636233.000   124209210.543    23636239.100    92753623.418  
> 2021  1  5 21 12 40.0000000  0 14       0.000000000000
G 3  24294073.300   127666138.9612   24294077.220    95335095.8522 
G 4  21336492.560   112124002.859    21336495.840    83728971.230  
G 7  21361337.900   112254582.664                                  
G 8  23590531.880   123968996.652    23590534.240    92574242.672  
G 9  20315487.780   106758564.254    20315488.740    79722307.379  
G16  22833131.880   119988905.977                                  
G27  23338250.360   122643268.684    23338251.940    91584256.414  
G30  23207328.940   121955268.500    23207331.340    91070489.098  
E 2  24246164.280   127414426.133    24246169.740    95147127.207  
E 3  23349044.340   122700026.770    23349050.260    91626636.223  
E 5  25719177.380   135155146.816    25719184.320   100927533.875  
E 8  23606419.800   124052556.016    23606424.600    92636641.785  
E24  27242164.660   143158524.066    27242183.120   106904104.164  
E25  23636385.440   124210011.605    23636391.540    92754221.617  
> 2021  1  5 21 12 41.0000000  0 14       0.000000000000
G 3  24294784.340   127669875.4142   24294788.260    95337886.0592 
G 4  21336823.480   112125741.891    21336826.760    83730269.855  
G 7  21361142.220   112253554.293                                  
G 8  23590017.400   123966293.020    23590019.760    92572223.727  
G 9  20315404.920   106758128.773    20315405.860    79721982.184  
G16  22833726.320   119992029.762                                  
G27  23337997.980   122641942.441    23337999.560    91583266.039  
G30  23206892.820   121952976.652    23206895.220    91068777.656  
E 2  24245819.340   127412613.422    24245824.800    95145773.563  
E 3  23349049.120   122700051.953    23349055.060    91626655.035  
E 5  25719601.360   135157374.832    25719608.300   100929197.656  
E 8  23605995.940   124050328.691    23606000.760    92634978.527  
E24  27242676.320   143161212.828    27242694.780   106906112.008  
E25  23636537.940   124210813.016    23636544.040    92754820.078  
> 2021  1  5 21 12 42.0000000  0 14       0.000000000000
G 3  24295495.360   127673611.8872   24295499.280    95340676.2812 
G 4  21337154.480   112127481.309    21337157.760    83731568.773  
G 7  21360946.560   112252526.129                                  
G 8  23589502.960   123963589.621    23589505.320    92570204.957  
G 9  20315322.140   106757693.754    20315323.080    79721657.332  
G16  22834320.840   119995153.941                                  
G27  23337745.720   122640616.730    23337747.300    91582276.059  
G30  23206456.720   121950684.973    23206459.120    91067066.340  
E 2  24245474.460   127410801.051    24245479.900    95144420.172  
E 3  23349053.980   122700077.492    23349059.920    91626674.109  
E 5  25720025.380   135159603.086    25720032.320   100930861.617  
E 8  23605572.120   124048101.520    23605576.940    92633315.383  
E24  27243187.980   143163901.648    27243206.440   106908119.895  
E25  23636690.520   124211614.797    23636696.620    92755418.813  
> 2021  1  5 21 12 43.0000000  0 14       0.000000000000
G 3  24296206.400   127677348.3872   24296210.320    95343466.5202 
G 4  21337485.560   112129221.109    21337488.840    83732867.973  
G 7  21360750.940   112251498.168                                  
G 8  23588988.540   123960886.418    23588990.920    92568186.332  
G 9  20315239.440   106757259.160    20315240.380    79721332.797  
G16  22834915.420   119998278.492                                  
G27  23337493.540   122639291.551    23337495.120    91581286.480  
G30  23206020.660   121948393.453    23206023.060    91065355.141  
E 2  24245129.620   127408989.008    24245135.080    95143067.027  
E 3  23349058.900   122700103.352    23349064.840    91626693.426  
E 5  25720449.460   135161831.559    25720456.380   100932525.738  
E 8  23605148.340   124045874.473    23605153.140    92631652.336  
E24  27243699.660   143166590.555    27243718.140   106910127.848  
E25  23636843.160   124212416.910    23636849.240    92756017.797  
> 2021  1  5 21 12 44.0000000  0 14       0.000000000000
G 3  24296917.420   127681084.8982   24296921.340    95346256.7732 
G 4  21337816.700   112130961.305    21337819.980    83734167.469  
G 7  21360555.380   112250470.426                                  
G 8  23588474.180   123958183.422    23588476.540    92566167.863  
G 9  20315156.820   106756825.027    20315157.780    79721008.605  
G16  22835510.080   120001403.430                                  
G27  23337241.460   122637966.906    23337243.040    91580297.297  
G30  23205584.640   121946102.102    23205587.040    91063644.066  
E 2  24244784.860   127407177.277    24244790.320    95141714.113  
E 3  23349063.900   122700129.566    23349069.820    91626713.004  
E 5  25720873.560   135164060.262    25720880.500   100934190.027  
E 8  23604724.560   124043647.551    23604729.380    92629989.375  
E24  27244211.360   143169279.531    27244229.820   106912135.852  
E25  23636995.860   124213219.395    23637001.960    92756617.055  
> 2021  1  5 21 12 45.0000000  0 14       0.000000000000
G 3  24297628.460   127684821.4382   24297632.400    95349047.0432 
G 4  21338147.920   112132701.887    21338151.200    83735467.258  
G 7  21360359.840   112249442.875                                  
G 8  23587959.860   123955480.656    23587962.220    92564149.566  
G 9  20315074.300   106756391.348    20315075.240    79720684.758  
G16  22836104.800   120004528.762                                  
G27  23336989.500   122636642.805    23336991.080    91579308.520  
G30  23205148.640   121943810.906    23205151.040    91061933.113  
E 2  24244440.180   127405365.895    24244445.620    95140361.457  
E 3  23349068.940   122700156.133    23349074.880    91626732.840  
E 5  25721297.720   135166289.211    25721304.660   100935854.504  
E 8  23604300.820   124041420.785    23604305.640    92628326.531  
E24  27244723.060   143171968.5742   27244741.540   106914143.9022 
E25  23637148.640   124214022.242    23637154.740    92757216.586  
> 2021  1  5 21 12 46.0000000  0 14       0.000000000000
G 3  24298339.520   127688558.0002   24298343.440    95351837.3322 
G 4  21338479.220   112134442.863    21338482.500    83736767.336  
G 7  21360164.340   112248415.535                                  
G 8  23587445.580   123952778.094    23587447.940    92562131.422  
G 9  20314991.860   106755958.109    20314992.800    79720361.234  
G16  22836699.600   120007654.473                                  
G27  23336737.640   122635319.238    23336739.200    91578320.145  
G30  23204712.660   121941519.887    23204715.060    91060222.285  
E 2  24244095.540   127403554.848    24244101.000    95139009.055  
E 3  23349074.060   122700183.031    23349080.000    91626752.926  
E 5  25721721.920   135168518.387    25721728.840   100937519.145  
E 8  23603877.120   124039194.141    23603881.920    92626663.781  
E24  27245234.800   143174657.6912   27245253.260   106916152.0082 
E25  23637301.480   124214825.441    23637307.580    92757816.379  
> 2021  1  5 21 12 47.0000000  0 14       0.000000000000
G 3  24299050.560   127692294.5742   24299054.480    95354627.6292 
G 4  21338810.600   112136184.234    21338813.880    83738067.711  
G 7  21359968.880   112247388.406                                  
G 8  23586931.340   123950075.738    23586933.700    92560113.430  
G 9  20314909.500   106755525.320    20314910.440    79720038.047  
G16  22837294.480   120010780.563                                  
G27  23336485.860   122633996.223    23336487.440    91577332.180  
G30  23204276.740   121939229.027    23204279.120    91058511.582  
E 2  24243750.980   127401744.137    24243756.440    95137656.902  
E 3  23349079.260   122700210.277    23349085.180    91626773.273  
E 5  25722146.160   135170747.797    25722153.100   100939183.961  
E 8  23603453.420   124036967.633    23603458.220    92625001.129  
E24  27245746.520   143177346.8712   27245765.000   106918160.1602 
E25  23637454.400   124215629.000    23637460.480    92758416.438  
> 2021  1  5 21 12 48.0000000  0 14       0.000000000000
G 3  24299761.620   127696031.1722   24299765.540    95357417.9452 
G 4  21339142.040   112137925.984    21339145.320    83739368.367  
G 7  21359773.460   112246361.477                                  
G 8  23586417.140   123947373.602    23586419.500    92558095.602  
G 9  20314827.220   106755092.977    20314828.180    79719715.191  
G16  22837889.440   120013907.031                                  
G27  23336234.200   122632673.715    23336235.780    91576344.594  
G30  23203840.820   121936938.332    23203843.220    91056800.996  
E 2  24243406.460   127399933.738    24243411.920    95136304.980  
E 3  23349084.500   122700237.863    23349090.440    91626793.871  
E 5  25722570.440   135172977.434    25722577.380   100940848.949  
E 8  23603029.760   124034741.258    23603034.560    92623338.574  
E24  27246258.280   143180036.1212   27246276.740   106920168.3632 
E25  23637607.380   124216432.918    23637613.460    92759016.766  
> 2021  1  5 21 12 49.0000000  0 14       0.000000000000
G 3  24300472.660   127699767.7852   24300476.600    95360208.2702 
G 4  21339473.560   112139668.133    21339476.840    83740669.320  
G 7  21359578.080   112245334.758                                  
G 8  23585902.980   123944671.688    23585905.340    92556077.941  
G 9  20314745.040   106754661.078    20314745.980    79719392.672  
G16  22838484.460   120017033.895                                  
G27  23335982.640   122631351.758    23335984.220    91575357.418  
G30  23203404.960   121934647.797    23203407.340    91055090.535  
E 2  24243062.020   127398123.680    24243067.480    95134953.313  
E 3  23349089.820   122700265.789    23349095.740    91626814.727  
E 5  25722994.780   135175207.293    25723001.700   100942514.105  
E 8  23602606.120   124032515.023    23602610.920    92621676.129  
E24  27246770.040   143182725.4572   27246788.500   106922176.6372 
E25  23637760.420   124217237.188    23637766.520    92759617.355  
> 2021  1  5 21 12 50.0000000  0 14       0.000000000000
G 3  24301183.720   127703504.4222   24301187.660    95362998.6132 
G 4  21339805.140   112141410.668    21339808.440    83741970.566  
G 7  21359382.740   112244308.258                                  
G 8  23585388.860   123941970.000    23585391.220    92554060.449  
G 9  20314662.940   106754229.637    20314663.880    79719070.492  
G16  22839079.560   120020161.145                                  
G27  23335731.180   122630030.348    23335732.760    91574370.652  
G30  23202969.100   121932357.434    23202971.500    91053380.195  
E 2  24242717.640   127396313.953    24242723.100    95133601.895  
E 3  23349095.200   122700294.070    23349101.120    91626835.844  
E 5  25723419.160   135177437.402    25723426.080   100944179.445  
E 8  23602182.500   124030288.918    23602187.300    92620013.777  
E24  27247281.820   143185414.8552   27247300.280   106924184.9492 
E25  23637913.540   124218041.820    23637919.640    92760218.219  
> 2021  1  5 21 12 51.0000000  0 14       0.000000000000
G 3  24301894.800   127707241.0782   24301898.720    95365788.9732 
G 4  21340136.820   112143153.598    21340140.100    83743272.102  
G 7  21359187.440   112243281.945                                  
G 8  23584874.780   123939268.508    23584877.140    92552043.102  
G 9  20314580.920   106753798.637    20314581.860    79718748.641  
G16  22839674.720   120023288.766                                  
G27  23335479.820   122628709.457    23335481.400    91573384.273  
G30  23202533.300   121930067.234    23202535.700    91051669.984  
E 2  24242373.320   127394504.566    24242378.780    95132250.730  
E 3  23349100.640   122700322.680    23349106.580    91626857.211  
E 5  25723843.580   135179667.734    25723850.500   100945844.949  
E 8  23601758.920   124028062.945    23601763.720    92618351.527  
E24  27247793.600   143188104.3202   27247812.080   106926193.3162 
E25  23638066.720   124218846.809    23638072.820    92760819.348  
> 2021  1  5 21 12 52.0000000  0 14       0.000000000000
G 3  24302605.880   127710977.617    24302609.820    95368579.199  
G 4  21340468.560   112144896.863    21340471.860    83744573.902  
G 7  21358992.180   112242255.922                                  
G 8  23584360.760   123936567.215    23584363.100    92550025.934  
G 9  20314499.000   106753368.055    20314499.940    79718427.121  
G16  22840269.940   120026416.867                                  
G27  23335228.560   122627389.188    23335230.120    91572398.445  
G30  23202097.500   121927777.250    23202099.880    91049960.004  
E 2  24242029.080   127392695.531    24242034.520    95130899.848  
E 3  23349106.160   122700351.621    23349112.100    91626878.813  
E 5  25724268.040   135181898.305    25724274.960   100947510.637  
E 8  23601335.360   124025837.070    23601340.160    92616689.332  
E24  27248305.400   143190793.863    27248323.880   106928201.742  
E25  23638219.960   124219652.176    23638226.060    92761420.773  
> 2021  1  5 21 12 53.0000000  0 14       0.000000000000
G 3  24303316.960   127714714.309    24303320.900    95371369.582  
G 4  21340800.380   112146640.582    21340803.680    83745876.027  
G 7  21358796.960   112241230.020                                  
G 8  23583846.760   123933866.145    23583849.100    92548008.906  
G 9  20314417.140   106752937.938    20314418.080    79718105.930  
G16  22840865.260   120029545.266                                  
G27  23334977.400   122626069.379    23334978.960    91571412.871  
G30  23201661.760   121925487.363    23201664.140    91048250.023  
E 2  24241684.880   127390886.801    24241690.340    95129549.176  
E 3  23349111.740   122700380.926    23349117.660    91626900.695  
E 5  25724692.540   135184129.090    25724699.480   100949176.484  
E 8  23600911.820   124023611.371    23600916.620    92615027.285  
E24  27248817.220   143193483.469    27248835.700   106930210.211  
E25  23638373.300   124220457.879    23638379.380    92762022.434  
> 2021  1  5 21 12 54.0000000  0 14       0.000000000000
G 3  24304028.040   127718451.020    24304031.960    95374159.984  
G 4  21341132.280   112148384.676    21341135.560    83747178.434  
G 7  21358601.780   112240204.344                                  
G 8  23583332.800   123931165.281    23583335.140    92545992.027  
G 9  20314335.380   106752508.281    20314336.340    79717785.082  
G16  22841460.640   120032674.043                                  
G27  23334726.360   122624750.121    23334727.920    91570427.711  
G30  23201226.040   121923197.648    23201228.420    91046540.172  
E 2  24241340.760   127389078.391    24241346.200    95128198.738  
E 3  23349117.380   122700410.563    23349123.320    91626922.828  
E 5  25725117.100   135186360.121    25725124.040   100950842.508  
E 8  23600488.300   124021385.801    23600493.120    92613365.332  
E24  27249329.060   143196173.156    27249347.520   106932218.742  
E25  23638526.680   124221263.930    23638532.780    92762624.355  
> 2021  1  5 21 12 55.0000000  0 14       0.000000000000
G 3  24304739.100   127722187.750    24304743.040    95376950.395  
G 4  21341464.240   112150129.148    21341467.520    83748481.121  
G 7  21358406.640   112239178.863                                  
G 8  23582818.880   123928464.648    23582821.240    92543975.316  
G 9  20314253.720   106752079.074    20314254.660    79717464.566  
G16  22842056.120   120035803.211                                  
G27  23334475.420   122623431.387    23334476.980    91569442.941  
G30  23200790.340   121920908.094    23200792.720    91044830.438  
E 2  24240996.700   127387270.313    24241002.140    95126848.551  
E 3  23349123.080   122700440.543    23349129.020    91626945.215  
E 5  25725541.700   135188591.371    25725548.620   100952508.703  
E 8  23600064.820   124019160.352    23600069.620    92611703.473  
E24  27249840.900   143198862.895    27249859.380   106934227.313  
E25  23638680.140   124222070.344    23638686.220    92763226.547  
> 2021  1  5 21 12 56.0000000  0 14       0.000000000000
G 3  24305450.200   127725924.504    24305454.140    95379740.816  
G 4  21341796.280   112151874.035    21341799.560    83749784.117  
G 7  21358211.540   112238153.594                                  
G 8  23582305.020   123925764.230    23582307.360    92541958.770  
G 9  20314172.120   106751650.324    20314173.060    79717144.391  
G16  22842651.640   120038932.754                                  
G27  23334224.580   122622113.203    23334226.140    91568458.578  
G30  23200354.700   121918618.707    23200357.080    91043120.828  
E 2  24240652.700   127385462.566    24240658.140    95125498.609  
E 3  23349128.860   122700470.871    23349134.800    91626967.863  
E 5  25725966.340   135190822.863    25725973.260   100954175.074  
E 8  23599641.360   124016935.055    23599646.180    92610041.727  
E24  27250352.760   143201552.715    27250371.240   106936235.945  
E25  23638833.660   124222877.113    23638839.760    92763829.004  
> 2021  1  5 21 12 57.0000000  0 14       0.000000000000
G 3  24306161.280   127729661.285    24306165.220    95382531.266  
G 4  21342128.400   112153619.301    21342131.680    83751087.395  
G 7  21358016.460   112237128.523                                  
G 8  23581791.180   123923064.035    23581793.540    92539942.387  
G 9  20314090.620   106751222.016    20314091.560    79716824.547  
G16  22843247.260   120042062.691                                  
G27  23333973.840   122620795.539    23333975.380    91567474.605  
G30  23199919.060   121916329.480    23199921.440    91041411.336  
E 2  24240308.760   127383655.164    24240314.200    95124148.926  
E 3  23349134.700   122700501.539    23349140.620    91626990.766  
E 5  25726391.020   135193054.586    25726397.960   100955841.621  
E 8  23599217.920   124014709.879    23599222.740    92608380.070  
E24  27250864.640   143204242.602    27250883.100   106938244.625  
E25  23638987.260   124223684.230    23638993.340    92764431.723  
> 2021  1  5 21 12 58.0000000  0 14       0.000000000000
G 3  24306872.360   127733398.074    24306876.300    95385321.719  
G 4  21342460.580   112155364.953    21342463.880    83752390.965  
G 7  21357821.440   112236103.668                                  
G 8  23581277.400   123920364.055    23581279.740    92537926.168  
G 9  20314009.200   106750794.160    20314010.140    79716505.039  
G16  22843842.940   120045193.004                                  
G27  23333723.200   122619478.445    23333724.760    91566491.059  
G30  23199483.480   121914040.418    23199485.860    91039701.969  
E 2  24239964.880   127381848.090    24239970.340    95122799.488  
E 3  23349140.600   122700532.559    23349146.540    91627013.930  
E 5  25726815.740   135195286.535    25726822.680   100957508.332  
E 8  23598794.520   124012484.852    23598799.320    92606718.523  
E24  27251376.520   143206932.563    27251394.980   106940253.359  
E25  23639140.920   124224491.715    23639147.000    92765034.715  
> 2021  1  5 21 12 59.0000000  0 14       0.000000000000
G 3  24307583.460   127737134.898    24307587.400    95388112.199  
G 4  21342792.840   112157111.000    21342796.140    83753694.824  
G 7  21357626.460   112235079.012                                  
G 8  23580763.640   123917664.270    23580765.980    92535910.094  
G 9  20313927.860   106750366.746    20313928.820    79716185.863  
G16  22844438.680   120048323.711                                  
G27  23333472.660   122618161.863    23333474.220    91565507.891  
G30  23199047.920   121911751.523    23199050.300    91037992.727  
E 2  24239621.060   127380041.336    24239626.520    95121450.289  
E 3  23349146.560   122700563.910    23349152.500    91627037.340  
E 5  25727240.520   135197518.715    25727247.460   100959175.219  
E 8  23598371.140   124010259.961    23598375.940    92605057.082  
E24  27251888.420   143209622.598    27251906.880   106942262.152  
E25  23639294.640   124225299.559    23639300.740    92765637.973  
> 2021  1  5 21 13  0.0000000  0 14       0.000000000000
G 3  24308294.560   127740871.715    24308298.500    95390902.676  
G 4  21343125.180   112158857.445    21343128.480    83754998.984  
G 7  21357431.520   112234054.563                                  
G 8  23580249.920   123914964.707    23580252.280    92533894.184  
G 9  20313846.620   106749939.781    20313847.560    79715867.023  
G16  22845034.520   120051454.801                                  
G27  23333222.220   122616845.828    23333223.780    91564525.137  
G30  23198612.380   121909462.785    23198614.760    91036283.602  
E 2  24239277.320   127378234.926    24239282.780    95120101.344  
E 3  23349152.600   122700595.609    23349158.540    91627061.012  
E 5  25727665.340   135199751.125    25727672.280   100960842.281  
E 8  23597947.780   124008035.191    23597952.580    92603395.727  
E24  27252400.320   143212312.684    27252418.800   106944270.980  
E25  23639448.440   124226107.750    23639454.540    92766241.492  
> 2021  1  5 21 13  1.0000000  0 14       0.000000000000
G 3  24309005.660   127744608.578    24309009.600    95393693.184  
G 4  21343457.600   112160604.273    21343460.880    83756303.430  
G 7  21357236.600   112233030.328                                  
G 8  23579736.260   123912265.355    23579738.600    92531878.430  
G 9  20313765.460   106749513.258    20313766.400    79715548.512  
G16  22845630.420   120054586.273                                  
G27  23332971.900   122615530.320    23332973.460    91563542.773  
G30  23198176.880   121907174.219    23198179.260    91034574.605  
E 2  24238933.640   127376428.844    24238939.080    95118752.652  
E 3  23349158.700   122700627.656    23349164.640    91627084.945  
E 5  25728090.200   135201983.773    25728097.140   100962509.516  
E 8  23597524.440   124005810.555    23597529.260    92601734.473  
E24  27252912.260   143215002.867    27252930.720   106946279.883  
E25  23639602.300   124226916.301    23639608.400    92766845.281  
> 2021  1  5 21 13  2.0000000  0 14       0.000000000000
G 3  24309716.760   127748345.453    24309720.720    95396483.703  
G 4  21343790.080   112162351.492    21343793.380    83757608.164  
G 7  21357041.740   112232006.289                                  
G 8  23579222.620   123909566.223    23579224.980    92529862.840  
G 9  20313684.380   106749087.188    20313685.320    79715230.340  
G16  22846226.380   120057718.129                                  
G27  23332721.660   122614215.352    23332723.220    91562560.813  
G30  23197741.400   121904885.813    23197743.780    91032865.727  
E 2  24238590.020   127374623.082    24238595.460    95117404.191  
E 3  23349164.860   122700660.035    23349170.800    91627109.121  
E 5  25728515.100   135204216.648    25728522.040   100964176.922  
E 8  23597101.140   124003586.066    23597105.960    92600073.328  
E24  27253424.200   143217693.102    27253442.660   106948288.824  
E25  23639756.240   124227725.207    23639762.320    92767449.332  
> 2021  1  5 21 13  3.0000000  0 14       0.000000000000
G 3  24310427.880   127752082.348    24310431.820    95399274.234  
G 4  21344122.640   112164099.094    21344125.940    83758913.191  
G 7  21356846.900   112230982.469                                  
G 8  23578709.040   123906867.305    23578711.400    92527847.414  
G 9  20313603.380   106748661.582    20313604.340    79714912.512  
G16  22846822.420   120060850.359                                  
G27  23332471.540   122612900.934    23332473.100    91561579.266  
G30  23197305.960   121902597.570    23197308.360    91031156.973  
E 2  24238246.460   127372817.672    24238251.900    95116055.996  
E 3  23349171.100   122700692.770    23349177.040    91627133.566  
E 5  25728940.060   135206449.758    25728946.980   100965844.500  
E 8  23596677.860   124001361.707    23596682.680    92598412.281  
E24  27253936.140   143220383.418    27253954.620   106950297.824  
E25  23639910.240   124228534.480    23639916.320    92768053.660  
> 2021  1  5 21 13  5.0000000  0 14       0.000000000000
G 3  24311850.100   127759556.168    24311854.040    95404855.324  
G 4  21344787.980   112167595.488    21344791.280    83761524.129  
G 7  21356457.380   112228935.434                                  
G 8  23577681.980   123901470.137    23577684.340    92523817.059  
G 9  20313441.660   106747811.695    20313442.600    79714277.855  
G16  22848014.740   120067115.980                                  
G27  23331971.580   122610273.691    23331973.140    91559617.359  
G30  23196435.180   121898021.582    23196437.560    91027739.836  
E 2  24237559.520   127369207.824    24237564.980    95113360.332  
E 3  23349183.760   122700759.270    23349189.680    91627183.227  
E 5  25729790.080   135210916.680    25729797.020   100969180.188  
E 8  23595831.380   123996913.410    23595836.180    92595090.504  
E24  27254960.080   143225764.254    27254978.560   106954315.980  
E25  23640218.440   124230154.094    23640224.540    92769263.109  
> 2021  1  5 21 13  6.0000000  0 14       0.000000000000
G 3  24312561.220   127763293.133    24312565.180    95407645.910  
G 4  21345120.760   112169344.266    21345124.060    83762830.031  
G 7  21356262.660   112227912.223                                  
G 8  23577168.520   123898771.863    23577170.880    92521802.117  
G 9  20313360.920   106747387.426    20313361.880    79713961.027  
G16  22848611.000   120070249.371                                  
G27  23331721.760   122608960.883    23331723.340    91558637.016  
G30  23195999.840   121895733.832    23196002.220    91026031.449  
E 2  24237216.160   127367403.391    24237221.600    95112012.867  
E 3  23349190.180   122700793.031    23349196.120    91627208.438  
E 5  25730215.160   135213150.488    25730222.100   100970848.289  
E 8  23595408.180   123994689.453    23595412.980    92593429.758  
E24  27255472.080   143228454.777    27255490.560   106956325.133  
E25  23640372.640   124230964.430    23640378.740    92769868.230  
> 2021  1  5 21 13  7.0000000  0 14       0.000000000000
G 3  24313272.340   127767030.090    24313276.300    95410436.496  
G 4  21345453.620   112171093.434    21345456.920    83764136.227  
G 7  21356068.000   112226889.223                                  
G 8  23576655.100   123896073.816    23576657.460    92519787.340  
G 9  20313280.260   106746963.590    20313281.220    79713644.527  
G16  22849207.340   120073383.137                                  
G27  23331472.040   122607648.617    23331473.620    91557657.078  
G30  23195564.520   121893446.250    23195566.920    91024323.191  
E 2  24236872.860   127365599.301    24236878.300    95110665.656  
E 3  23349196.680   122700827.137    23349202.600    91627233.902  
E 5  25730640.280   135215384.520    25730647.220   100972516.559  
E 8  23594985.000   123992465.641    23594989.800    92591769.117  
E24  27255984.080   143231145.371    27256002.560   106958334.340  
E25  23640526.920   124231775.117    23640533.000    92770473.617  
> 2021  1  5 21 13  8.0000000  0 14       0.000000000000
G 3  24313983.460   127770767.070    24313987.420    95413227.094  
G 4  21345786.540   112172843.000    21345789.840    83765442.719  
G 7  21355873.360   112225866.434                                  
G 8  23576141.720   123893375.980    23576144.080    92517772.723  
G 9  20313199.700   106746540.215    20313200.660    79713328.371  
G16  22849803.760   120076517.293                                  
G27  23331222.440   122606336.887    23331224.000    91556677.539  
G30  23195129.240   121891158.832    23195131.640    91022615.055  
E 2  24236529.600   127363795.547    24236535.060    95109318.691  
E 3  23349203.220   122700861.586    23349209.160    91627259.625  
E 5  25731065.460   135217618.797    25731072.400   100974185.004  
E 8  23594561.840   123990241.965    23594566.660    92590108.578  
E24  27256496.100   143233836.043    27256514.580   106960343.602  
E25  23640681.260   124232586.176    23640687.340    92771079.270  
> 2021  1  5 21 13  9.0000000  0 14       0.000000000000
G 3  24314694.580   127774504.063    24314698.540    95416017.703  
G 4  21346119.560   112174592.941    21346122.840    83766749.492  
G 7  21355678.760   112224843.848                                  
G 8  23575628.380   123890678.363    23575630.740    92515758.273  
G 9  20313119.220   106746117.289    20313120.180    79713012.551  
G16  22850400.240   120079651.828                                  
G27  23330972.920   122605025.699    23330974.480    91555698.406  
G30  23194694.000   121888871.582    23194696.380    91020907.043  
E 2  24236186.420   127361992.113    24236191.880    95107971.969  
E 3  23349209.840   122700896.387    23349215.780    91627285.609  
E 5  25731490.680   135219853.301    25731497.620   100975853.625  
E 8  23594138.720   123988018.418    23594143.540    92588448.133  
E24  27257008.140   143236526.781    27257026.600   106962352.914  
E25  23640835.660   124233397.590    23640841.760    92771685.191  
> 2021  1  5 21 13 10.0000000  0 14       0.000000000000
G 3  24315405.720   127778241.082    24315409.680    95418808.332  
G 4  21346452.640   112176343.281    21346455.920    83768056.566  
G 7  21355484.220   112223821.477                                  
G 8  23575115.080   123887980.969    23575117.440    92513743.984  
G 9  20313038.820   106745694.816    20313039.780    79712697.066  
G16  22850996.780   120082786.742                                  
G27  23330723.520   122603715.039    23330725.080    91554719.668  
G30  23194258.780   121886584.488    23194261.160    91019199.148  
E 2  24235843.300   127360189.020    24235848.760    95106625.500  
E 3  23349216.540   122700931.523    23349222.480    91627311.844  
E 5  25731915.920   135222088.031    25731922.860   100977522.410  
E 8  23593715.620   123985795.016    23593720.440    92586787.797  
E24  27257520.180   143239217.586    27257538.660   106964362.281  
E25  23640990.140   124234209.352    23640996.240    92772291.375  
> 2021  1  5 21 13 11.0000000  0 14       0.000000000000
G 3  24316116.860   127781978.109    24316120.820    95421598.969  
G 4  21346785.780   112178094.008    21346789.080    83769363.926  
G 7  21355289.700   112222799.301                                  
G 8  23574601.820   123885283.789    23574604.180    92511729.863  
G 9  20312958.520   106745272.785    20312959.480    79712381.910  
G16  22851593.420   120085922.031                                  
G27  23330474.200   122602404.934    23330475.780    91553741.344  
G30  23193823.580   121884297.547    23193825.960    91017491.371  
E 2  24235500.260   127358386.254    24235505.700    95105279.273  
E 3  23349223.280   122700967.008    23349229.220    91627338.340  
E 5  25732341.220   135224322.996    25732348.180   100979191.375  
E 8  23593292.540   123983571.750    23593297.360    92585127.563  
E24  27258032.240   143241908.469    27258050.720   106966371.699  
E25  23641144.680   124235021.477    23641150.780    92772897.828  
> 2021  1  5 21 13 12.0000000  0 14       0.000000000000
G 3  24316828.000   127785715.145    24316831.940    95424389.609  
G 4  21347119.000   112179845.113    21347122.300    83770671.566  
G 7  21355095.220   112221777.324                                  
G 8  23574088.600   123882586.816    23574090.960    92509715.887  
G 9  20312878.300   106744851.207    20312879.240    79712067.094  
G16  22852190.120   120089057.703                                  
G27  23330225.000   122601095.348    23330226.560    91552763.406  
G30  23193388.420   121882010.781    23193390.820    91015783.719  
E 2  24235157.260   127356583.816    24235162.720    95103933.293  
E 3  23349230.100   122701002.840    23349236.040    91627365.090  
E 5  25732766.580   135226558.195    25732773.520   100980860.508  
E 8  23592869.500   123981348.609    23592874.300    92583467.422  
E24  27258544.300   143244599.414    27258562.780   106968381.168  
E25  23641299.280   124235833.953    23641305.380    92773504.543  
> 2021  1  5 21 13 13.0000000  0 14       0.000000000000
G 3  24317539.140   127789452.195    24317543.080    95427180.262  
G 4  21347452.300   112181596.617    21347455.600    83771979.508  
G 7  21354900.800   112220755.570                                  
G 8  23573575.440   123879890.074    23573577.780    92507702.090  
G 9  20312798.160   106744430.082    20312799.120    79711752.621  
G16  22852786.880   120092193.766                                  
G27  23329975.900   122599786.324    23329977.460    91551785.887  
G30  23192953.300   121879724.180    23192955.680    91014076.191  
E 2  24234814.340   127354781.715    24234819.780    95102587.566  
E 3  23349236.980   122701039.008    23349242.920    91627392.098  
E 5  25733191.960   135228793.629    25733198.900   100982529.824  
E 8  23592446.480   123979125.613    23592451.280    92581807.387  
E24  27259056.380   143247290.426    27259074.880   106970390.680  
E25  23641453.960   124236646.793    23641460.060    92774111.531  
> 2021  1  5 21 13 14.0000000  0 14       0.000000000000
G 3  24318250.280   127793189.266    24318254.240    95429970.930  
G 4  21347785.680   112183348.516    21347788.980    83773287.742  
G 7  21354706.400   112219734.012                                  
G 8  23573062.300   123877193.543    23573064.660    92505688.445  
G 9  20312718.100   106744009.406    20312719.060    79711438.477  
G16  22853383.740   120095330.207                                  
G27  23329726.900   122598477.809    23329728.460    91550808.750  
G30  23192518.200   121877437.750    23192520.600    91012368.793  
E 2  24234471.460   127352979.934    24234476.920    95101242.074  
E 3  23349243.940   122701075.520    23349249.880    91627419.359  
E 5  25733617.400   135231029.277    25733624.340   100984199.297  
E 8  23592023.480   123976902.742    23592028.280    92580147.449  
E24  27259568.480   143249981.504    27259586.960   106972400.250  
E25  23641608.700   124237459.973    23641614.800    92774718.773  
> 2021  1  5 21 13 15.0000000  0 14       0.000000000000
G 3  24318961.420   127796926.371    24318965.380    95432761.621  
G 4  21348119.140   112185100.805    21348122.440    83774596.270  
G 7  21354512.040   112218712.660                                  
G 8  23572549.200   123874497.234    23572551.560    92503674.969  
G 9  20312638.140   106743589.172    20312639.100    79711124.668  
G16  22853980.660   120098467.031                                  
G27  23329478.000   122597169.852    23329479.560    91549832.031  
G30  23192083.140   121875151.477    23192085.520    91010661.516  
E 2  24234128.660   127351178.500    24234134.120    95099896.848  
E 3  23349250.960   122701112.383    23349256.900    91627446.879  
E 5  25734042.860   135233265.172    25734049.820   100985868.953  
E 8  23591600.500   123974680.016    23591605.320    92578487.617  
E24  27260080.600   143252672.664    27260099.080   106974409.875  
E25  23641763.520   124238273.535    23641769.620    92775326.297  
> 2021  1  5 21 13 16.0000000  0 14       0.000000000000
G 3  24319672.580   127800663.500    24319676.540    95435552.336  
G 4  21348452.660   112186853.484    21348455.960    83775905.090  
G 7  21354317.720   112217691.520                                  
G 8  23572036.160   123871801.125    23572038.500    92501661.645  
G 9  20312558.260   106743169.395    20312559.200    79710811.195  
G16  22854577.640   120101604.234                                  
G27  23329229.220   122595862.438    23329230.780    91548855.715  
G30  23191648.100   121872865.348    23191650.500    91008954.340  
E 2  24233785.920   127349377.391    24233791.380    95098551.859  
E 3  23349258.040   122701149.582    23349263.980    91627474.656  
E 5  25734468.400   135235501.293    25734475.340   100987538.777  
E 8  23591177.560   123972457.422    23591182.380    92576827.887  
E24  27260592.720   143255363.887    27260611.200   106976419.551  
E25  23641918.400   124239087.434    23641924.500    92775934.074  
> 2021  1  5 21 13 17.0000000  0 14       0.000000000000
G 3  24320383.740   127804400.648    24320387.700    95438343.059  
G 4  21348786.260   112188606.555    21348789.560    83777214.199  
G 7  21354123.440   112216670.590                                  
G 8  23571523.140   123869105.258    23571525.500    92499648.496  
G 9  20312478.460   106742750.059    20312479.420    79710498.059  
G16  22855174.700   120104741.816                                  
G27  23328980.520   122594555.566    23328982.080    91547879.805  
G30  23191213.100   121870579.402    23191215.480    91007247.305  
E 2  24233443.240   127347576.617    24233448.700    95097207.121  
E 3  23349265.180   122701187.129    23349271.120    91627502.691  
E 5  25734893.960   135237737.648    25734900.900   100989208.781  
E 8  23590754.640   123970234.969    23590759.460    92575168.258  
E24  27261104.860   143258055.180    27261123.340   106978429.277  
E25  23642073.360   124239901.699    23642079.460    92776542.125  
> 2021  1  5 21 13 18.0000000  0 14       0.000000000000
G 3  24321094.880   127808137.793    24321098.840    95441133.781  
G 4  21349119.940   112190360.016    21349123.220    83778523.602  
G 7  21353929.220   112215649.855                                  
G 8  23571010.180   123866409.598    23571012.520    92497635.508  
G 9  20312398.760   106742331.180    20312399.700    79710185.258  
G16  22855771.840   120107879.785                                  
G27  23328731.940   122593249.223    23328733.500    91546904.289  
G30  23190778.140   121868293.621    23190780.520    91005540.391  
E 2  24233100.640   127345776.176    24233106.100    95095862.633  
E 3  23349272.380   122701225.016    23349278.340    91627530.980  
E 5  25735319.560   135239974.238    25735326.520   100990878.953  
E 8  23590331.740   123968012.656    23590336.560    92573508.738  
E24  27261617.000   143260746.543    27261635.500   106980439.055  
E25  23642228.380   124240716.313    23642234.480    92777150.438  
> 2021  1  5 21 13 19.0000000  0 14       0.000000000000
G 3  24321806.060   127811874.973    24321810.020    95443924.531  
G 4  21349453.680   112192113.859    21349456.980    83779833.289  
G 7  21353735.020   112214629.340                                  
G 8  23570497.240   123863714.137    23570499.600    92495622.664  
G 9  20312319.120   106741912.742    20312320.080    79709872.789  
G16  22856369.060   120111018.133                                  
G27  23328483.440   122591943.434    23328485.000    91545929.188  
G30  23190343.200   121866008.004    23190345.580    91003833.598  
E 2  24232758.080   127343976.066    24232763.540    95094518.395  
E 3  23349279.660   122701263.254    23349285.600    91627559.531  
E 5  25735745.220   135242211.059    25735752.180   100992549.305  
E 8  23589908.880   123965790.473    23589913.700    92571849.313  
E24  27262129.180   143263437.984    27262147.660   106982448.895  
E25  23642383.460   124241531.285    23642389.560    92777759.020  
> 2021  1  5 21 13 20.0000000  0 14       0.000000000000
G 3  24322517.220   127815612.156    24322521.180    95446715.285  
G 4  21349787.500   112193868.094    21349790.800    83781143.270  
G 7  21353540.860   112213609.023                                  
G 8  23569984.360   123861018.898    23569986.700    92493609.988  
G 9  20312239.580   106741494.758    20312240.540    79709560.656  
G16  22856966.320   120114156.848                                  
G27  23328235.060   122590638.172    23328236.620    91544954.480  
G30  23189908.300   121863722.555    23189910.680    91002126.934  
E 2  24232415.600   127342176.281    24232421.060    95093174.402  
E 3  23349287.000   122701301.824    23349292.940    91627588.336  
E 5  25736170.920   135244448.102    25736177.860   100994219.820  
E 8  23589486.040   123963568.426    23589490.860    92570189.992  
E24  27262641.340   143266129.480    27262659.840   106984458.777  
E25  23642538.600   124242346.609    23642544.700    92778367.867  
> 2021  1  5 21 13 21.0000000  0 14       0.000000000000
G 3  24323228.380   127819349.363    24323232.340    95449506.055  
G 4  21350121.400   112195622.734    21350124.700    83782453.551  
G 7  21353346.740   112212588.914                                  
G 8  23569471.520   123858323.875    23569473.860    92491597.473  
G 9  20312160.140   106741077.234    20312161.080    79709248.871  
G16  22857563.680   120117295.953                                  
G27  23327986.780   122589333.461    23327988.340    91543980.184  
G30  23189473.420   121861437.258    23189475.800    91000420.383  
E 2  24232073.180   127340376.840    24232078.640    95091830.664  
E 3  23349294.400   122701340.746    23349300.360    91627617.402  
E 5  25736596.660   135246685.387    25736603.620   100995890.520  
E 8  23589063.220   123961346.516    23589068.040    92568530.773  
E24  27263153.540   143268821.051    27263172.020   106986468.715  
E25  23642693.820   124243162.297    23642699.920    92778976.984  
> 2021  1  5 21 13 22.0000000  0 14       0.000000000000
G 3  24323939.560   127823086.582    24323943.520    95452296.832  
G 4  21350455.360   112197377.754    21350458.660    83783764.117  
G 7  21353152.660   112211569.023                                  
G 8  23568958.700   123855629.063    23568961.060    92489585.113  
G 9  20312080.760   106740660.148    20312081.720    79708937.410  
G16  22858161.100   120120435.445                                  
G27  23327738.600   122588029.273    23327740.160    91543006.277  
G30  23189038.560   121859152.141    23189040.940    90998713.965  
E 2  24231730.820   127338577.727    24231736.280    95090487.172  
E 3  23349301.880   122701380.020    23349307.820    91627646.727  
E 5  25737022.440   135248922.895    25737029.400   100997561.387  
E 8  23588640.440   123959124.742    23588645.240    92566871.660  
E24  27263665.740   143271512.699    27263684.240   106988478.711  
E25  23642849.120   124243978.348    23642855.220    92779586.371  
> 2021  1  5 21 13 23.0000000  0 14       0.000000000000
G 3  24324650.720   127826823.809    24324654.680    95455087.617  
G 4  21350789.400   112199133.148    21350792.700    83785074.965  
G 7  21352958.600   112210549.316                                  
G 8  23568445.940   123852934.465    23568448.280    92487572.918  
G 9  20312001.480   106740243.512    20312002.440    79708626.285  
G16  22858758.600   120123575.301                                  
G27  23327490.540   122586725.637    23327492.100    91542032.785  
G30  23188603.760   121856867.168    23188606.140    90997007.652  
E 2  24231388.520   127336778.930    24231393.980    95089143.914  
E 3  23349309.420   122701419.617    23349315.360    91627676.297  
E 5  25737448.260   135251160.629    25737455.220   100999232.422  
E 8  23588217.660   123956903.098    23588222.480    92565212.641  
E24  27264177.960   143274204.398    27264196.440   106990488.750  
E25  23643004.460   124244794.734    23643010.580    92780196.012  
> 2021  1  5 21 13 24.0000000  0 14       0.000000000000
G 3  24325361.900   127830561.074    24325365.860    95457878.430  
G 4  21351123.520   112200888.949    21351126.820    83786386.113  
G 7  21352764.600   112209529.836                                  
G 8  23567933.220   123850240.090    23567935.560    92485560.883  
G 9  20311922.280   106739827.328    20311923.240    79708315.496  
G16  22859356.180   120126715.555                                  
G27  23327242.560   122585422.543    23327244.120    91541059.695  
G30  23188168.980   121854582.379    23188171.360    90995301.480  
E 2  24231046.280   127334980.492    24231051.740    95087800.926  
E 3  23349317.020   122701459.574    23349322.960    91627706.137  
E 5  25737874.140   135253398.605    25737881.100   101000903.633  
E 8  23587794.920   123954681.598    23587799.740    92563553.727  
E24  27264690.180   143276896.176    27264708.680   106992498.840  
E25  23643159.900   124245611.492    23643166.000    92780805.926  
> 2021  1  5 21 13 25.0000000  0 14       0.000000000000
G 3  24326073.080   127834298.348    24326077.040    95460669.250  
G 4  21351457.720   112202645.145    21351461.020    83787697.559  
G 7  21352570.640   112208510.555                                  
G 8  23567420.540   123847545.922    23567422.880    92483549.008  
G 9  20311843.180   106739411.590    20311844.120    79708005.047  
G16  22859953.820   120129856.188                                  
G27  23326994.700   122584119.984    23326996.260    91540087.008  
G30  23187734.220   121852297.742    23187736.600    90993595.422  
E 2  24230704.120   127333182.375    24230709.560    95086458.176  
E 3  23349324.700   122701499.883    23349330.640    91627736.234  
E 5  25738300.060   135255636.813    25738307.020   101002575.023  
E 8  23587372.220   123952460.230    23587377.040    92561894.918  
E24  27265202.420   143279588.035    27265220.920   106994508.992  
E25  23643315.380   124246428.598    23643321.480    92781416.105  
> 2021  1  5 21 13 26.0000000  0 14       0.000000000000
G 3  24326784.260   127838035.625    24326788.220    95463460.070  
G 4  21351791.980   112204401.719    21351795.280    83789009.285  
G 7  21352376.720   112207491.477                                  
G 8  23566907.900   123844851.969    23566910.240    92481537.289  
G 9  20311764.140   106738996.309    20311765.100    79707694.930  
G16  22860551.540   120132997.191                                  
G27  23326746.920   122582817.973    23326748.480    91539114.727  
G30  23187299.500   121850013.270    23187301.880    90991889.488  
E 2  24230362.000   127331384.586    24230367.460    95085115.672  
E 3  23349332.420   122701540.516    23349338.360    91627766.578  
E 5  25738726.020   135257875.246    25738732.980   101004246.578  
E 8  23586949.540   123950239.000    23586954.340    92560236.207  
E24  27265714.680   143282279.953    27265733.180   106996519.191  
E25  23643470.940   124247246.063    23643477.040    92782026.547  
> 2021  1  5 21 13 27.0000000  0 14       0.000000000000
G 3  24327495.460   127841772.949    24327499.420    95466250.930  
G 4  21352126.320   112206158.691    21352129.620    83790321.309  
G 7  21352182.840   112206472.609                                  
G 8  23566395.280   123842158.234    23566397.640    92479525.734  
G 9  20311685.200   106738581.473    20311686.160    79707385.152  
G16  22861149.320   120136138.578                                  
G27  23326499.260   122581516.512    23326500.820    91538142.855  
G30  23186864.800   121847728.961    23186867.180    90990183.672  
E 2  24230019.960   127329587.133    24230025.420    95083773.418  
E 3  23349340.220   122701581.504    23349346.160    91627797.188  
E 5  25739152.020   135260113.910    25739158.980   101005918.309  
E 8  23586526.880   123948017.906    23586531.680    92558577.598  
E24  27266226.960   143284971.938    27266245.440   106998529.438  
E25  23643626.560   124248063.883    23643632.680    92782637.258  
> 2021  1  5 21 13 28.0000000  0 14       0.000000000000
G 3  24328206.640   127845510.254    24328210.600    95469041.770  
G 4  21352460.740   112207916.047    21352464.040    83791633.621  
G 7  21351989.000   112205453.957                                  
G 8  23565882.720   123839464.715    23565885.080    92477514.344  
G 9  20311606.360   106738167.090    20311607.300    79707075.711  
G16  22861747.180   120139280.352                                  
G27  23326251.700   122580215.566    23326253.260    91537171.371  
G30  23186430.140   121845444.809    23186432.520    90988477.973  
E 2  24229677.980   127327790.012    24229683.440    95082431.410  
E 3  23349348.080   122701622.832    23349354.040    91627828.047  
E 5  25739578.080   135262352.813    25739585.020   101007590.215  
E 8  23586104.240   123945796.945    23586109.040    92556919.086  
E24  27266739.240   143287663.996    27266757.720   107000539.738  
E25  23643782.260   124248882.059    23643788.360    92783248.234  
> 2021  1  5 21 13 29.0000000  0 14       0.000000000000
G 3  24328917.840   127849247.578    24328921.800    95471832.629  
G 4  21352795.220   112209673.793    21352798.520    83792946.223  
G 7  21351795.180   112204435.504                                  
G 8  23565370.200   123836771.402    23565372.560    92475503.105  
G 9  20311527.580   106737753.156    20311528.540    79706766.602  
G16  22862345.120   120142422.508                                  
G27  23326004.240   122578915.172    23326005.800    91536200.297  
G30  23185995.520   121843160.832    23185997.900    90986772.410  
E 2  24229336.060   127325993.219    24229341.520    95081089.652  
E 3  23349356.020   122701664.508    23349361.960    91627859.168  
E 5  25740004.160   135264591.938    25740011.120   101009262.289  
E 8  23585681.620   123943576.129    23585686.440    92555260.688  
E24  27267251.540   143290356.121    27267270.020   107002550.090  
E25  23643938.020   124249700.590    23643944.120    92783859.473  
> 2021  1  5 21 13 30.0000000  0 14       0.000000000000
G 3  24329629.040   127852984.938    24329633.000    95474623.512  
G 4  21353129.780   112211431.934    21353133.080    83794259.117  
G 7  21351601.420   112203417.258                                  
G 8  23564857.720   123834078.320    23564860.080    92473492.039  
G 9  20311448.900   106737339.680    20311449.860    79706457.840  
G16  22862943.120   120145565.043                                  
G27  23325756.900   122577615.320    23325758.460    91535229.629  
G30  23185560.920   121840877.020    23185563.300    90985066.965  
E 2  24228994.200   127324196.754    24228999.660    95079748.133  
E 3  23349364.020   122701706.523    23349369.960    91627890.547  
E 5  25740430.300   135266831.297    25740437.260   101010934.535  
E 8  23585259.040   123941355.441    23585263.860    92553602.383  
E24  27267763.840   143293048.305    27267782.320   107004560.488  
E25  23644093.860   124250519.473    23644099.960    92784470.977  
> 2021  1  5 21 13 31.0000000  0 14       0.000000000000
G 3  24330340.220   127856722.293    24330344.200    95477414.391  
G 4  21353464.420   112213190.465    21353467.720    83795572.305  
G 7  21351407.700   112202399.215                                  
G 8  23564345.300   123831385.465    23564347.640    92471481.141  
G 9  20311370.300   106736926.645    20311371.260    79706149.402  
G16  22863541.200   120148707.953                                  
G27  23325509.640   122576316.004    23325511.200    91534259.363  
G30  23185126.360   121838593.367    23185128.740    90983361.645  
E 2  24228652.420   127322400.633    24228657.860    95078406.875  
E 3  23349372.080   122701748.883    23349378.020    91627922.180  
E 5  25740856.480   135269070.891    25740863.440   101012606.957  
E 8  23584836.480   123939134.906    23584841.300    92551944.191  
E24  27268276.160   143295740.574    27268294.660   107006570.945  
E25  23644249.740   124251338.723    23644255.860    92785082.754  
> 2021  1  5 21 13 32.0000000  0 14       0.000000000000
G 3  24331051.420   127860459.680    24331055.400    95480205.297  
G 4  21353799.140   112214949.375    21353802.440    83796885.777  
G 7  21351214.000   112201381.379                                  
G 8  23563832.900   123828692.805    23563835.240    92469470.391  
G 9  20311291.780   106736514.063    20311292.740    79705841.309  
G16  22864139.340   120151851.246                                  
G27  23325262.500   122575017.230    23325264.060    91533289.500  
G30  23184691.820   121836309.879    23184694.200    90981656.441  
E 2  24228310.680   127320604.836    24228316.140    95077065.863  
E 3  23349380.200   122701791.582    23349386.140    91627954.063  
E 5  25741282.700   135271310.711    25741289.660   101014279.551  
E 8  23584413.960   123936914.496    23584418.780    92550286.094  
E24  27268788.500   143298432.902    27268806.980   107008581.449  
E25  23644405.720   124252158.316    23644411.820    92785694.785  
> 2021  1  5 21 13 33.0000000  0 14       0.000000000000
G 3  24331762.640   127864197.082    24331766.600    95482996.211  
G 4  21354133.920   112216708.688    21354137.220    83798199.547  
G 7  21351020.360   112200363.750                                  
G 8  23563320.540   123826000.355    23563322.880    92467459.797  
G 9  20311213.360   106736101.918    20311214.320    79705533.535  
G16  22864737.560   120154994.914                                  
G27  23325015.440   122573718.992    23325017.000    91532320.039  
G30  23184257.320   121834026.563    23184259.700    90979951.367  
E 2  24227969.020   127318809.375    24227974.480    95075725.098  
E 3  23349388.400   122701834.641    23349394.340    91627986.219  
E 5  25741708.980   135273550.766    25741715.940   101015952.316  
E 8  23583991.460   123934694.219    23583996.260    92548628.094  
E24  27269300.840   143301125.297    27269319.340   107010592.004  
E25  23644561.740   124252978.266    23644567.840    92786307.086  
> 2021  1  5 21 13 34.0000000  0 14       0.000000000000
G 3  24332473.840   127867934.484    24332477.800    95485787.129  
G 4  21354468.780   112218468.379    21354472.080    83799513.605  
G 7  21350826.760   112199346.340                                  
G 8  23562808.220   123823308.109    23562810.560    92465449.355  
G 9  20311135.020   106735690.242    20311135.980    79705226.117  
G16  22865335.860   120158138.961                                  
G27  23324768.500   122572421.305    23324770.060    91531350.984  
G30  23183822.860   121831743.398    23183825.220    90978246.410  
E 2  24227627.420   127317014.246    24227632.880    95074384.578  
E 3  23349396.660   122701878.035    23349402.600    91628018.621  
E 5  25742135.300   135275791.055    25742142.240   101017625.258  
E 8  23583568.980   123932474.086    23583573.780    92546970.203  
E24  27269813.200   143303817.777    27269831.700   107012602.621  
E25  23644717.840   124253798.578    23644723.940    92786919.656  
> 2021  1  5 21 13 36.0000000  0 14       0.000000000000
G 3  24333896.260   127875409.375    24333900.240    95491369.020  
G 4  21355138.720   112221988.941    21355142.020    83802142.594  
G 7  21350439.660   112197312.117                                  
G 8  23561783.720   123817924.293    23561786.060    92461428.977  
G 9  20310978.600   106734868.219    20310979.540    79704612.270  
G16  22866532.660   120164428.195                                  
G27  23324274.920   122569827.559    23324276.480    91529414.098  
G30  23182954.000   121827177.578    23182956.380    90974836.867  
E 2  24226944.400   127313424.973    24226949.860    95071704.277  
E 3  23349413.360   122701965.852    23349419.300    91628084.199  
E 5  25742988.040   135280272.316    25742995.000   101020971.652  
E 8  23582724.100   123928034.230    23582728.920    92543654.727  
E24  27270837.960   143309202.910    27270856.460   107016623.984  
E25  23645030.240   124255440.258    23645036.340    92788145.590  
> 2021  1  5 21 13 37.0000000  0 14       0.000000000000
G 3  24334607.480   127879146.828    24334611.440    95494159.977  
G 4  21355473.800   112223749.816    21355477.100    83803457.531  
G 7  21350246.160   112196295.309                                  
G 8  23561271.520   123815232.742    23561273.860    92459419.055  
G 9  20310900.520   106734457.891    20310901.460    79704305.855  
G16  22867131.160   120167573.379                                  
G27  23324028.300   122568531.484    23324029.860    91528446.254  
G30  23182519.620   121824894.902    23182522.000    90973132.277  
E 2  24226602.980   127311630.840    24226608.440    95070364.504  
E 3  23349421.820   122702010.281    23349427.760    91628117.375  
E 5  25743414.500   135282513.297    25743421.460   101022645.113  
E 8  23582301.700   123925814.496    23582306.520    92541997.137  
E24  27271350.360   143311895.590    27271368.860   107018634.750  
E25  23645186.540   124256261.629    23645192.660    92788758.949  
> 2021  1  5 21 13 38.0000000  0 14       0.000000000000
G 3  24335318.700   127882884.2972   24335322.660    95496950.9382 
G 4  21355808.960   112225511.078    21355812.260    83804772.762  
G 7  21350052.700   112195278.715                                  
G 8  23560759.380   123812541.398    23560761.720    92457409.285  
G 9  20310822.520   106734048.016    20310823.460    79703999.777  
G16  22867729.740   120170718.945                                  
G27  23323781.760   122567235.969    23323783.320    91527478.824  
G30  23182085.280   121822612.418    23182087.660    90971427.820  
E 2  24226261.640   127309837.031    24226267.100    95069024.969  
E 3  23349430.340   122702055.063    23349436.280    91628150.820  
E 5  25743840.980   135284754.504    25743847.940   101024318.738  
E 8  23581879.320   123923594.910    23581884.140    92540339.652  
E24  27271862.780   143314588.328    27271881.260   107020645.563  
E25  23645342.920   124257083.363    23645349.020    92789372.582  
> 2021  1  5 21 13 39.0000000  0 14       0.000000000000
G 3  24336029.920   127886621.7852   24336033.900    95499741.9182 
G 4  21356144.200   112227272.723    21356147.500    83806088.273  
G 7  21349859.300   112194262.344                                  
G 8  23560247.280   123809850.289    23560249.620    92455399.691  
G 9  20310744.600   106733638.582    20310745.560    79703694.031  
G16  22868328.400   120173864.887                                  
G27  23323535.340   122565940.980    23323536.900    91526511.785  
G30  23181650.960   121820330.066    23181653.340    90969723.465  
E 2  24225920.340   127308043.563    24225925.800    95067685.691  
E 3  23349438.920   122702100.184    23349444.880    91628184.512  
E 5  25744267.520   135286995.945    25744274.480   101025992.539  
E 8  23581456.980   123921375.469    23581461.800    92538682.281  
E24  27272375.200   143317281.141    27272393.700   107022656.426  
E25  23645499.360   124257905.453    23645505.460    92789986.480  
> 2021  1  5 21 13 40.0000000  0 14       0.000000000000
G 3  24336741.140   127890359.2892   24336745.120    95502532.9102 
G 4  21356479.500   112229034.762    21356482.800    83807404.082  
G 7  21349665.920   112193246.168                                  
G 8  23559735.220   123807159.387    23559737.560    92453390.258  
G 9  20310666.780   106733229.605    20310667.720    79703388.629  
G16  22868927.120   120177011.215                                  
G27  23323289.020   122564646.547    23323290.580    91525545.164  
G30  23181216.680   121818047.891    23181219.060    90968019.242  
E 2  24225579.120   127306250.422    24225584.580    95066346.660  
E 3  23349447.580   122702145.648    23349453.520    91628218.465  
E 5  25744694.100   135289237.617    25744701.060   101027666.516  
E 8  23581034.640   123919156.070    23581039.460    92537024.938  
E24  27272887.640   143319974.027    27272906.140   107024667.344  
E25  23645655.860   124258727.895    23645661.960    92790600.641  
> 2021  1  5 21 13 41.0000000  0 14       0.000000000000
G 3  24337452.380   127894096.8052   24337456.340    95505323.9102 
G 4  21356814.880   112230797.188    21356818.180    83808720.180  
G 7  21349472.600   112192230.199                                  
G 8  23559223.200   123804468.707    23559225.540    92451380.984  
G 9  20310589.040   106732821.086    20310589.980    79703083.563  
G16  22869525.920   120180157.914                                  
G27  23323042.800   122563352.648    23323044.340    91524578.941  
G30  23180782.420   121815765.879    23180784.800    90966315.148  
E 2  24225237.960   127304457.617    24225243.420    95065007.879  
E 3  23349456.300   122702191.461    23349462.240    91628252.676  
E 5  25745120.720   135291479.520    25745127.680   101029340.660  
E 8  23580612.340   123916936.891    23580617.160    92535367.758  
E24  27273400.100   143322666.969    27273418.580   107026678.309  
E25  23645812.440   124259550.688    23645818.540    92791215.066  
> 2021  1  5 21 13 42.0000000  0 14       0.000000000000
G 3  24338163.600   127897834.3442   24338167.580    95508114.9262 
G 4  21357150.320   112232560.008    21357153.620    83810036.570  
G 7  21349279.300   112191214.438                                  
G 8  23558711.220   123801778.246    23558713.560    92449371.875  
G 9  20310511.380   106732413.008    20310512.340    79702778.832  
G16  22870124.800   120183304.996                                  
G27  23322796.680   122562059.297    23322798.240    91523613.129  
G30  23180348.200   121813484.035    23180350.580    90964611.176  
E 2  24224896.860   127302665.141    24224902.320    95063669.340  
E 3  23349465.080   122702237.609    23349471.020    91628287.137  
E 5  25745547.380   135293721.656    25745554.340   101031014.984  
E 8  23580190.080   123914717.855    23580194.880    92533710.688  
E24  27273912.560   143325359.980    27273931.040   107028689.324  
E25  23645969.080   124260373.848    23645975.180    92791829.762  
> 2021  1  5 21 13 43.0000000  0 14       0.000000000000
G 3  24338874.840   127901571.8912   24338878.800    95510905.9492 
G 4  21357485.860   112234323.207    21357489.160    83811353.246  
G 7  21349086.040   112190198.859                                  
G 8  23558199.280   123799088.020    23558201.620    92447362.941  
G 9  20310433.820   106732005.371    20310434.760    79702474.430  
G16  22870723.740   120186452.457                                  
G27  23322550.660   122560766.480    23322552.220    91522647.715  
G30  23179914.020   121811202.344    23179916.400    90962907.313  
E 2  24224555.840   127300872.996    24224561.280    95062331.051  
E 3  23349473.920   122702284.098    23349479.860    91628321.852  
E 5  25745974.080   135295964.012    25745981.040   101032689.469  
E 8  23579767.840   123912498.953    23579772.640    92532053.715  
E24  27274425.040   143328053.063    27274443.520   107030700.387  
E25  23646125.780   124261197.340    23646131.880    92792444.707  
> 2021  1  5 21 13 44.0000000  0 14       0.000000000000
G 3  24339586.080   127905309.4772   24339590.040    95513697.0002 
G 4  21357821.460   112236086.809    21357824.760    83812670.219  
G 7  21348892.820   112189183.520                                  
G 8  23557687.380   123796397.988    23557689.720    92445354.152  
G 9  20310356.340   106731598.195    20310357.280    79702170.367  
G16  22871322.760   120189600.305                                  
G27  23322304.740   122559474.219    23322306.300    91521682.715  
G30  23179479.860   121808920.832    23179482.240    90961203.590  
E 2  24224214.860   127299081.184    24224220.320    95060993.008  
E 3  23349482.840   122702330.941    23349488.780    91628356.832  
E 5  25746400.840   135298206.613    25746407.800   101034364.137  
E 8  23579345.620   123910280.184    23579350.420    92530396.844  
E24  27274937.520   143330746.215    27274956.020   107032711.508  
E25  23646282.560   124262021.195    23646288.660    92793059.926  
> 2021  1  5 21 13 45.0000000  0 14       0.000000000000
G 3  24340297.320   127909047.0472   24340301.280    95516488.0472 
G 4  21358157.140   112237850.801    21358160.440    83813987.484  
G 7  21348699.660   112188168.379                                  
G 8  23557175.520   123793708.180    23557177.860    92443345.531  
G 9  20310278.940   106731191.473    20310279.880    79701866.645  
G16  22871921.840   120192748.531                                  
G27  23322058.940   122558182.492    23322060.500    91520718.113  
G30  23179045.720   121806639.469    23179048.100    90959499.973  
E 2  24223873.960   127297289.711    24223879.420    95059655.223  
E 3  23349491.820   122702378.129    23349497.760    91628392.070  
E 5  25746827.640   135300449.438    25746834.600   101036038.973  
E 8  23578923.420   123908061.563    23578928.240    92528740.078  
E24  27275450.020   143333439.441    27275468.520   107034722.684  
E25  23646439.400   124262845.414    23646445.500    92793675.410  
> 2021  1  5 21 13 46.0000000  0 14       0.000000000000
G 3  24341008.560   127912784.6522   24341012.540    95519279.1092 
G 4  21358492.880   112239615.188    21358496.180    83815305.047  
G 7  21348506.520   112187153.441                                  
G 8  23556663.720   123791018.598    23556666.060    92441337.082  
G 9  20310201.620   106730785.199    20310202.580    79701563.262  
G16  22872521.000   120195897.129                                  
G27  23321813.240   122556891.305    23321814.800    91519753.914  
G30  23178611.640   121804358.277    23178614.000    90957796.488  
E 2  24223533.120   127295498.570    24223538.560    95058317.684  
E 3  23349500.860   122702425.672    23349506.800    91628427.570  
E 5  25747254.480   135302692.496    25747261.440   101037713.980  
E 8  23578501.260   123905843.078    23578506.060    92527083.418  
E24  27275962.540   143336132.734    27275981.040   107036733.906  
E25  23646596.320   124263669.988    23646602.420    92794291.168  
> 2021  1  5 21 13 47.0000000  0 14       0.000000000000
G 3  24341719.800   127916522.2462   24341723.780    95522070.1682 
G 4  21358828.720   112241379.953    21358832.020    83816622.891  
G 7  21348313.420   112186138.691                                  
G 8  23556151.940   123788329.238    23556154.280    92439328.793  
G 9  20310124.400   106730379.367    20310125.340    79701260.203  
G16  22873120.240   120199046.102                                  
G27  23321567.640   122555600.645    23321569.180    91518790.113  
G30  23178177.560   121802077.250    23178179.940    90956093.125  
E 2  24223192.340   127293707.758    24223197.780    95056980.387  
E 3  23349509.980   122702473.535    23349515.920    91628463.316  
E 5  25747681.360   135304935.785    25747688.320   101039389.164  
E 8  23578079.120   123903624.723    23578083.940    92525426.859  
E24  27276475.080   143338826.086    27276493.560   107038745.172  
E25  23646753.280   124264494.910    23646759.400    92794907.176  
> 2021  1  5 21 13 48.0000000  0 14       0.000000000000
G 3  24342431.040   127920259.9022   24342435.020    95524861.2892 
G 4  21359164.600   112243145.121    21359167.900    83817941.043  
G 7  21348120.360   112185124.172                                  
G 8  23555640.220   123785640.094    23555642.560    92437320.660  
G 9  20310047.260   106729973.980    20310048.200    79700957.480  
G16  22873719.540   120202195.445                                  
G27  23321322.140   122554310.500    23321323.700    91517826.672  
G30  23177743.520   121799796.406    23177745.900    90954389.910  
E 2  24222851.620   127291917.273    24222857.060    95055643.340  
E 3  23349519.140   122702521.754    23349525.100    91628499.324  
E 5  25748108.280   135307179.336    25748115.240   101041064.563  
E 8  23577657.000   123901406.523    23577661.820    92523770.418  
E24  27276987.620   143341519.484    27277006.120   107040756.465  
E25  23646910.340   124265320.191    23646916.440    92795523.461  
> 2021  1  5 21 13 49.0000000  0 14       0.000000000000
G 3  24343142.300   127923997.5272   24343146.260    95527652.3712 
G 4  21359500.580   112244910.668    21359503.880    83819259.469  
G 7  21347927.340   112184109.859                                  
G 8  23555128.540   123782951.156    23555130.880    92435312.691  
G 9  20309970.200   106729569.059    20309971.160    79700655.105  
G16  22874318.920   120205345.176                                  
G27  23321076.740   122553020.945    23321078.300    91516863.691  
G30  23177309.520   121797515.707    23177311.900    90952686.793  
E 2  24222510.960   127290127.125    24222516.420    95054306.539  
E 3  23349528.380   122702570.328    23349534.340    91628535.594  
E 5  25748535.260   135309423.082    25748542.200   101042740.086  
E 8  23577234.920   123899188.445    23577239.720    92522114.063  
E24  27277500.180   143344212.984    27277518.680   107042767.840  
E25  23647067.440   124266145.824    23647073.560    92796140.004  
> 2021  1  5 21 13 50.0000000  0 14       0.000000000000
G 3  24343853.540   127927735.1802   24343857.520    95530443.4732 
G 4  21359836.620   112246676.605    21359839.920    83820578.188  
G 7  21347734.360   112183095.742                                  
G 8  23554616.880   123780262.430    23554619.220    92433304.879  
G 9  20309893.240   106729164.590    20309894.180    79700353.066  
G16  22874918.360   120208495.289                                  
G27  23320831.460   122551731.930    23320833.020    91515901.117  
G30  23176875.560   121795235.168    23176877.920    90950983.789  
E 2  24222170.360   127288337.305    24222175.820    95052969.984  
E 3  23349537.700   122702619.227    23349543.640    91628572.109  
E 5  25748962.260   135311667.063    25748969.220   101044415.785  
E 8  23576812.860   123896970.496    23576817.660    92520457.805  
E24  27278012.740   143346906.543    27278031.240   107044779.266  
E25  23647224.620   124266971.816    23647230.740    92796756.816  
> 2021  1  5 21 13 51.0000000  0 14       0.000000000000
G 3  24344564.800   127931472.8672   24344568.780    95533234.6022 
G 4  21360172.740   112248442.938    21360176.040    83821897.199  
G 7  21347541.420   112182081.836                                  
G 8  23554105.280   123777573.945    23554107.620    92431297.246  
G 9  20309816.340   106728760.570    20309817.300    79700051.363  
G16  22875517.880   120211645.785                                  
G27  23320586.260   122550443.449    23320587.820    91514938.941  
G30  23176441.600   121792954.793    23176443.980    90949280.914  
E 2  24221829.840   127286547.824    24221835.300    95051633.688  
E 3  23349547.060   122702668.484    23349553.020    91628608.895  
E 5  25749389.320   135313911.277    25749396.280   101046091.660  
E 8  23576390.820   123894752.703    23576395.640    92518801.660  
E24  27278525.320   143349600.172    27278543.820   107046790.738  
E25  23647381.880   124267798.156    23647387.980    92797373.891  
> 2021  1  5 21 13 52.0000000  0 14       0.000000000000
G 3  24345276.060   127935210.5232   24345280.020    95536025.7072 
G 4  21360508.940   112250209.648    21360512.240    83823216.496  
G 7  21347348.520   112181068.137                                  
G 8  23553593.720   123774885.680    23553596.060    92429289.773  
G 9  20309739.560   106728357.000    20309740.500    79699749.996  
G16  22876117.480   120214796.660                                  
G27  23320341.180   122549155.516    23320342.740    91513977.176  
G30  23176007.700   121790674.578    23176010.060    90947578.160  
E 2  24221489.380   127284758.668    24221494.840    95050297.629  
E 3  23349556.500   122702718.082    23349562.460    91628645.930  
E 5  25749816.420   135316155.715    25749823.380   101047767.699  
E 8  23575968.820   123892535.039    23575973.620    92517145.613  
E24  27279037.920   143352293.859    27279056.420   107048802.258  
E25  23647539.200   124268624.852    23647545.300    92797991.227  
> 2021  1  5 21 13 53.0000000  0 14       0.000000000000
G 3  24345987.320   127938948.2232   24345991.300    95538816.8442 
G 4  21360845.220   112251976.754    21360848.520    83824536.086  
G 7  21347155.660   112180054.652                                  
G 8  23553082.200   123772197.645    23553084.540    92427282.477  
G 9  20309662.840   106727953.883    20309663.800    79699448.965  
G16  22876717.140   120217947.902                                  
G27  23320096.200   122547868.137    23320097.760    91513015.820  
G30  23175573.820   121788394.539    23175576.200    90945875.535  
E 2  24221148.980   127282969.852    24221154.420    95048961.824  
E 3  23349566.000   122702768.023    23349571.960    91628683.223  
E 5  25750243.580   135318400.383    25750250.540   101049443.910  
E 8  23575546.840   123890317.520    23575551.640    92515489.672  
E24  27279550.520   143354987.629    27279569.020   107050813.836  
E25  23647696.580   124269451.902    23647702.680    92798608.828  
> 2021  1  5 21 13 54.0000000  0 14       0.000000000000
G 3  24346698.580   127942685.9222   24346702.560    95541607.9802 
G 4  21361181.560   112253744.250    21361184.860    83825855.973  
G 7  21346962.840   112179041.359                                  
G 8  23552570.740   123769509.832    23552573.060    92425275.348  
G 9  20309586.220   106727551.211    20309587.160    79699148.270  
G16  22877316.880   120221099.531                                  
G27  23319851.320   122546581.281    23319852.880    91512054.859  
G30  23175139.980   121786114.652    23175142.340    90944173.020  
E 2  24220808.640   127281181.367    24220814.100    95047626.270  
E 3  23349575.580   122702818.313    23349581.520    91628720.777  
E 5  25750670.760   135320645.281    25750677.720   101051120.293  
E 8  23575124.880   123888100.117    23575129.680    92513833.820  
E24  27280063.140   143357681.449    27280081.640   107052825.453  
E25  23647854.020   124270279.309    23647860.120    92799226.695  
> 2021  1  5 21 13 55.0000000  0 14       0.000000000000
G 3  24347409.840   127946423.6602   24347413.820    95544399.1452 
G 4  21361517.980   112255512.137    21361521.280    83827176.145  
G 7  21346770.060   112178028.285                                  
G 8  23552059.300   123766822.230    23552061.640    92423268.371  
G 9  20309509.680   106727149.004    20309510.620    79698847.918  
G16  22877916.680   120224251.523                                  
G27  23319606.540   122545294.977    23319608.100    91511094.305  
G30  23174706.160   121783834.938    23174708.520    90942470.637  
E 2  24220468.360   127279393.211    24220473.820    95046290.957  
E 3  23349585.220   122702868.945    23349591.160    91628758.586  
E 5  25751098.000   135322890.422    25751104.960   101052796.859  
E 8  23574702.940   123885882.879    23574707.760    92512178.090  
E24  27280575.780   143360375.348    27280594.280   107054837.133  
E25  23648011.540   124271107.070    23648017.640    92799844.828  
> 2021  1  5 21 13 56.0000000  0 14       0.000000000000
G 3  24348121.120   127950161.3792   24348125.080    95547190.2972 
G 4  21361854.460   112257280.414    21361857.760    83828496.613  
G 7  21346577.320   112177015.426                                  
G 8  23551547.900   123764134.859    23551550.240    92421261.570  
G 9  20309433.220   106726747.230    20309434.180    79698547.895  
G16  22878516.560   120227403.895                                  
G27  23319361.860   122544009.230    23319363.420    91510134.172  
G30  23174272.380   121781555.379    23174274.740    90940768.371  
E 2  24220128.160   127277605.391    24220133.600    95044955.895  
E 3  23349594.920   122702919.922    23349600.860    91628796.656  
E 5  25751525.280   135325135.785    25751532.240   101054473.590  
E 8  23574281.040   123883665.766    23574285.860    92510522.457  
E24  27281088.420   143363069.313    27281106.920   107056848.855  
E25  23648169.120   124271935.184    23648175.220    92800463.227  
> 2021  1  5 21 13 57.0000000  0 14       0.000000000000
G 3  24348832.380   127953899.1252   24348836.360    95549981.4692 
G 4  21362191.040   112259049.078    21362194.340    83829817.367  
G 7  21346384.600   112176002.750                                  
G 8  23551036.560   123761447.676    23551038.880    92419254.906  
G 9  20309356.860   106726345.918    20309357.800    79698248.211  
G16  22879116.500   120230556.645                                  
G27  23319117.300   122542724.008    23319118.860    91509174.426  
G30  23173838.620   121779275.996    23173840.980    90939066.234  
E 2  24219788.000   127275817.902    24219793.460    95043621.086  
E 3  23349604.680   122702971.250    23349610.620    91628834.984  
E 5  25751952.600   135327381.375    25751959.560   101056150.492  
E 8  23573859.180   123881448.793    23573863.980    92508866.926  
E24  27281601.080   143365763.352    27281619.580   107058860.637  
E25  23648326.780   124272763.656    23648332.880    92801081.891  
> 2021  1  5 21 13 58.0000000  0 14       0.000000000000
G 3  24349543.660   127957636.8952   24349547.640    95552772.6602 
G 4  21362527.680   112260818.137    21362530.980    83831138.418  
G 7  21346191.940   112174990.289                                  
G 8  23550525.240   123758760.746    23550527.580    92417248.438  
G 9  20309280.580   106725945.055    20309281.520    79697948.867  
G16  22879716.520   120233709.766                                  
G27  23318872.840   122541439.332    23318874.400    91508215.094  
G30  23173404.900   121776996.773    23173407.260    90937364.219  
E 2  24219447.920   127274030.750    24219453.380    95042286.523  
E 3  23349614.520   122703022.910    23349620.460    91628873.563  
E 5  25752379.980   135329627.199    25752386.940   101057827.566  
E 8  23573437.320   123879231.957    23573442.120    92507211.496  
E24  27282113.740   143368457.445    27282132.260   107060872.461  
E25  23648484.500   124273592.469    23648490.600    92801700.813  
> 2021  1  5 21 13 59.0000000  0 14       0.000000000000
G 3  24350254.940   127961374.6562   24350258.900    95555563.8442 
G 4  21362864.380   112262587.582    21362867.680    83832459.754  
G 7  21345999.320   112173978.035                                  
G 8  23550013.980   123756074.043    23550016.320    92415242.133  
G 9  20309204.380   106725544.641    20309205.320    79697649.859  
G16  22880316.620   120236863.270                                  
G27  23318628.480   122540155.207    23318630.040    91507256.168  
G30  23172971.200   121774717.707    23172973.580    90935662.320  
E 2  24219107.900   127272243.926    24219113.360    95040952.207  
E 3  23349624.420   122703074.930    23349630.360    91628912.406  
E 5  25752807.380   135331873.254    25752814.340   101059504.813  
E 8  23573015.500   123877015.262    23573020.300    92505556.176  
E24  27282626.440   143371151.613    27282644.940   107062884.336  
E25  23648642.280   124274421.652    23648648.380    92802320.004  
> 2021  1  5 21 14  0.0000000  0 14       0.000000000000
G 3  24350966.220   127965112.4452   24350970.180    95558355.0472 
G 4  21363201.180   112264357.426    21363204.480    83833781.391  
G 7  21345806.740   112172965.980                                  
G 8  23549502.760   123753387.563    23549505.100    92413236.000  
G 9  20309128.260   106725144.680    20309129.220    79697351.188  
G16  22880916.780   120240017.145                                  
G27  23318384.220   122538871.629    23318385.780    91506297.652  
G30  23172537.540   121772438.816    23172539.920    90933960.551  
E 2  24218767.940   127270457.430    24218773.400    95039618.137  
E 3  23349634.380   122703127.285    23349640.320    91628951.504  
E 5  25753234.840   135334119.539    25753241.800   101061182.234  
E 8  23572593.700   123874798.707    23572598.500    92503900.953  
E24  27283139.140   143373845.848    27283157.640   107064896.266  
E25  23648800.140   124275251.191    23648806.240    92802939.465  
> 2021  1  5 21 14  1.0000000  0 14       0.000000000000
G 3  24351677.500   127968850.2422   24351681.460    95561146.2582 
G 4  21363538.040   112266127.648    21363541.340    83835103.313  
G 7  21345614.180   112171954.129                                  
G 8  23548991.580   123750701.301    23548993.920    92411230.027  
G 9  20309052.240   106724745.176    20309053.200    79697052.855  
G16  22881517.020   120243171.402                                  
G27  23318140.060   122537588.578    23318141.620    91505339.531  
G30  23172103.920   121770160.082    23172106.280    90932258.902  
E 2  24218428.040   127268671.273    24218433.500    95038284.316  
E 3  23349644.400   122703179.984    23349650.340    91628990.855  
E 5  25753662.340   135336366.055    25753669.300   101062859.828  
E 8  23572171.920   123872582.281    23572176.740    92502245.832  
E24  27283651.840   143376540.156    27283670.340   107066908.246  
E25  23648958.060   124276081.070    23648964.160    92803559.180  
> 2021  1  5 21 14  2.0000000  0 14       0.000000000000
G 3  24352388.780   127972588.0432   24352392.760    95563937.4692 
G 4  21363874.980   112267898.262    21363878.280    83836425.523  
G 7  21345421.680   112170942.492                                  
G 8  23548480.440   123748015.262    23548482.780    92409224.219  
G 9  20308976.300   106724346.117    20308977.260    79696754.859  
G16  22882117.320   120246326.031                                  
G27  23317896.000   122536306.078    23317897.560    91504381.820  
G30  23171670.320   121767881.516    23171672.680    90930557.375  
E 2  24218088.220   127266885.449    24218093.660    95036950.746  
E 3  23349654.500   122703233.031    23349660.440    91629030.469  
E 5  25754089.880   135338612.805    25754096.840   101064537.590  
E 8  23571750.180   123870366.004    23571754.980    92500590.820  
E24  27284164.560   143379234.520    27284183.060   107068920.270  
E25  23649116.060   124276911.313    23649122.160    92804179.164  
> 2021  1  5 21 14  3.0000000  0 14       0.000000000000
G 3  24353100.060   127976325.8832   24353104.040    95566728.7112 
G 4  21364212.000   112269669.273    21364215.300    83837748.031  
G 7  21345229.200   112169931.051                                  
G 8  23547969.340   123745329.441    23547971.680    92407218.574  
G 9  20308900.460   106723947.520    20308901.400    79696457.203  
G16  22882717.700   120249481.035                                  
G27  23317652.060   122535024.133    23317653.620    91503424.523  
G30  23171236.740   121765603.102    23171239.120    90928855.965  
E 2  24217748.440   127265099.965    24217753.900    95035617.434  
E 3  23349664.660   122703286.430    23349670.600    91629070.348  
E 5  25754517.460   135340859.785    25754524.420   101066215.531  
E 8  23571328.460   123868149.867    23571333.280    92498935.914  
E24  27284677.300   143381928.961    27284695.800   107070932.355  
E25  23649274.120   124277741.910    23649280.220    92804799.418  
> 2021  1  5 21 14  4.0000000  0 14       0.000000000000
G 3  24353811.340   127980063.7112   24353815.320    95569519.9452 
G 4  21364549.080   112271440.672    21364552.380    83839070.824  
G 7  21345036.780   112168919.816                                  
G 8  23547458.300   123742643.848    23547460.620    92405213.102  
G 9  20308824.680   106723549.359    20308825.640    79696159.875  
G16  22883318.160   120252636.414                                  
G27  23317408.220   122533742.723    23317409.780    91502467.629  
G30  23170803.220   121763324.852    23170805.580    90927154.672  
E 2  24217408.740   127263314.801    24217414.200    95034284.355  
E 3  23349674.880   122703340.168    23349680.840    91629110.473  
E 5  25754945.100   135343106.988    25754952.060   101067893.637  
E 8  23570906.780   123865933.852    23570911.580    92497281.098  
E24  27285190.040   143384623.461    27285208.560   107072944.477  
E25  23649432.240   124278572.852    23649438.340    92805419.926  
> 2021  1  5 21 14  5.0000000  0 14       0.000000000000
G 3  24354522.640   127983801.5592   24354526.620    95572311.1952 
G 4  21364886.240   112273212.453    21364889.540    83840393.910  
G 7  21344844.380   112167908.793                                  
G 8  23546947.280   123739958.492    23546949.620    92403207.805  
G 9  20308749.000   106723151.656    20308749.960    79695862.891  
G16  22883918.680   120255792.168                                  
G27  23317164.460   122532461.844    23317166.020    91501511.129  
G30  23170369.700   121761046.777    23170372.080    90925453.516  
E 2  24217069.100   127261529.969    24217074.560    95032951.527  
E 3  23349685.180   122703394.254    23349691.120    91629150.863  
E 5  25755372.780   135345354.430    25755379.740   101069571.922  
E 8  23570485.100   123863717.988    23570489.920    92495626.395  
E24  27285702.800   143387318.027    27285721.320   107074956.656  
E25  23649590.420   124279404.156    23649596.520    92806040.707  
> 2021  1  5 21 14  7.0000000  0 14       0.000000000000
G 3  24355945.220   127991277.2972   24355949.200    95577893.7232 
G 4  21365560.780   112276757.195    21365564.080    83843040.957  
G 7  21344459.720   112165887.379                                  
G 8  23545925.400   123734588.426    23545927.720    92399197.695  
G 9  20308597.900   106722357.617    20308598.860    79695269.938  
G16  22885119.940   120262104.813                                  
G27  23316677.300   122529901.734    23316678.860    91499599.359  
G30  23169502.800   121756491.129    23169505.160    90922051.570  
E 2  24216390.000   127257961.313    24216395.460    95030286.625  
E 3  23349705.960   122703503.465    23349711.900    91629232.418  
E 5  25756228.240   135349849.996    25756235.220   101072928.996  
E 8  23569641.860   123859286.676    23569646.660    92492317.301  
E24  27286728.360   143392707.379    27286746.880   107078981.164  
E25  23649907.020   124281067.824    23649913.120    92807283.055  
> 2021  1  5 21 14  8.0000000  0 14       0.000000000000
G 3  24356656.520   127995015.1992   24356660.500    95580685.0122 
G 4  21365898.160   112278530.148    21365901.460    83844364.914  
G 7  21344267.440   112164876.969                                  
G 8  23545414.500   123731903.707    23545416.840    92397192.871  
G 9  20308522.480   106721961.281    20308523.440    79694973.973  
G16  22885720.660   120265261.691                                  
G27  23316433.860   122528622.496    23316435.420    91498644.086  
G30  23169069.380   121754213.539    23169071.760    90920350.773  
E 2  24216050.560   127256177.477    24216056.000    95028954.539  
E 3  23349716.440   122703558.578    23349722.400    91629273.570  
E 5  25756656.060   135352098.121    25756663.020   101074607.789  
E 8  23569220.260   123857071.207    23569225.080    92490662.891  
E24  27287241.160   143395402.145    27287259.680   107080993.492  
E25  23650065.400   124281900.184    23650071.500    92807904.621  
> 2021  1  5 21 14  9.0000000  0 14       0.000000000000
G 3  24357367.820   127998753.0902   24357371.800    95583476.2932 
G 4  21366235.620   112280303.500    21366238.920    83845689.172  
G 7  21344075.200   112163866.777                                  
G 8  23544903.660   123729219.215    23544906.000    92395188.219  
G 9  20308447.160   106721565.391    20308448.100    79694678.340  
G16  22886321.480   120268418.949                                  
G27  23316190.540   122527343.805    23316192.100    91497689.219  
G30  23168636.000   121751936.121    23168638.380    90918650.105  
E 2  24215711.160   127254393.980    24215716.620    95027622.707  
E 3  23349727.000   122703614.047    23349732.940    91629314.996  
E 5  25757083.900   135354346.477    25757090.860   101076286.754  
E 8  23568798.700   123854855.898    23568803.520    92489008.602  
E24  27287753.980   143398096.980    27287772.480   107083005.867  
E25  23650223.860   124282732.910    23650229.980    92808526.461  
> 2021  1  5 21 14 10.0000000  0 14       0.000000000000
G 3  24358079.120   128002491.0042   24358083.100    95586267.5902 
G 4  21366573.140   112282077.227    21366576.460    83847013.707  
G 7  21343883.020   112162856.781                                  
G 8  23544392.860   123726534.953    23544395.200    92393183.742  
G 9  20308371.900   106721169.945    20308372.840    79694383.039  
G16  22886922.360   120271576.586                                  
G27  23315947.320   122526065.656    23315948.880    91496734.758  
G30  23168202.660   121749658.867    23168205.020    90916949.559  
E 2  24215371.840   127252610.820    24215377.300    95026291.129  
E 3  23349737.620   122703669.859    23349743.560    91629356.672  
E 5  25757511.800   135356595.066    25757518.760   101077965.895  
E 8  23568377.180   123852640.730    23568381.980    92487354.422  
E24  27288266.800   143400791.8832   27288285.300   107085018.2932 
E25  23650382.400   124283565.980    23650388.500    92809148.559  
> 2021  1  5 21 14 11.0000000  0 14       0.000000000000
G 3  24358790.440   128006228.9182   24358794.420    95589058.8872 
G 4  21366910.760   112283851.352    21366914.060    83848338.539  
G 7  21343690.860   112161846.992                                  
G 8  23543882.100   123723850.895    23543884.440    92391179.414  
G 9  20308296.740   106720774.953    20308297.680    79694088.078  
G16  22887523.300   120274734.586                                  
G27  23315704.200   122524788.059    23315705.760    91495780.711  
G30  23167769.340   121747381.770    23167771.700    90915249.133  
E 2  24215032.580   127250827.984    24215038.020    95024959.789  
E 3  23349748.300   122703726.008    23349754.260    91629398.602  
E 5  25757939.740   135358843.883    25757946.700   101079645.203  
E 8  23567955.660   123850425.691    23567960.460    92485700.332  
E24  27288779.640   143403486.8522   27288798.140   107087030.7662 
E25  23650540.980   124284399.398    23650547.100    92809770.918  
> 2021  1  5 21 14 12.0000000  0 14       0.000000000000
G 3  24359501.740   128009966.8522   24359505.720    95591850.1992 
G 4  21367248.440   112285625.867    21367251.740    83849663.664  
G 7  21343498.740   112160837.410                                  
G 8  23543371.380   123721167.063    23543373.720    92389175.258  
G 9  20308221.660   106720380.402    20308222.600    79693793.449  
G16  22888124.320   120277892.969                                  
G27  23315461.180   122523511.000    23315462.740    91494827.063  
G30  23167336.060   121745104.840    23167338.420    90913548.828  
E 2  24214693.380   127249045.477    24214698.820    95023628.695  
E 3  23349759.060   122703782.508    23349765.000    91629440.793  
E 5  25758367.720   135361092.922    25758374.680   101081324.680  
E 8  23567534.180   123848210.789    23567538.980    92484046.348  
E24  27289292.480   143406181.8912   27289311.000   107089043.2972 
E25  23650699.660   124285233.176    23650705.760    92810393.543  
> 2021  1  5 21 14 13.0000000  0 14       0.000000000000
G 3  24360213.040   128013704.8012   24360217.020    95594641.5202 
G 4  21367586.180   112287400.773    21367589.480    83850989.078  
G 7  21343306.660   112159828.043                                  
G 8  23542860.720   123718483.461    23542863.040    92387171.270  
G 9  20308146.660   106719986.328    20308147.620    79693499.172  
G16  22888725.420   120281051.727                                  
G27  23315218.260   122522234.484    23315219.820    91493873.824  
G30  23166902.800   121742828.066    23166905.160    90911848.641  
E 2  24214354.240   127247263.316    24214359.700    95022297.859  
E 3  23349769.880   122703839.359    23349775.820    91629483.246  
E 5  25758795.740   135363342.215    25758802.700   101083004.348  
E 8  23567112.720   123845996.039    23567117.540    92482392.477  
E24  27289805.340   143408876.9962   27289823.860   107091055.8712 
E25  23650858.380   124286067.316    23650864.480    92811016.441  
> 2021  1  5 21 14 14.0000000  0 14       0.000000000000
G 3  24360924.360   128017442.7702   24360928.340    95597432.8592 
G 4  21367924.020   112289176.070    21367927.320    83852314.789  
G 7  21343114.620   112158818.879                                  
G 8  23542350.080   123715800.078    23542352.420    92385167.445  
G 9  20308071.760   106719592.691    20308072.700    79693205.223  
G16  22889326.580   120284210.863                                  
G27  23314975.460   122520958.520    23314977.020    91492920.992  
G30  23166469.580   121740551.457    23166471.940    90910148.578  
E 2  24214015.160   127245481.477    24214020.620    95020967.270  
E 3  23349780.760   122703896.543    23349786.700    91629525.949  
E 5  25759223.800   135365591.719    25759230.780   101084684.172  
E 8  23566691.300   123843781.418    23566696.100    92480738.703  
E24  27290318.220   143411572.1682   27290336.720   107093068.5002 
E25  23651017.180   124286901.809    23651023.280    92811639.602  
> 2021  1  5 21 14 15.0000000  0 14       0.000000000000
G 3  24361635.680   128021180.7302   24361639.660    95600224.1912 
G 4  21368261.920   112290951.750    21368265.220    83853640.781  
G 7  21342922.620   112157809.910                                  
G 8  23541839.500   123713116.922    23541841.820    92383163.793  
G 9  20307996.940   106719199.520    20307997.880    79692911.621  
G16  22889927.820   120287370.375                                  
G27  23314732.760   122519683.105    23314734.300    91491968.574  
G30  23166036.380   121738275.031    23166038.740    90908448.648  
E 2  24213676.160   127243699.988    24213681.620    95019636.938  
E 3  23349791.720   122703954.090    23349797.660    91629568.922  
E 5  25759651.920   135367841.465    25759658.880   101086364.176  
E 8  23566269.900   123841566.941    23566274.700    92479085.035  
E24  27290831.120   143414267.4222   27290849.620   107095081.1882 
E25  23651176.040   124287736.648    23651182.160    92812263.020  
> 2021  1  5 21 14 16.0000000  0 14       0.000000000000
G 3  24362346.980   128024918.7112   24362350.980    95603015.5392 
G 4  21368599.900   112292727.832    21368603.200    83854967.078  
G 7  21342730.660   112156801.152                                  
G 8  23541328.960   123710434.031    23541331.280    92381160.336  
G 9  20307922.200   106718806.793    20307923.160    79692618.348  
G16  22890529.120   120290530.262                                  
G27  23314490.160   122518408.234    23314491.700    91491016.559  
G30  23165603.220   121735998.754    23165605.580    90906748.832  
E 2  24213337.220   127241918.816    24213342.660    95018306.844  
E 3  23349802.720   122704011.980    23349808.680    91629612.152  
E 5  25760080.080   135370091.445    25760087.040   101088044.352  
E 8  23565848.520   123839352.609    23565853.320    92477431.477  
E24  27291344.020   143416962.7232   27291362.520   107097093.9102 
E25  23651334.980   124288571.848    23651341.080    92812886.703  
> 2021  1  5 21 14 17.0000000  0 14       0.000000000000
G 3  24363058.300   128028656.7072   24363062.280    95605806.8982 
G 4  21368937.940   112294504.293    21368941.240    83856293.656  
G 7  21342538.740   112155792.590                                  
G 8  23540818.460   123707751.344    23540820.780    92379157.035  
G 9  20307847.560   106718414.516    20307848.500    79692325.418  
G16  22891130.500   120293690.520                                  
G27  23314247.660   122517133.887    23314249.200    91490064.938  
G30  23165170.100   121733722.652    23165172.460    90905049.148  
E 2  24212998.340   127240137.980    24213003.780    95016976.996  
E 3  23349813.800   122704070.199    23349819.760    91629655.629  
E 5  25760508.280   135372341.648    25760515.240   101089724.695  
E 8  23565427.180   123837138.414    23565431.980    92475778.020  
E24  27291856.920   143419658.0862   27291875.440   107099106.6842 
E25  23651493.980   124289407.387    23651500.080    92813510.648  
> 2021  1  5 21 14 18.0000000  0 14       0.000000000000
G 3  24363769.620   128032394.7032   24363773.600    95608598.2582 
G 4  21369276.060   112296281.145    21369279.380    83857620.523  
G 7  21342346.860   112154784.242                                  
G 8  23540308.000   123705068.879    23540310.320    92377153.895  
G 9  20307773.000   106718022.695    20307773.940    79692032.824  
G16  22891731.940   120296851.160                                  
G27  23314005.260   122515860.094    23314006.820    91489113.727  
G30  23164737.000   121731446.703    23164739.360    90903349.578  
E 2  24212659.520   127238357.469    24212664.960    95015647.395  
E 3  23349824.960   122704128.781    23349830.900    91629699.371  
E 5  25760936.520   135374592.078    25760943.480   101091405.211  
E 8  23565005.860   123834924.352    23565010.660    92474124.664  
E24  27292369.840   143422353.5232   27292388.360   107101119.5082 
E25  23651653.040   124290243.285    23651659.140    92814134.855  
> 2021  1  5 21 14 19.0000000  0 14       0.000000000000
G 3  24364480.940   128036132.7232   24364484.940    95611389.6372 
G 4  21369614.260   112298058.391    21369617.560    83858947.688  
G 7  21342155.020   112153776.098                                  
G 8  23539797.580   123702386.633    23539799.920    92375150.918  
G 9  20307698.520   106717631.313    20307699.460    79691740.559  
G16  22892333.460   120300012.164                                  
G27  23313762.960   122514586.852    23313764.520    91488162.930  
G30  23164303.920   121729170.910    23164306.280    90901650.121  
E 2  24212320.760   127236577.293    24212326.200    95014318.043  
E 3  23349836.160   122704187.699    23349842.120    91629743.371  
E 5  25761364.800   135376842.742    25761371.780   101093085.902  
E 8  23564584.560   123832710.418    23564589.360    92472471.398  
E24  27292882.780   143425049.0232   27292901.300   107103132.3792 
E25  23651812.180   124291079.539    23651818.280    92814759.332  
> 2021  1  5 21 14 20.0000000  0 14       0.000000000000
G 3  24365192.260   128039870.7422   24365196.260    95614181.0122 
G 4  21369952.540   112299836.027    21369955.840    83860275.145  
G 7  21341963.200   112152768.160                                  
G 8  23539287.200   123699704.598    23539289.540    92373148.102  
G 9  20307624.140   106717240.398    20307625.080    79691448.641  
G16  22892935.060   120303173.543                                  
G27  23313520.780   122513314.148    23313522.340    91487212.539  
G30  23163870.880   121726895.297    23163873.260    90899950.801  
E 2  24211982.060   127234797.457    24211987.520    95012988.945  
E 3  23349847.440   122704246.961    23349853.380    91629787.625  
E 5  25761793.140   135379093.633    25761800.100   101094766.762  
E 8  23564163.280   123830496.637    23564168.100    92470818.254  
E24  27293395.740   143427744.5862   27293414.240   107105145.3012 
E25  23651971.380   124291916.148    23651977.480    92815384.074  
> 2021  1  5 21 14 21.0000000  0 14       0.000000000000
G 3  24365903.600   128043608.7732   24365907.580    95616972.3982 
G 4  21370290.880   112301614.051    21370294.180    83861602.887  
G 7  21341771.440   112151760.430                                  
G 8  23538776.880   123697022.785    23538779.200    92371145.453  
G 9  20307549.820   106716849.941    20307550.780    79691157.063  
G16  22893536.720   120306335.305                                  
G27  23313278.700   122512041.996    23313280.240    91486262.555  
G30  23163437.880   121724619.852    23163440.240    90898251.605  
E 2  24211643.440   127233017.957    24211648.880    95011660.098  
E 3  23349858.780   122704306.574    23349864.740    91629832.145  
E 5  25762221.520   135381344.762    25762228.480   101096447.797  
E 8  23563742.040   123828282.992    23563746.840    92469165.207  
E24  27293908.700   143430440.2272   27293927.200   107107158.2772 
E25  23652130.640   124292753.117    23652136.760    92816009.082  
> 2021  1  5 21 14 22.0000000  0 14       0.000000000000
G 3  24366614.920   128047346.8162   24366618.900    95619763.7892 
G 4  21370629.300   112303392.461    21370632.620    83862930.922  
G 7  21341579.720   112150752.910                                  
G 8  23538266.580   123694341.180    23538268.900    92369142.957  
G 9  20307475.620   106716459.926    20307476.560    79690865.820  
G16  22894138.460   120309497.457                                  
G27  23313036.720   122510770.395    23313038.280    91485312.980  
G30  23163004.900   121722344.559    23163007.280    90896552.523  
E 2  24211304.880   127231238.789    24211310.320    95010331.500  
E 3  23349870.200   122704366.531    23349876.140    91629876.914  
E 5  25762649.940   135383596.109    25762656.900   101098128.996  
E 8  23563320.820   123826069.488    23563325.640    92467512.266  
E24  27294421.680   143433135.9262   27294440.180   107109171.2972 
E25  23652289.980   124293590.434    23652296.100    92816634.352  
> 2021  1  5 21 14 23.0000000  0 14       0.000000000000
G 3  24367326.260   128051084.8712   24367330.240    95622555.1912 
G 4  21370967.800   112305171.266    21370971.100    83864259.250  
G 7  21341388.040   112149745.594                                  
G 8  23537756.340   123691659.809    23537758.660    92367140.637  
G 9  20307401.480   106716070.371    20307402.440    79690574.918  
G16  22894740.280   120312659.984                                  
G27  23312794.840   122509499.336    23312796.400    91484363.816  
G30  23162571.960   121720069.438    23162574.340    90894853.570  
E 2  24210966.380   127229459.945    24210971.820    95009003.145  
E 3  23349881.680   122704426.836    23349887.620    91629921.949  
E 5  25763078.400   135385847.695    25763085.360   101099810.375  
E 8  23562899.640   123823856.125    23562904.440    92465859.430  
E24  27294934.660   143435831.6992   27294953.180   107111184.3712 
E25  23652449.380   124294428.090    23652455.500    92817259.875  
> 2021  1  5 21 14 24.0000000  0 14       0.000000000000
G 3  24368037.580   128054822.9452   24368041.580    95625346.6092 
G 4  21371306.380   112306950.457    21371309.680    83865587.863  
G 7  21341196.380   112148738.488                                  
G 8  23537246.120   123688978.664    23537248.460    92365138.484  
G 9  20307327.440   106715681.270    20307328.380    79690284.355  
G16  22895342.140   120315822.883                                  
G27  23312553.060   122508228.813    23312554.620    91483415.047  
G30  23162139.060   121717794.465    23162141.420    90893154.727  
E 2  24210627.940   127227681.438    24210633.380    95007675.035  
E 3  23349893.220   122704487.488    23349899.160    91629967.238  
E 5  25763506.900   135388099.504    25763513.880   101101491.922  
E 8  23562478.480   123821642.891    23562483.280    92464206.691  
E24  27295447.660   143438527.5232   27295466.180   107113197.4882 
E25  23652608.860   124295266.109    23652614.960    92817885.668  
> 2021  1  5 21 14 25.0000000  0 14       0.000000000000
G 3  24368748.920   128058561.0272   24368752.900    95628138.0352 
G 4  21371645.020   112308730.039    21371648.320    83866916.773  
G 7  21341004.780   112147731.578                                  
G 8  23536735.960   123686297.730    23536738.280    92363136.488  
G 9  20307253.480   106715292.613    20307254.420    79689994.125  
G16  22895944.100   120318986.160                                  
G27  23312311.400   122506958.836    23312312.960    91482466.691  
G30  23161706.180   121715519.668    23161708.540    90891456.016  
E 2  24210289.560   127225903.262    24210295.000    95006347.180  
E 3  23349904.820   122704548.477    23349910.760    91630012.781  
E 5  25763935.460   135390351.547    25763942.420   101103173.641  
E 8  23562057.340   123819429.820    23562062.140    92462554.074  
E24  27295960.680   143441223.4302   27295979.180   107115210.6602 
E25  23652768.400   124296104.480    23652774.500    92818511.723  
> 2021  1  5 21 14 26.0000000  0 14       0.000000000000
G 3  24369460.260   128062299.1172   24369464.240    95630929.4612 
G 4  21371983.740   112310510.008    21371987.040    83868245.969  
G 7  21340813.220   112146724.879                                  
G 8  23536225.840   123683617.035    23536228.160    92361134.672  
G 9  20307179.600   106714904.406    20307180.560    79689704.230  
G16  22896546.120   120322149.801                                  
G27  23312069.840   122505689.406    23312071.380    91481518.742  
G30  23161273.320   121713245.039    23161275.680    90889757.430  
E 2  24209951.240   127224125.418    24209956.700    95005019.566  
E 3  23349916.500   122704609.820    23349922.440    91630058.594  
E 5  25764364.040   135392603.820    25764371.020   101104855.531  
E 8  23561636.220   123817216.863    23561641.020    92460901.543  
E24  27296473.700   143443919.3872   27296492.220   107117223.8792 
E25  23652928.000   124296943.211    23652934.100    92819138.047  
> 2021  1  5 21 14 27.0000000  0 14       0.000000000000
G 3  24370171.600   128066037.2192   24370175.580    95633720.8982 
G 4  21372322.520   112312290.371    21372325.820    83869575.461  
G 7  21340621.680   112145718.387                                  
G 8  23535715.760   123680936.5782   23535718.080    92359133.0352 
G 9  20307105.820   106714516.652    20307106.760    79689414.672  
G16  22897148.220   120325313.813                                  
G27  23311828.380   122504420.523    23311829.920    91480571.199  
G30  23160840.520   121710970.578    23160842.880    90888058.973  
E 2  24209613.000   127222347.918    24209618.440    95003692.215  
E 3  23349928.240   122704671.508    23349934.180    91630104.656  
E 5  25764792.680   135394856.320    25764799.660   101106537.590  
E 8  23561215.140   123815004.063    23561219.940    92459249.125  
E24  27296986.740   143446615.4022   27297005.240   107119237.1332 
E25  23653087.660   124297782.289    23653093.780    92819764.633  
> 2021  1  5 21 14 28.0000000  0 14       0.000000000000
G 3  24370882.940   128069775.3362   24370886.920    95636512.3482 
G 4  21372661.400   112314071.125    21372664.700    83870905.246  
G 7  21340430.180   112144712.094                                  
G 8  23535205.740   123678256.3482   23535208.060    92357131.5662 
G 9  20307032.120   106714129.363    20307033.080    79689125.465  
G16  22897750.380   120328478.195                                  
G27  23311587.020   122503152.195    23311588.580    91479624.074  
G30  23160407.720   121708696.270    23160410.080    90886360.625  
E 2  24209274.800   127220570.742    24209280.260    95002365.102  
E 3  23349940.040   122704733.543    23349945.980    91630150.980  
E 5  25765221.360   135397109.063    25765228.340   101108219.828  
E 8  23560794.080   123812791.398    23560798.900    92457596.813  
E24  27297499.800   143449311.5202   27297518.300   107121250.4652 
E25  23653247.400   124298621.719    23653253.520    92820391.480  
> 2021  1  5 21 14 29.0000000  0 14       0.000000000000
G 3  24371594.280   128073513.4612   24371598.260    95639303.8052 
G 4  21373000.340   112315852.262    21373003.640    83872235.313  
G 7  21340238.740   112143706.008                                  
G 8  23534695.740   123675576.3442   23534698.060    92355130.2662 
G 9  20306958.500   106713742.520    20306959.460    79688836.590  
G16  22898352.620   120331642.953                                  
G27  23311345.760   122501884.402    23311347.320    91478677.344  
G30  23159974.960   121706422.109    23159977.320    90884662.391  
E 2  24208936.680   127218793.895    24208942.140    95001038.238  
E 3  23349951.900   122704795.918    23349957.860    91630197.563  
E 5  25765650.100   135399362.012    25765657.060   101109902.227  
E 8  23560373.060   123810578.863    23560377.860    92455944.598  
E24  27298012.860   143452007.6722   27298031.360   107123263.8282 
E25  23653407.220   124299461.504    23653413.320    92821018.590  
> 2021  1  5 21 14 30.0000000  0 14       0.000000000000
G 3  24372305.620   128077251.5822   24372309.600    95642095.2582 
G 4  21373339.340   112317633.797    21373342.640    83873565.680  
G 7  21340047.320   112142700.129                                  
G 8  23534185.800   123672896.5592   23534188.120    92353129.1292 
G 9  20306884.980   106713356.125    20306885.920    79688548.047  
G16  22898954.920   120334808.082                                  
G27  23311104.620   122500617.156    23311106.160    91477731.023  
G30  23159542.240   121704148.133    23159544.600    90882964.289  
E 2  24208598.620   127217017.383    24208604.080    94999711.621  
E 3  23349963.840   122704858.633    23349969.780    91630244.391  
E 5  25766078.860   135401615.207    25766085.820   101111584.805  
E 8  23559952.060   123808366.473    23559956.860    92454292.488  
E24  27298525.920   143454703.8952   27298544.440   107125277.2382 
E25  23653567.080   124300301.637    23653573.200    92821645.961  
> 2021  1  5 21 14 31.0000000  0 14       0.000000000000
G 3  24373016.960   128080989.7382   24373020.960    95644886.7342 
G 4  21373678.440   112319415.715    21373681.740    83874896.332  
G 7  21339855.960   112141694.449                                  
G 8  23533675.900   123670217.0122   23533678.220    92351128.1682 
G 9  20306811.540   106712970.184    20306812.480    79688259.844  
G16  22899557.300   120337973.578                                  
G27  23310863.580   122499350.469    23310865.120    91476785.125  
G30  23159109.540   121701874.320    23159111.900    90881266.316  
E 2  24208260.640   127215241.207    24208266.080    94998385.258  
E 3  23349975.840   122704921.699    23349981.780    91630291.488  
E 5  25766507.680   135403868.645    25766514.640   101113267.566  
E 8  23559531.080   123806154.223    23559535.880    92452640.484  
E24  27299039.020   143457400.1952   27299057.540   107127290.7072 
E25  23653727.020   124301142.125    23653733.140    92822273.602  
> 2021  1  5 21 14 32.0000000  0 14       0.000000000000
G 3  24373728.320   128084727.8752   24373732.300    95647678.1992 
G 4  21374017.600   112321198.023    21374020.900    83876227.277  
G 7  21339664.620   112140688.977                                  
G 8  23533166.040   123667537.6842   23533168.360    92349127.3752 
G 9  20306738.180   106712584.699    20306739.120    79687971.980  
G16  22900159.740   120341139.445                                  
G27  23310622.640   122498084.324    23310624.180    91475839.625  
G30  23158676.880   121699600.672    23158679.240    90879568.461  
E 2  24207922.700   127213465.359    24207928.140    94997059.137  
E 3  23349987.900   122704985.113    23349993.860    91630338.844  
E 5  25766936.540   135406122.293    25766943.500   101114950.484  
E 8  23559110.120   123803942.113    23559114.920    92450988.586  
E24  27299552.120   143460096.5512   27299570.640   107129304.2192 
E25  23653887.040   124301982.965    23653893.140    92822901.500  
> 2021  1  5 21 14 33.0000000  0 14       0.000000000000
G 3  24374439.660   128088466.0312   24374443.660    95650469.6762 
G 4  21374356.840   112322980.727    21374360.140    83877558.516  
G 7  21339473.320   112139683.719                                  
G 8  23532656.220   123664858.5902   23532658.540    92347126.7542 
G 9  20306664.900   106712199.660    20306665.860    79687684.453  
G16  22900762.260   120344305.695                                  
G27  23310381.800   122496818.715    23310383.340    91474894.531  
G30  23158244.260   121697327.188    23158246.620    90877870.730  
E 2  24207584.840   127211689.855    24207590.280    94995733.273  
E 3  23350000.040   122705048.871    23350005.980    91630386.453  
E 5  25767365.440   135408376.180    25767372.400   101116633.582  
E 8  23558689.200   123801730.141    23558694.000    92449336.789  
E24  27300065.240   143462792.9842   27300083.740   107131317.7892 
E25  23654047.100   124302824.164    23654053.220    92823529.668  
> 2021  1  5 21 14 34.0000000  0 14       0.000000000000
G 3  24375151.020   128092204.2112   24375155.000    95653261.1762 
G 4  21374696.140   112324763.809    21374699.440    83878890.035  
G 7  21339282.060   112138678.652                                  
G 8  23532146.440   123662179.7112   23532148.760    92345126.2932 
G 9  20306591.720   106711815.090    20306592.680    79687397.273  
G16  22901364.840   120347472.305                                  
G27  23310141.060   122495553.660    23310142.620    91473949.844  
G30  23157811.660   121695053.859    23157814.020    90876173.113  
E 2  24207247.020   127209914.688    24207252.480    94994407.660  
E 3  23350012.240   122705112.984    23350018.180    91630434.332  
E 5  25767794.380   135410630.273    25767801.340   101118316.832  
E 8  23558268.300   123799518.309    23558273.100    92447685.098  
E24  27300578.360   143465489.4692   27300596.880   107133331.3952 
E25  23654207.240   124303665.715    23654213.360    92824158.098  
> 2021  1  5 21 14 35.0000000  0 14       0.000000000000
G 3  24375862.360   128095942.4022   24375866.360    95656052.6762 
G 4  21375035.520   112326547.293    21375038.840    83880221.859  
G 7  21339090.840   112137673.805                                  
G 8  23531636.720   123659501.0472   23531639.040    92343125.9962 
G 9  20306518.640   106711430.973    20306519.580    79687110.434  
G16  22901967.500   120350639.297                                  
G27  23309900.440   122494289.148    23309901.980    91473005.566  
G30  23157379.080   121692780.699    23157381.440    90874475.625  
E 2  24206909.280   127208139.840    24206914.740    94993082.289  
E 3  23350024.500   122705177.438    23350030.460    91630482.461  
E 5  25768223.360   135412884.629    25768230.340   101120000.277  
E 8  23557847.440   123797306.629    23557852.240    92446033.520  
E24  27301091.500   143468186.0232   27301110.020   107135345.0552 
E25  23654367.460   124304507.617    23654373.560    92824786.789  
> 2021  1  5 21 14 36.0000000  0 14       0.000000000000
G 3  24376573.720   128099680.5862   24376577.720    95658844.1762 
G 4  21375374.980   112328331.164    21375378.300    83881553.973  
G 7  21338899.660   112136669.156                                  
G 8  23531127.020   123656822.6052   23531129.340    92341125.8592 
G 9  20306445.620   106711047.297    20306446.580    79686823.922  
G16  22902570.220   120353806.648                                  
G27  23309659.900   122493025.176    23309661.460    91472061.691  
G30  23156946.560   121690507.711    23156948.920    90872778.266  
E 2  24206571.600   127206365.340    24206577.060    94991757.176  
E 3  23350036.840   122705242.234    23350042.780    91630530.848  
E 5  25768652.400   135415139.191    25768659.360   101121683.879  
E 8  23557426.580   123795095.086    23557431.380    92444382.043  
E24  27301604.640   143470882.6482   27301623.160   107137358.7662 
E25  23654527.740   124305349.871    23654533.840    92825415.746  
> 2021  1  5 21 14 38.0000000  0 14       0.000000000000
G 3  24377996.440   128107156.9802   24378000.420    95664427.1952 
G 4  21376054.120   112331900.074    21376057.440    83884219.063  
G 7  21338517.440   112134660.492                                  
G 8  23530107.780   123651466.4222   23530110.080    92337126.1172 
G 9  20306299.860   106710281.313    20306300.800    79686251.922  
G16  22903775.900   120360142.469                                  
G27  23309179.160   122490498.883    23309180.720    91470175.176  
G30  23156081.560   121685962.203    23156083.920    90869383.895  
E 2  24205896.440   127202817.316    24205901.900    94989107.680  
E 3  23350061.700   122705372.879    23350067.640    91630628.410  
E 5  25769510.600   135419649.047    25769517.560   101125051.625  
E 8  23556584.980   123790672.402    23556589.780    92441079.383  
E24  27302630.980   143476276.0902   27302649.500   107141386.3362 
E25  23654848.480   124307035.438    23654854.600    92826674.449  
> 2021  1  5 21 14 39.0000000  0 14       0.000000000000
G 3  24378707.800   128110895.2072   24378711.800    95667218.7272 
G 4  21376393.820   112333685.109    21376397.120    83885552.047  
G 7  21338326.380   112133656.465                                  
G 8  23529598.220   123648788.6882   23529600.540    92335126.5122 
G 9  20306227.100   106709899.008    20306228.060    79685966.434  
G16  22904378.840   120363310.945                                  
G27  23308938.960   122489236.566    23308940.500    91469232.539  
G30  23155649.120   121683689.703    23155651.480    90867686.898  
E 2  24205558.960   127201043.809    24205564.400    94987783.309  
E 3  23350074.220   122705438.727    23350080.180    91630677.578  
E 5  25769939.760   135421904.313    25769946.720   101126735.754  
E 8  23556164.220   123788461.273    23556169.020    92439428.219  
E24  27303144.180   143478972.9062   27303162.680   107143400.1882 
E25  23655008.960   124307878.750    23655015.060    92827304.195  
> 2021  1  5 21 14 40.0000000  0 14       0.000000000000
G 3  24379419.160   128114633.4382   24379423.160    95670010.2622 
G 4  21376733.560   112335470.539    21376736.880    83886885.320  
G 7  21338135.340   112132652.641                                  
G 8  23529088.700   123646111.1642   23529091.020    92333127.0662 
G 9  20306154.440   106709517.148    20306155.400    79685681.281  
G16  22904981.840   120366479.785                                  
G27  23308698.840   122487974.789    23308700.400    91468290.301  
G30  23155216.720   121681417.359    23155219.080    90865990.020  
E 2  24205221.540   127199270.648    24205226.980    94986459.195  
E 3  23350086.820   122705504.914    23350092.760    91630727.008  
E 5  25770368.960   135424159.809    25770375.940   101128420.051  
E 8  23555743.480   123786250.285    23555748.280    92437777.156  
E24  27303657.380   143481669.7812   27303675.880   107145414.0942 
E25  23655169.500   124308722.422    23655175.620    92827934.211  
> 2021  1  5 21 14 41.0000000  0 14       0.000000000000
G 3  24380130.520   128118371.6722   24380134.520    95672801.7972 
G 4  21377073.400   112337256.355    21377076.700    83888218.883  
G 7  21337944.360   112131649.012                                  
G 8  23528579.220   123643433.8482   23528581.540    92331127.7732 
G 9  20306081.860   106709135.742    20306082.820    79685396.465  
G16  22905584.920   120369648.996                                  
G27  23308458.840   122486713.547    23308460.400    91467348.469  
G30  23154784.340   121679145.191    23154786.700    90864293.273  
E 2  24204884.160   127197497.797    24204889.620    94985135.316  
E 3  23350099.480   122705571.438    23350105.420    91630776.688  
E 5  25770798.220   135426415.527    25770805.180   101130104.516  
E 8  23555322.760   123784039.441    23555327.560    92436126.203  
E24  27304170.580   143484366.7272   27304189.100   107147428.0432 
E25  23655330.120   124309566.434    23655336.220    92828564.480  
> 2021  1  5 21 14 42.0000000  0 14       0.000000000000
G 3  24380841.900   128122109.9262   24380845.880    95675593.3482 
G 4  21377413.300   112339042.563    21377416.600    83889552.738  
G 7  21337753.420   112130645.609                                  
G 8  23528069.780   123640756.7732   23528072.100    92329128.6602 
G 9  20306009.380   106708754.785    20306010.320    79685111.980  
G16  22906188.080   120372818.582                                  
G27  23308218.940   122485452.867    23308220.500    91466407.051  
G30  23154351.980   121676873.172    23154354.340    90862596.633  
E 2  24204546.880   127195725.289    24204552.320    94983811.691  
E 3  23350112.200   122705638.320    23350118.160    91630826.629  
E 5  25771227.500   135428671.465    25771234.480   101131789.141  
E 8  23554902.080   123781828.734    23554906.880    92434475.352  
E24  27304683.800   143487063.7382   27304702.320   107149442.0432 
E25  23655490.800   124310410.805    23655496.900    92829195.016  
> 2021  1  5 21 14 43.0000000  0 14       0.000000000000
G 3  24381553.260   128125848.1802   24381557.260    95678384.9022 
G 4  21377753.280   112340829.152    21377756.580    83890886.883  
G 7  21337562.520   112129642.398                                  
G 8  23527560.400   123638079.9222   23527562.720    92327129.7152 
G 9  20305936.960   106708374.289    20305937.920    79684827.848  
G16  22906791.300   120375988.535                                  
G27  23307979.140   122484192.730    23307980.700    91465466.043  
G30  23153919.660   121674601.328    23153922.020    90860900.129  
E 2  24204209.640   127193953.121    24204215.080    94982488.316  
E 3  23350125.000   122705705.535    23350130.940    91630876.824  
E 5  25771656.840   135430927.660    25771663.820   101133473.961  
E 8  23554481.420   123779618.164    23554486.220    92432824.605  
E24  27305197.040   143489760.8132   27305215.560   107151456.0942 
E25  23655651.540   124311255.523    23655657.640    92829825.813  
> 2021  1  5 21 14 44.0000000  0 14       0.000000000000
G 3  24382264.660   128129586.309    24382268.680    95681176.270  
G 4  21378093.340   112342616.160    21378096.640    83892221.332  
G 7  21337371.660   112128639.359                                  
G 8  23527051.040   123635403.391    23527053.340    92325131.055  
G 9  20305864.640   106707994.258    20305865.600    79684544.055  
G16  22907394.620   120379158.809                                  
G27  23307739.420   122482933.281    23307740.960    91464525.617  
G30  23153487.360   121672329.773    23153489.700    90859203.914  
E 2  24203872.460   127192181.277    24203877.920    94981165.191  
E 3  23350137.860   122705773.098    23350143.800    91630927.266  
E 5  25772086.220   135433184.098    25772093.180   101135158.977  
E 8  23554060.800   123777407.750    23554065.600    92431173.969  
E24  27305710.300   143492457.969    27305728.820   107153470.203  
E25  23655812.360   124312100.613    23655818.460    92830456.891  
> 2021  1  5 21 14 45.0000000  0 14       0.000000000000
G 3  24382976.020   128133324.574    24382980.040    95683967.828  
G 4  21378433.460   112344403.535    21378436.760    83893556.063  
G 7  21337180.840   112127636.570                                  
G 8  23526541.740   123632726.977    23526544.040    92323132.438  
G 9  20305792.400   106707614.672    20305793.360    79684260.598  
G16  22907997.980   120382329.516                                  
G27  23307499.840   122481674.242    23307501.380    91463585.426  
G30  23153055.100   121670058.266    23153057.440    90857507.656  
E 2  24203535.360   127190409.773    24203540.800    94979842.313  
E 3  23350150.780   122705841.020    23350156.740    91630977.988  
E 5  25772515.640   135435440.750    25772522.620   101136844.141  
E 8  23553640.200   123775197.477    23553645.000    92429523.441  
E24  27306223.560   143495155.188    27306242.080   107155484.359  
E25  23655973.220   124312946.043    23655979.340    92831088.219  
> 2021  1  5 21 14 46.0000000  0 14       0.000000000000
G 3  24383687.400   128137062.855    24383691.420    95686759.402  
G 4  21378773.660   112346191.309    21378776.960    83894891.090  
G 7  21336990.040   112126633.980                                  
G 8  23526032.480   123630050.809    23526034.780    92321134.000  
G 9  20305720.260   106707235.539    20305721.220    79683977.480  
G16  22908601.420   120385500.590                                  
G27  23307260.360   122480415.750    23307261.880    91462645.645  
G30  23152622.880   121667786.926    23152625.220    90855811.527  
E 2  24203198.320   127188638.605    24203203.760    94978519.688  
E 3  23350163.780   122705909.289    23350169.720    91631028.965  
E 5  25772945.120   135437697.625    25772952.080   101138529.469  
E 8  23553219.620   123772987.336    23553224.420    92427873.012  
E24  27306736.840   143497852.461    27306755.340   107157498.555  
E25  23656134.180   124313791.828    23656140.280    92831719.813  
> 2021  1  5 21 14 47.0000000  0 14       0.000000000000
G 3  24384398.780   128140801.160    24384402.800    95689550.996  
G 4  21379113.940   112347979.465    21379117.240    83896226.402  
G 7  21336799.300   112125631.598                                  
G 8  23525523.260   123627374.875    23525525.560    92319135.746  
G 9  20305648.200   106706856.859    20305649.140    79683694.703  
G16  22909204.920   120388672.035                                  
G27  23307020.980   122479157.813    23307022.500    91461706.281  
G30  23152190.680   121665515.730    23152193.020    90854115.512  
E 2  24202861.340   127186867.766    24202866.780    94977197.309  
E 3  23350176.820   122705977.902    23350182.780    91631080.203  
E 5  25773374.620   135439954.734    25773381.600   101140214.969  
E 8  23552799.060   123770777.344    23552803.860    92426222.691  
E24  27307250.120   143500549.801    27307268.640   107159512.801  
E25  23656295.180   124314637.965    23656301.300    92832351.668  
> 2021  1  5 21 14 48.0000000  0 14       0.000000000000
G 3  24385110.140   128144539.441    24385114.160    95692342.570  
G 4  21379454.280   112349768.012    21379457.580    83897562.008  
G 7  21336608.600   112124629.414                                  
G 8  23525014.080   123624699.164    23525016.380    92317137.652  
G 9  20305576.220   106706478.621    20305577.180    79683412.258  
G16  22909808.500   120391843.844                                  
G27  23306781.700   122477900.410    23306783.240    91460767.316  
G30  23151758.520   121663244.707    23151760.860    90852419.621  
E 2  24202524.420   127185097.262    24202529.860    94975875.180  
E 3  23350189.940   122706046.859    23350195.900    91631131.695  
E 5  25773804.180   135442212.051    25773811.140   101141900.625  
E 8  23552378.540   123768567.480    23552383.340    92424572.473  
E24  27307763.420   143503247.207    27307781.940   107161527.098  
E25  23656456.260   124315484.449    23656462.360    92832983.781  
> 2021  1  5 21 14 49.0000000  0 14       0.000000000000
G 3  24385821.520   128148277.754    24385825.540    95695134.164  
G 4  21379794.700   112351556.941    21379798.020    83898897.898  
G 7  21336417.920   112123627.445                                  
G 8  23524504.960   123622023.676    23524507.260    92315139.727  
G 9  20305504.340   106706100.848    20305505.280    79683130.156  
G16  22910412.140   120395016.031                                  
G27  23306542.540   122476643.563    23306544.060    91459828.762  
G30  23151326.380   121660973.844    23151328.720    90850723.848  
E 2  24202187.560   127183327.082    24202193.000    94974553.293  
E 3  23350203.140   122706116.160    23350209.080    91631183.449  
E 5  25774233.780   135444469.613    25774240.740   101143586.465  
E 8  23551958.040   123766357.766    23551962.840    92422922.359  
E24  27308276.720   143505944.680    27308295.240   107163541.441  
E25  23656617.420   124316331.289    23656623.520    92833616.164  
> 2021  1  5 21 14 50.0000000  0 14       0.000000000000
G 3  24386532.900   128152016.066    24386536.920    95697925.758  
G 4  21380135.200   112353346.266    21380138.500    83900234.082  
G 7  21336227.300   112122625.672                                  
G 8  23523995.860   123619348.402    23523998.160    92313141.957  
G 9  20305432.540   106705723.531    20305433.480    79682848.395  
G16  22911015.860   120398188.582                                  
G27  23306303.460   122475387.254    23306305.000    91458890.609  
G30  23150894.280   121658703.145    23150896.620    90849028.195  
E 2  24201850.760   127181557.242    24201856.200    94973231.660  
E 3  23350216.380   122706185.809    23350222.340    91631235.457  
E 5  25774663.420   135446727.398    25774670.380   101145272.477  
E 8  23551537.580   123764148.184    23551542.360    92421272.348  
E24  27308790.040   143508642.211    27308808.560   107165555.832  
E25  23656778.620   124317178.473    23656784.720    92834248.801  
> 2021  1  5 21 14 51.0000000  0 14       0.000000000000
G 3  24387244.280   128155754.391    24387248.300    95700717.363  
G 4  21380475.780   112355135.988    21380479.080    83901570.563  
G 7  21336036.700   112121624.109                                  
G 8  23523486.820   123616673.375    23523489.120    92311144.375  
G 9  20305360.820   106705346.668    20305361.760    79682566.969  
G16  22911619.640   120401361.508                                  
G27  23306064.500   122474131.496    23306066.020    91457952.871  
G30  23150462.220   121656432.609    23150464.560    90847332.668  
E 2  24201514.040   127179787.742    24201519.480    94971910.281  
E 3  23350229.700   122706255.813    23350235.660    91631287.734  
E 5  25775093.100   135448985.438    25775100.080   101146958.672  
E 8  23551117.120   123761938.754    23551121.920    92419622.449  
E24  27309303.380   143511339.813    27309321.900   107167570.273  
E25  23656939.900   124318026.023    23656946.000    92834881.711  
> 2021  1  5 21 14 52.0000000  0 14       0.000000000000
G 3  24387955.660   128159492.723    24387959.680    95703508.973  
G 4  21380816.420   112356926.094    21380819.720    83902907.328  
G 7  21335846.140   112120622.750                                  
G 8  23522977.820   123613998.570    23522980.120    92309146.957  
G 9  20305289.200   106704970.254    20305290.140    79682285.883  
G16  22912223.500   120404534.809                                  
G27  23305825.640   122472876.293    23305827.180    91457015.543  
G30  23150030.180   121654162.242    23150032.520    90845637.266  
E 2  24201177.380   127178018.566    24201182.820    94970589.145  
E 3  23350243.080   122706326.156    23350249.040    91631340.262  
E 5  25775522.840   135451243.676    25775529.800   101148645.016  
E 8  23550696.720   123759729.457    23550701.500    92417972.652  
E24  27309816.720   143514037.473    27309835.240   107169584.758  
E25  23657101.260   124318873.914    23657107.360    92835514.875  
> 2021  1  5 21 14 53.0000000  0 14       0.000000000000
G 3  24388667.040   128163231.066    24388671.080    95706300.594  
G 4  21381157.140   112358716.590    21381160.440    83904244.387  
G 7  21335655.640   112119621.598                                  
G 8  23522468.860   123611323.996    23522471.160    92307149.711  
G 9  20305217.640   106704594.293    20305218.600    79682005.133  
G16  22912827.440   120407708.480                                  
G27  23305586.880   122471621.629    23305588.420    91456078.617  
G30  23149598.180   121651892.031    23149600.500    90843941.980  
E 2  24200840.780   127176249.734    24200846.220    94969268.262  
E 3  23350256.540   122706396.855    23350262.480    91631393.059  
E 5  25775952.600   135453502.152    25775959.580   101150331.539  
E 8  23550276.320   123757520.305    23550281.120    92416322.957  
E24  27310330.100   143516735.211    27310348.600   107171599.301  
E25  23657262.660   124319722.156    23657268.760    92836148.305  
> 2021  1  5 21 14 54.0000000  0 14       0.000000000000
G 3  24389378.440   128166969.410    24389382.460    95709092.211  
G 4  21381497.940   112360507.473    21381501.240    83905581.734  
G 7  21335465.160   112118620.652                                  
G 8  23521959.960   123608649.641    23521962.260    92305152.629  
G 9  20305146.200   106704218.793    20305147.140    79681724.727  
G16  22913431.440   120410882.535                                  
G27  23305348.240   122470367.516    23305349.760    91455142.105  
G30  23149166.200   121649621.996    23149168.540    90842246.820  
E 2  24200504.240   127174481.227    24200509.680    94967947.625  
E 3  23350270.060   122706467.891    23350276.000    91631446.105  
E 5  25776382.420   135455760.871    25776389.400   101152018.246  
E 8  23549855.960   123755311.293    23549860.760    92414673.375  
E24  27310843.460   143519433.004    27310861.980   107173613.883  
E25  23657424.140   124320570.750    23657430.240    92836781.996  
> 2021  1  5 21 14 55.0000000  0 14       0.000000000000
G 3  24390089.820   128170707.758    24390093.840    95711883.832  
G 4  21381838.800   112362298.746    21381842.120    83906919.371  
G 7  21335274.720   112117619.918                                  
G 8  23521451.080   123605975.523    23521453.380    92303155.727  
G 9  20305074.820   106703843.738    20305075.780    79681444.652  
G16  22914035.520   120414056.973                                  
G27  23305109.680   122469113.949    23305111.220    91454206.000  
G30  23148734.260   121647352.109    23148736.580    90840551.777  
E 2  24200167.760   127172713.051    24200173.200    94966627.234  
E 3  23350283.640   122706539.273    23350289.580    91631499.410  
E 5  25776812.280   135458019.813    25776819.260   101153705.113  
E 8  23549435.620   123753102.422    23549440.420    92413023.891  
E24  27311356.840   143522130.855    27311375.360   107175628.516  
E25  23657585.700   124321419.707    23657591.800    92837415.953  
> 2021  1  5 21 14 56.0000000  0 14       0.000000000000
G 3  24390801.200   128174446.105    24390805.220    95714675.453  
G 4  21382179.740   112364090.406    21382183.060    83908257.301  
G 7  21335084.320   112116619.371                                  
G 8  23520942.260   123603301.633    23520944.560    92301158.992  
G 9  20305003.540   106703469.137    20305004.480    79681164.918  
G16  22914639.660   120417231.770                                  
G27  23304871.240   122467860.934    23304872.780    91453270.313  
G30  23148302.340   121645082.398    23148304.680    90838856.863  
E 2  24199831.340   127170945.211    24199836.800    94965307.094  
E 3  23350297.280   122706611.000    23350303.240    91631552.973  
E 5  25777242.180   135460278.977    25777249.160   101155392.152  
E 8  23549015.300   123750893.684    23549020.100    92411374.512  
E24  27311870.240   143524828.773    27311888.760   107177643.191  
E25  23657747.300   124322269.000    23657753.420    92838050.168  
> 2021  1  5 21 14 57.0000000  0 14       0.000000000000
G 3  24391512.600   128178184.473    24391516.620    95717467.090  
G 4  21382520.760   112365882.453    21382524.060    83909595.516  
G 7  21334893.980   112115619.043                                  
G 8  23520433.480   123600627.965    23520435.780    92299162.422  
G 9  20304932.340   106703095.004    20304933.300    79680885.531  
G16  22915243.880   120420406.945                                  
G27  23304632.920   122466608.473    23304634.440    91452335.031  
G30  23147870.460   121642812.852    23147872.800    90837162.074  
E 2  24199495.000   127169177.707    24199500.440    94963987.207  
E 3  23350311.000   122706683.086    23350316.940    91631606.801  
E 5  25777672.140   135462538.387    25777679.120   101157079.371  
E 8  23548595.020   123748685.102    23548599.820    92409725.246  
E24  27312383.640   143527526.762    27312402.180   107179657.922  
E25  23657909.000   124323118.664    23657915.100    92838684.656  
> 2021  1  5 21 14 58.0000000  0 14       0.000000000000
G 3  24392223.980   128181922.852    24392228.000    95720258.734  
G 4  21382861.860   112367674.891    21382865.160    83910934.023  
G 7  21334703.660   112114618.902                                  
G 8  23519924.740   123597954.520    23519927.040    92297166.020  
G 9  20304861.240   106702721.313    20304862.180    79680606.477  
G16  22915848.160   120423582.473                                  
G27  23304394.680   122465356.543    23304396.200    91451400.148  
G30  23147438.600   121640543.457    23147440.940    90835467.398  
E 2  24199158.720   127167410.539    24199164.160    94962667.566  
E 3  23350324.780   122706755.508    23350330.720    91631660.883  
E 5  25778102.120   135464798.008    25778109.100   101158766.750  
E 8  23548174.780   123746476.652    23548179.560    92408076.078  
E24  27312897.060   143530224.809    27312915.600   107181672.699  
E25  23658070.740   124323968.664    23658076.840    92839319.395  
> 2021  1  5 21 14 59.0000000  0 14       0.000000000000
G 3  24392935.380   128185661.246    24392939.400    95723050.391  
G 4  21383203.020   112369467.727    21383206.320    83912272.828  
G 7  21334513.380   112113618.977                                  
G 8  23519416.040   123595281.305    23519418.340    92295169.789  
G 9  20304790.200   106702348.078    20304791.160    79680327.766  
G16  22916452.520   120426758.367                                  
G27  23304156.540   122464105.176    23304158.080    91450465.688  
G30  23147006.780   121638274.223    23147009.120    90833772.840  
E 2  24198822.500   127165643.695    24198827.940    94961348.172  
E 3  23350338.620   122706828.277    23350344.580    91631715.223  
E 5  25778532.160   135467057.875    25778539.140   101160454.313  
E 8  23547754.540   123744268.348    23547759.340    92406427.023  
E24  27313410.500   143532922.926    27313429.020   107183687.523  
E25  23658232.560   124324819.012    23658238.660    92839954.398  
> 2021  1  5 21 15  0.0000000  0 14       0.000000000000
G 3  24393646.780   128189399.637    24393650.800    95725842.043  
G 4  21383544.260   112371260.945    21383547.560    83913611.918  
G 7  21334323.120   112112619.246                                  
G 8  23518907.400   123592608.340    23518909.680    92293173.746  
G 9  20304719.280   106701975.297    20304720.220    79680049.387  
G16  22917056.940   120429934.645                                  
G27  23303918.520   122462854.344    23303920.060    91449531.625  
G30  23146575.000   121636005.172    23146577.340    90832078.422  
E 2  24198486.340   127163877.184    24198491.780    94960029.023  
E 3  23350352.540   122706901.391    23350358.480    91631769.820  
E 5  25778962.240   135469317.945    25778969.220   101162142.027  
E 8  23547334.340   123742060.184    23547339.140    92404778.066  
E24  27313923.940   143535621.098    27313942.460   107185702.391  
E25  23658394.440   124325669.727    23658400.540    92840589.668  
> 2021  1  5 21 15  1.0000000  0 14       0.000000000000
G 3  24394358.160   128193138.027    24394362.180    95728633.699  
G 4  21383885.560   112373054.551    21383888.880    83914951.301  
G 7  21334132.920   112111619.730                                  
G 8  23518398.780   123589935.605    23518401.080    92291177.875  
G 9  20304648.420   106701602.969    20304649.360    79679771.352  
G16  22917661.440   120433111.285                                  
G27  23303680.600   122461604.070    23303682.140    91448597.980  
G30  23146143.240   121633736.273    23146145.580    90830384.113  
E 2  24198150.240   127162111.016    24198155.680    94958710.133  
E 3  23350366.520   122706974.863    23350372.460    91631824.688  
E 5  25779392.360   135471578.266    25779399.340   101163829.926  
E 8  23546914.160   123739852.168    23546918.960    92403129.227  
E24  27314437.400   143538319.344    27314455.920   107187717.313  
E25  23658556.380   124326520.785    23658562.500    92841225.199  
> 2021  1  5 21 15  2.0000000  0 14       0.000000000000
G 3  24395069.560   128196876.422    24395073.580    95731425.355  
G 4  21384226.960   112374848.547    21384230.260    83916290.973  
G 7  21333942.760   112110620.414                                  
G 8  23517890.220   123587263.094    23517892.520    92289182.168  
G 9  20304577.660   106701231.094    20304578.600    79679493.652  
G16  22918266.000   120436288.277                                  
G27  23303442.780   122460354.336    23303444.320    91447664.738  
G30  23145711.520   121631467.551    23145713.840    90828689.938  
E 2  24197814.220   127160345.176    24197819.660    94957391.488  
E 3  23350380.560   122707048.668    23350386.500    91631879.801  
E 5  25779822.540   135473838.820    25779829.500   101165518.004  
E 8  23546494.020   123737644.277    23546498.820    92401480.477  
E24  27314950.880   143541017.645    27314969.400   107189732.277  
E25  23658718.400   124327372.188    23658724.500    92841860.988  
> 2021  1  5 21 15  3.0000000  0 14       0.000000000000
G 3  24395780.960   128200614.8322   24395784.980    95734217.0232 
G 4  21384568.420   112376642.941    21384571.720    83917630.941  
G 7  21333752.640   112109621.313                                  
G 8  23517381.700   123584590.832    23517384.000    92287186.652  
G 9  20304506.980   106700859.680    20304507.920    79679216.297  
G16  22918870.640   120439465.652                                  
G27  23303205.080   122459105.164    23303206.600    91446731.914  
G30  23145279.820   121629198.977    23145282.160    90826995.875  
E 2  24197478.240   127158579.676    24197483.700    94956073.094  
E 3  23350394.660   122707122.828    23350400.620    91631935.180  
E 5  25780252.740   135476099.590    25780259.720   101167206.238  
E 8  23546073.900   123735436.539    23546078.700    92399831.844  
E24  27315464.360   143543716.020    27315482.880   107191747.297  
E25  23658880.480   124328223.953    23658886.580    92842497.047  
> 2021  1  5 21 15  4.0000000  0 14       0.000000000000
G 3  24396492.360   128204353.2542   24396496.380    95737008.6992 
G 4  21384909.960   112378437.723    21384913.260    83918971.199  
G 7  21333562.560   112108622.406                                  
G 8  23516873.240   123581918.797    23516875.520    92285191.305  
G 9  20304436.380   106700488.723    20304437.340    79678939.285  
G16  22919475.340   120442643.395                                  
G27  23302967.480   122457856.547    23302969.000    91445799.508  
G30  23144848.160   121626930.566    23144850.480    90825301.934  
E 2  24197142.340   127156814.500    24197147.780    94954754.945  
E 3  23350408.840   122707197.332    23350414.800    91631990.820  
E 5  25780683.000   135478360.602    25780689.980   101168894.660  
E 8  23545653.800   123733228.938    23545658.600    92398183.313  
E24  27315977.860   143546414.457    27315996.380   107193762.363  
E25  23659042.640   124329076.063    23659048.740    92843133.363  
> 2021  1  5 21 15  5.0000000  0 14       0.000000000000
G 3  24397203.760   128208091.6802   24397207.780    95739800.3792 
G 4  21385251.560   112380232.887    21385254.860    83920311.746  
G 7  21333372.500   112107623.695                                  
G 8  23516364.800   123579246.965    23516367.100    92283196.105  
G 9  20304365.880   106700118.223    20304366.820    79678662.613  
G16  22920080.120   120445821.504                                  
G27  23302729.980   122456608.473    23302731.500    91444867.504  
G30  23144416.520   121624662.340    23144418.860    90823608.129  
E 2  24196806.500   127155049.656    24196811.940    94953437.047  
E 3  23350423.080   122707272.176    23350429.040    91632046.711  
E 5  25781113.300   135480621.816    25781120.260   101170583.230  
E 8  23545233.740   123731021.477    23545238.520    92396534.887  
E24  27316491.360   143549112.938    27316509.880   107195777.465  
E25  23659204.860   124329928.516    23659210.960    92843769.941  
> 2021  1  5 21 15  6.0000000  0 14       0.000000000000
G 3  24397915.160   128211830.1052   24397919.180    95742592.0592 
G 4  21385593.240   112382028.445    21385596.560    83921652.582  
G 7  21333182.500   112106625.203                                  
G 8  23515856.420   123576575.379    23515858.700    92281201.090  
G 9  20304295.460   106699748.172    20304296.400    79678386.277  
G16  22920684.960   120448999.980                                  
G27  23302492.580   122455360.941    23302494.100    91443935.910  
G30  23143984.920   121622394.266    23143987.260    90821914.438  
E 2  24196470.740   127153285.145    24196476.180    94952119.398  
E 3  23350437.400   122707347.371    23350443.340    91632102.871  
E 5  25781543.640   135482883.273    25781550.600   101172271.984  
E 8  23544813.700   123728814.148    23544818.480    92394886.563  
E24  27317004.880   143551811.500    27317023.400   107197792.629  
E25  23659367.140   124330781.324    23659373.240    92844406.781  
> 2021  1  5 21 15  7.0000000  0 14       0.000000000000
G 3  24398626.560   128215568.5432   24398630.580    95745383.7462 
G 4  21385935.000   112383824.387    21385938.300    83922993.707  
G 7  21332992.540   112105626.914                                  
G 8  23515348.060   123573903.996    23515350.360    92279206.230  
G 9  20304225.140   106699378.582    20304226.080    79678110.285  
G16  22921289.880   120452178.836                                  
G27  23302255.280   122454113.965    23302256.800    91443004.727  
G30  23143553.360   121620126.355    23143555.680    90820220.867  
E 2  24196135.020   127151520.973    24196140.460    94950802.000  
E 3  23350451.780   122707422.914    23350457.720    91632159.285  
E 5  25781974.020   135485144.973    25781981.000   101173960.918  
E 8  23544393.680   123726606.969    23544398.480    92393238.352  
E24  27317518.400   143554510.121    27317536.920   107199807.836  
E25  23659529.480   124331634.484    23659535.580    92845043.883  
> 2021  1  5 21 15  9.0000000  0 14       0.000000000000
G 3  24400049.360   128223045.4342   24400053.400    95750967.1372 
G 4  21386618.740   112387417.449    21386622.040    83925676.840  
G 7  21332612.720   112103630.965                                  
G 8  23514331.500   123568561.949    23514333.800    92275217.039  
G 9  20304084.720   106698640.738    20304085.680    79677559.297  
G16  22922499.920   120458537.684                                  
G27  23301781.020   122451621.656    23301782.540    91441143.586  
G30  23142690.300   121615591.027    23142692.640    90816834.098  
E 2  24195463.780   127147993.621    24195469.220    94948167.945  
E 3  23350480.720   122707575.035    23350486.660    91632272.887  
E 5  25782834.920   135489669.020    25782841.900   101177339.266  
E 8  23543553.740   123722193.035    23543558.520    92389942.234  
E24  27318545.500   143559907.539    27318564.020   107203838.375  
E25  23659854.380   124333341.852    23659860.480    92846318.871  
> 2021  1  5 21 15 10.0000000  0 14       0.000000000000
G 3  24400760.760   128226783.8832   24400764.800    95753758.8322 
G 4  21386960.720   112389214.563    21386964.020    83927018.836  
G 7  21332422.860   112102633.289                                  
G 8  23513823.300   123565891.270    23513825.580    92273222.703  
G 9  20304014.660   106698272.500    20304015.600    79677284.316  
G16  22923105.060   120461717.656                                  
G27  23301544.040   122450376.324    23301545.560    91440213.633  
G30  23142258.840   121613323.605    23142261.160    90815140.898  
E 2  24195128.260   127146230.445    24195133.700    94946851.293  
E 3  23350495.300   122707651.613    23350501.240    91632330.074  
E 5  25783265.440   135491931.395    25783272.420   101179028.703  
E 8  23543133.800   123719986.285    23543138.600    92388294.340  
E24  27319059.080   143562606.352    27319077.580   107205853.727  
E25  23660016.940   124334196.070    23660023.040    92846956.766  
> 2021  1  5 21 15 11.0000000  0 14       0.000000000000
G 3  24401472.180   128230522.3322   24401476.200    95756550.5272 
G 4  21387302.780   112391012.066    21387306.080    83928361.129  
G 7  21332233.060   112101635.824                                  
G 8  23513315.120   123563220.805    23513317.400    92271228.527  
G 9  20303944.660   106697904.727    20303945.620    79677009.676  
G16  22923710.260   120464897.996                                  
G27  23301307.160   122449131.539    23301308.680    91439284.082  
G30  23141827.380   121611056.352    23141829.720    90813447.820  
E 2  24194792.800   127144467.605    24194798.240    94945534.891  
E 3  23350509.920   122707728.543    23350515.880    91632387.523  
E 5  25783696.000   135494194.000    25783702.980   101180718.313  
E 8  23542713.900   123717779.672    23542718.680    92386646.551  
E24  27319572.640   143565305.227    27319591.160   107207869.121  
E25  23660179.560   124335050.629    23660185.660    92847594.914  
> 2021  1  5 21 15 12.0000000  0 14       0.000000000000
G 3  24402183.580   128234260.8092   24402187.620    95759342.2462 
G 4  21387644.900   112392809.957    21387648.200    83929703.711  
G 7  21332043.280   112100638.566                                  
G 8  23512806.980   123560550.582    23512809.280    92269234.531  
G 9  20303874.760   106697537.406    20303875.720    79676735.379  
G16  22924315.520   120468078.695                                  
G27  23301070.380   122447887.305    23301071.920    91438354.949  
G30  23141395.980   121608789.258    23141398.300    90811754.863  
E 2  24194457.420   127142705.105    24194462.860    94944218.738  
E 3  23350524.640   122707805.820    23350530.580    91632445.238  
E 5  25784126.600   135496456.832    25784133.580   101182408.094  
E 8  23542294.020   123715573.195    23542298.800    92384998.863  
E24  27320086.240   143568004.160    27320104.760   107209884.563  
E25  23660342.240   124335905.555    23660348.340    92848233.336  
> 2021  1  5 21 15 13.0000000  0 14       0.000000000000
G 3  24402894.980   128237999.2622   24402899.020    95762133.9452 
G 4  21387987.100   112394608.234    21387990.400    83931046.578  
G 7  21331853.540   112099641.504                                  
G 8  23512298.900   123557880.566    23512301.200    92267240.691  
G 9  20303804.960   106697170.527    20303805.900    79676461.410  
G16  22924920.860   120471259.766                                  
G27  23300833.720   122446643.625    23300835.240    91437426.227  
G30  23140964.600   121606522.344    23140966.920    90810062.035  
E 2  24194122.080   127140942.922    24194127.520    94942902.828  
E 3  23350539.400   122707883.434    23350545.340    91632503.199  
E 5  25784557.240   135498719.887    25784564.220   101184098.039  
E 8  23541874.180   123713366.875    23541878.960    92383351.289  
E24  27320599.840   143570703.160    27320618.360   107211900.055  
E25  23660505.000   124336760.813    23660511.100    92848872.004  
> 2021  1  5 21 15 14.0000000  0 14       0.000000000000
G 3  24403606.400   128241737.7542   24403610.440    95764925.6762 
G 4  21388329.380   112396406.914    21388332.680    83932389.746  
G 7  21331663.860   112098644.660                                  
G 8  23511790.860   123555210.789    23511793.140    92265247.027  
G 9  20303735.220   106696804.121    20303736.180    79676187.797  
G16  22925526.260   120474441.199                                  
G27  23300597.160   122445400.484    23300598.680    91436497.910  
G30  23140533.240   121604255.574    23140535.580    90808369.320  
E 2  24193786.820   127139181.082    24193792.240    94941587.176  
E 3  23350554.240   122707961.406    23350560.180    91632561.430  
E 5  25784987.940   135500983.180    25784994.900   101185788.164  
E 8  23541454.340   123711160.680    23541459.140    92381703.813  
E24  27321113.460   143573402.223    27321131.980   107213915.590  
E25  23660667.820   124337616.430    23660673.900    92849510.941  
> 2021  1  5 21 15 15.0000000  0 14       0.000000000000
G 3  24404317.820   128245476.2462   24404321.840    95767717.4022 
G 4  21388671.740   112398205.977    21388675.040    83933733.203  
G 7  21331474.200   112097648.016                                  
G 8  23511282.860   123552541.254    23511285.160    92263253.547  
G 9  20303665.580   106696438.160    20303666.540    79675914.516  
G16  22926131.740   120477623.000                                  
G27  23300360.700   122444157.910    23300362.220    91435570.012  
G30  23140101.920   121601988.984    23140104.260    90806676.738  
E 2  24193451.620   127137419.574    24193457.040    94940271.770  
E 3  23350569.140   122708039.723    23350575.080    91632619.918  
E 5  25785418.680   135503246.703    25785425.640   101187478.461  
E 8  23541034.560   123708954.641    23541039.340    92380056.449  
E24  27321627.080   143576101.344    27321645.600   107215931.168  
E25  23660830.700   124338472.398    23660836.800    92850150.148  
> 2021  1  5 21 15 16.0000000  0 14       0.000000000000
G 3  24405029.220   128249214.7422   24405033.260    95770509.1372 
G 4  21389014.160   112400005.434    21389017.460    83935076.953  
G 7  21331284.580   112096651.582                                  
G 8  23510774.920   123549871.957    23510777.200    92261260.238  
G 9  20303596.040   106696072.664    20303596.980    79675641.578  
G16  22926737.280   120480805.168                                  
G27  23300124.360   122442915.883    23300125.880    91434642.527  
G30  23139670.640   121599722.547    23139672.960    90804984.270  
E 2  24193116.480   127135658.414    24193121.900    94938956.617  
E 3  23350584.120   122708118.391    23350590.060    91632678.664  
E 5  25785849.460   135505510.449    25785856.420   101189168.922  
E 8  23540614.780   123706748.750    23540619.560    92378409.195  
E24  27322140.720   143578800.539    27322159.240   107217946.805  
E25  23660993.660   124339328.719    23660999.740    92850789.609  
> 2021  1  5 21 15 17.0000000  0 14       0.000000000000
G 3  24405740.640   128252953.2342   24405744.680    95773300.8672 
G 4  21389356.660   112401805.273    21389359.960    83936420.988  
G 7  21331095.000   112095655.352                                  
G 8  23510267.000   123547202.879    23510269.280    92259267.098  
G 9  20303526.560   106695707.617    20303527.520    79675368.980  
G16  22927342.900   120483987.699                                  
G27  23299888.100   122441674.395    23299889.640    91433715.441  
G30  23139239.380   121597456.273    23139241.700    90803291.922  
E 2  24192781.400   127133897.574    24192786.820    94937641.711  
E 3  23350599.160   122708197.406    23350605.080    91632737.676  
E 5  25786280.280   135507774.430    25786287.240   101190859.559  
E 8  23540195.040   123704542.996    23540199.820    92376762.051  
E24  27322654.380   143581499.793    27322672.900   107219962.484  
E25  23661156.660   124340185.387    23661162.760    92851429.332  
> 2021  1  5 21 15 18.0000000  0 14       0.000000000000
G 3  24406452.060   128256691.7422   24406456.080    95776092.6092 
G 4  21389699.220   112403605.500    21389702.540    83937765.313  
G 7  21330905.460   112094659.320                                  
G 8  23509759.140   123544534.023    23509761.420    92257274.125  
G 9  20303457.180   106695343.020    20303458.140    79675096.715  
G16  22927948.600   120487170.598                                  
G27  23299651.960   122440433.461    23299653.480    91432788.773  
G30  23138808.140   121595190.168    23138810.480    90801599.703  
E 2  24192446.380   127132137.063    24192451.820    94936327.047  
E 3  23350614.260   122708276.758    23350620.180    91632796.934  
E 5  25786711.140   135510038.641    25786718.100   101192550.371  
E 8  23539775.320   123702337.375    23539780.100    92375114.996  
E24  27323168.040   143584199.105    27323186.560   107221978.207  
E25  23661319.760   124341042.406    23661325.840    92852069.320  
> 2021  1  5 21 15 19.0000000  0 14       0.000000000000
G 3  24407163.480   128260430.2422   24407167.500    95778884.3442 
G 4  21390041.880   112405406.121    21390045.180    83939109.934  
G 7  21330715.960   112093663.504                                  
G 8  23509251.320   123541865.410    23509253.600    92255281.332  
G 9  20303387.900   106694978.875    20303388.840    79674824.789  
G16  22928554.340   120490353.867                                  
G27  23299415.920   122439193.078    23299417.440    91431862.512  
G30  23138376.960   121592924.234    23138379.280    90799907.609  
E 2  24192111.440   127130376.898    24192116.860    94935012.645  
E 3  23350629.420   122708356.469    23350635.360    91632856.461  
E 5  25787142.040   135512303.070    25787149.020   101194241.344  
E 8  23539355.640   123700131.902    23539360.420    92373468.059  
E24  27323681.720   143586898.492    27323700.240   107223993.984  
E25  23661482.900   124341899.781    23661489.000    92852709.570  
> 2021  1  5 21 15 20.0000000  0 14       0.000000000000
G 3  24407874.880   128264168.7662   24407878.920    95781676.0942 
G 4  21390384.600   112407207.129    21390387.900    83940454.840  
G 7  21330526.500   112092667.887                                  
G 8  23508743.540   123539197.043    23508745.820    92253288.723  
G 9  20303318.680   106694615.203    20303319.640    79674553.215  
G16  22929160.180   120493537.500                                  
G27  23299180.000   122437953.246    23299181.520    91430936.664  
G30  23137945.780   121590658.438    23137948.120    90798215.621  
E 2  24191776.540   127128617.055    24191781.980    94933698.477  
E 3  23350644.660   122708436.520    23350650.580    91632916.242  
E 5  25787573.000   135514567.730    25787579.960   101195932.488  
E 8  23538935.980   123697926.563    23538940.760    92371821.219  
E24  27324195.400   143589597.930    27324213.920   107226009.805  
E25  23661646.120   124342757.500    23661652.220    92853350.078  
> 2021  1  5 21 15 21.0000000  0 14       0.000000000000
G 3  24408586.300   128267907.2852   24408590.340    95784467.8442 
G 4  21390727.380   112409008.527    21390730.700    83941800.039  
G 7  21330337.080   112091672.477                                  
G 8  23508235.800   123536528.895    23508238.100    92251296.273  
G 9  20303249.560   106694251.977    20303250.520    79674281.977  
G16  22929766.080   120496721.504                                  
G27  23298944.160   122436713.957    23298945.680    91430011.223  
G30  23137514.660   121588392.832    23137516.980    90796523.773  
E 2  24191441.720   127126857.551    24191447.140    94932384.566  
E 3  23350659.960   122708516.914    23350665.880    91632976.281  
E 5  25788004.000   135516832.629    25788010.960   101197623.809  
E 8  23538516.340   123695721.375    23538521.120    92370174.492  
E24  27324709.100   143592297.441    27324727.620   107228025.672  
E25  23661809.420   124343615.578    23661815.500    92853990.852  
> 2021  1  5 21 15 22.0000000  0 14       0.000000000000
G 3  24409297.720   128271645.7932   24409301.760    95787259.5862 
G 4  21391070.260   112410810.316    21391073.560    83943145.531  
G 7  21330147.700   112090677.266                                  
G 8  23507728.120   123533860.977    23507730.400    92249304.000  
G 9  20303180.540   106693889.211    20303181.480    79674011.082  
G16  22930372.040   120499905.871                                  
G27  23298708.440   122435475.234    23298709.960    91429086.203  
G30  23137083.560   121586127.402    23137085.880    90794832.055  
E 2  24191106.960   127125098.383    24191112.380    94931070.902  
E 3  23350675.320   122708597.664    23350681.260    91633036.582  
E 5  25788435.040   135519097.742    25788442.000   101199315.289  
E 8  23538096.740   123693516.324    23538101.520    92368527.863  
E24  27325222.820   143594997.012    27325241.320   107230041.582  
E25  23661972.760   124344473.996    23661978.860    92854631.879  
> 2021  1  5 21 15 23.0000000  0 14       0.000000000000
G 3  24410009.140   128275384.3322   24410013.180    95790051.3522 
G 4  21391413.200   112412612.492    21391416.520    83944491.309  
G 7  21329958.360   112089682.270                                  
G 8  23507220.480   123531193.293    23507222.760    92247311.898  
G 9  20303111.600   106693526.895    20303112.540    79673740.520  
G16  22930978.080   120503090.602                                  
G27  23298472.820   122434237.051    23298474.340    91428161.586  
G30  23136652.480   121583862.109    23136654.820    90793140.441  
E 2  24190772.260   127123339.547    24190777.700    94929757.488  
E 3  23350690.740   122708678.758    23350696.680    91633097.141  
E 5  25788866.120   135521363.098    25788873.080   101201006.949  
E 8  23537677.160   123691311.422    23537681.940    92366881.344  
E24  27325736.540   143597696.637    27325755.060   107232057.535  
E25  23662136.180   124345332.777    23662142.280    92855273.176  
> 2021  1  5 21 15 24.0000000  0 14       0.000000000000
G 3  24410720.560   128279122.8552   24410724.600    95792843.1022 
G 4  21391756.220   112414415.066    21391759.520    83945837.387  
G 7  21329769.060   112088687.477                                  
G 8  23506712.880   123528525.848    23506715.160    92245319.977  
G 9  20303042.740   106693165.035    20303043.680    79673470.301  
G16  22931584.180   120506275.707                                  
G27  23298237.320   122432999.426    23298238.840    91427237.387  
G30  23136221.460   121581596.992    23136223.780    90791448.961  
E 2  24190437.640   127121581.043    24190443.060    94928444.320  
E 3  23350706.240   122708760.199    23350712.180    91633157.953  
E 5  25789297.240   135523628.672    25789304.200   101202698.773  
E 8  23537257.600   123689106.664    23537262.380    92365234.938  
E24  27326250.280   143600396.332    27326268.780   107234073.543  
E25  23662299.680   124346191.898    23662305.760    92855914.730  
