     3.03           OBSERVATION DATA    M: Mixed            RINEX VERSION / TYPE
sbp2rinex v2.2 (RTKL                    20210504 171529 UTC PGM / RUN BY / DATE 
log: 202103102310-202103102340.sbp                          COMMENT             
format: Swift Navigation SBP, option: CONVBASE,EPHALL,OBSALLCOMMENT             
                                                            MARKER NAME         
                                                            MARKER NUMBER       
                                                            MARKER TYPE         
                                                            OBSERVER / AGENCY   
                                                            REC # / TYPE / VERS 
                                                            ANT # / TYPE        
 -2711590.9028 -4352791.2399  3779528.9914                  APPROX POSITION XYZ 
        0.0000        0.0000        0.0000                  ANTENNA: DELTA H/E/N
G    4 C1C L1C C5I L5I                                      SYS / # / OBS TYPES 
E    4 C1B L1B C5I L5I                                      SYS / # / OBS TYPES 
  2021     3    10    23    10   18.0000000     GPS         TIME OF FIRST OBS   
  2021     3    10    23    50   16.0000000     GPS         TIME OF LAST OBS    
G                                                           SYS / PHASE SHIFT   
E                                                           SYS / PHASE SHIFT   
  0                                                         GLONASS SLOT / FRQ #
 C1C    0.000 C1P    0.000 C2C    0.000 C2P    0.000        GLONASS COD/PHS/BIS 
                                                            END OF HEADER       
> 2021  3 10 23 10 18.0000000  0 14       0.000000000000
G 2  22792024.800   119772895.461                                  
G 6  21269809.820   111773550.242    21269812.580    83467260.926  
G12  23162346.420   121718946.023                                  
G13  24307893.460   127738801.570                                  
G14  23348829.480   122698904.293    23348833.840    91625803.117  
G15  24573653.420   129135383.266                                  
G17  21930159.260   115243761.035                                  
G19  20312005.140   106740319.895                                  
G24  21132529.660   111052146.539    21132531.360    82928552.195  
G28  22948139.800   120593282.762                                  
E 2  23612006.580   124081923.863    23612008.680    92658575.559  
E 8  25841855.960   135799830.191    25841860.400   101408950.039  
E25  24745714.480   130039568.938    24745718.220    97107460.785  
E30  25817715.180   135672969.387    25817719.200   101314218.965  
> 2021  3 10 23 10 19.0000000  0 14       0.000000000000
G 2  22791438.360   119769813.734                                  
G 6  21269450.260   111771660.754    21269453.020    83465849.941  
G12  23161846.140   121716317.078                                  
G13  24308508.480   127742033.586                                  
G14  23349282.800   122701286.461    23349287.160    91627582.008  
G15  24574131.720   129137896.645                                  
G17  21930606.280   115246110.176                                  
G19  20312224.300   106741471.613                                  
G24  21132304.060   111050961.035    21132305.780    82927666.914  
G28  22948481.120   120595076.379                                  
E 2  23611841.740   124081057.570    23611843.840    92657928.652  
E 8  25842259.360   135801950.105    25842263.820   101410533.090  
E25  24745940.720   130040757.848    24745944.480    97108348.609  
E30  25817296.740   135670770.496    25817300.760   101312576.938  
> 2021  3 10 23 10 20.0000000  0 14       0.000000000000
G 2  22790851.980   119766732.293                                  
G 6  21269090.800   111769771.824    21269093.560    83464439.379  
G12  23161345.880   121713688.203                                  
G13  24309123.520   127745265.598                                  
G14  23349736.140   122703668.773    23349740.500    91629361.004  
G15  24574610.020   129140410.152                                  
G17  21931053.340   115248459.492                                  
G19  20312443.540   106742623.793                                  
G24  21132078.580   111049776.129    21132080.300    82926782.082  
G28  22948822.460   120596870.137                                  
E 2  23611676.920   124080191.441    23611679.020    92657281.863  
E 8  25842662.800   135804070.156    25842667.240   101412116.238  
E25  24746167.000   130041946.957    24746170.760    97109236.574  
E30  25816878.320   135668571.590    25816882.320   101310934.895  
> 2021  3 10 23 10 21.0000000  0 14       0.000000000000
G 2  22790265.660   119763651.125                                  
G 6  21268731.460   111767883.473    21268734.220    83463029.246  
G12  23160845.620   121711059.379                                  
G13  24309738.540   127748497.586                                  
G14  23350189.500   122706051.246    23350193.860    91631140.121  
G15  24575088.340   129142923.773                                  
G17  21931500.440   115250808.965                                  
G19  20312662.880   106743776.426                                  
G24  21131853.200   111048591.805    21131854.920    82925897.684  
G28  22949163.820   120598664.016                                  
E 2  23611512.120   124079325.461    23611514.220    92656635.188  
E 8  25843066.260   135806190.371    25843070.720   101413699.512  
E25  24746393.320   130043136.258    24746397.060    97110124.688  
E30  25816459.860   135666372.652    25816463.880   101309292.832  
> 2021  3 10 23 10 22.0000000  0 14       0.000000000000
G 2  22789679.380   119760570.246                                  
G 6  21268372.220   111765995.695    21268375.000    83461619.543  
G12  23160345.400   121708430.637                                  
G13  24310353.560   127751729.559                                  
G14  23350642.900   122708433.871    23350647.260    91632919.355  
G15  24575566.700   129145437.527                                  
G17  21931947.560   115253158.625                                  
G19  20312882.320   106744929.523                                  
G24  21131627.960   111047408.070    21131629.660    82925013.727  
G28  22949505.220   120600458.039                                  
E 2  23611347.360   124078459.645    23611349.460    92655988.637  
E 8  25843469.760   135808310.723    25843474.200   101415282.891  
E25  24746619.680   130044325.770    24746623.420    97111012.961  
E30  25816041.420   135664173.703    25816045.440   101307650.762  
> 2021  3 10 23 10 23.0000000  0 14       0.000000000000
G 2  22789093.160   119757489.641                                  
G 6  21268013.100   111764108.480    21268015.860    83460210.262  
G12  23159845.180   121705801.965                                  
G13  24310968.600   127754961.516                                  
G14  23351096.320   122710816.648    23351100.700    91634698.699  
G15  24576045.080   129147951.402                                  
G17  21932394.720   115255508.461                                  
G19  20313101.820   106746083.074                                  
G24  21131402.820   111046224.949    21131404.520    82924130.230  
G28  22949846.620   120602252.176                                  
E 2  23611182.620   124077593.973    23611184.740    92655342.195  
E 8  25843873.280   135810431.219    25843877.720   101416866.375  
E25  24746846.080   130045515.480    24746849.820    97111901.379  
E30  25815622.960   135661974.730    25815626.980   101306008.668  
> 2021  3 10 23 10 24.0000000  0 14       0.000000000000
G 2  22788507.000   119754409.320                                  
G 6  21267654.080   111762221.824    21267656.840    83458801.391  
G12  23159344.960   121703173.375                                  
G13  24311583.600   127758193.480                                  
G14  23351549.780   122713199.586    23351554.140    91636478.168  
G15  24576523.480   129150465.355                                  
G17  21932841.900   115257858.469                                  
G19  20313321.420   106747237.066                                  
G24  21131177.780   111045042.406    21131179.500    82923247.160  
G28  22950188.080   120604046.434                                  
E 2  23611017.920   124076728.449    23611020.020    92654695.859  
E 8  25844276.820   135812551.871    25844281.260   101418449.977  
E25  24747072.500   130046705.383    24747076.260    97112789.945  
E30  25815204.500   135659775.746    25815208.520   101304366.582  
> 2021  3 10 23 10 25.0000000  0 14       0.000000000000
G 2  22787920.880   119751329.281                                  
G 6  21267295.180   111760335.738    21267297.940    83457392.953  
G12  23158844.760   121700544.824                                  
G13  24312198.620   127761425.402                                  
G14  23352003.260   122715582.660    23352007.640    91638257.734  
G15  24577001.900   129152979.465                                  
G17  21933289.140   115260208.648                                  
G19  20313541.120   106748391.531                                  
G24  21130952.860   111043860.469    21130954.580    82922364.543  
G28  22950529.540   120605840.832                                  
E 2  23610853.260   124075863.094    23610855.360    92654049.652  
E 8  25844680.400   135814672.660    25844684.840   101420033.684  
E25  24747298.980   130047895.492    24747302.720    97113678.660  
E30  25814786.060   135657576.734    25814790.060   101302724.465  
> 2021  3 10 23 10 26.0000000  0 14       0.000000000000
G 2  22787334.820   119748249.516                                  
G 6  21266936.380   111758450.219    21266939.140    83455984.934  
G12  23158344.580   121697916.348                                  
G13  24312813.640   127764657.305                                  
G14  23352456.780   122717965.887    23352461.140    91640037.418  
G15  24577480.340   129155493.699                                  
G17  21933736.380   115262558.984                                  
G19  20313760.880   106749546.445                                  
G24  21130728.060   111042679.113    21130729.780    82921482.363  
G28  22950871.020   120607635.359                                  
E 2  23610688.600   124074997.871    23610690.720    92653403.543  
E 8  25845084.000   135816793.598    25845088.440   101421617.500  
E25  24747525.480   130049085.785    24747529.220    97114567.516  
E30  25814367.580   135655377.676    25814371.580   101301082.309  
> 2021  3 10 23 10 27.0000000  0 14       0.000000000000
G 2  22786748.820   119745170.055                                  
G 6  21266577.680   111756565.285    21266580.440    83454577.352  
G12  23157844.400   121695287.934                                  
G13  24313428.640   127767889.199                                  
G14  23352910.320   122720349.281    23352914.700    91641817.223  
G15  24577958.800   129158008.059                                  
G17  21934183.680   115264909.500                                  
G19  20313980.740   106750701.824                                  
G24  21130503.360   111041498.328    21130505.080    82920600.605  
G28  22951212.540   120609430.027                                  
E 2  23610524.000   124074132.820    23610526.100    92652757.566  
E 8  25845487.620   135818914.672    25845492.080   101423201.418  
E25  24747752.020   130050276.289    24747755.780    97115456.527  
E30  25813949.120   135653178.613    25813953.120   101299440.152  
> 2021  3 10 23 10 28.0000000  0 14       0.000000000000
G 2  22786162.880   119742090.859                                  
G 6  21266219.100   111754680.910    21266221.860    83453170.191  
G12  23157344.260   121692659.590                                  
G13  24314043.640   127771121.063                                  
G14  23353363.900   122722732.824    23353368.260    91643597.141  
G15  24578437.300   129160522.527                                  
G17  21934631.000   115267260.188                                  
G19  20314200.700   106751857.656                                  
G24  21130278.780   111040318.141    21130280.500    82919719.301  
G28  22951554.080   120611224.828                                  
E 2  23610359.400   124073267.918    23610361.520    92652111.699  
E 8  25845891.280   135821035.891    25845895.720   101424785.441  
E25  24747978.600   130051466.992    24747982.360    97116345.688  
E30  25813530.640   135650979.520    25813534.640   101297797.973  
> 2021  3 10 23 10 29.0000000  0 14       0.000000000000
G 2  22785576.960   119739011.930                                  
G 6  21265860.620   111752797.090    21265863.380    83451763.445  
G12  23156844.100   121690031.313                                  
G13  24314658.640   127774352.914                                  
G14  23353817.500   122725116.512    23353821.880    91645377.164  
G15  24578915.800   129163037.121                                  
G17  21935078.340   115269611.043                                  
G19  20314420.720   106753013.941                                  
G24  21130054.320   111039138.547    21130056.020    82918838.434  
G28  22951895.640   120613019.746                                  
E 2  23610194.840   124072403.148    23610196.960    92651465.926  
E 8  25846294.960   135823157.262    25846299.420   101426369.582  
E25  24748205.220   130052657.879    24748208.980    97117234.988  
E30  25813112.160   135648780.410    25813116.160   101296155.785  
> 2021  3 10 23 10 30.0000000  0 14       0.000000000000
G 2  22784991.120   119735933.301                                  
G 6  21265502.240   111750913.859    21265505.020    83450357.137  
G12  23156343.980   121687403.098                                  
G13  24315273.640   127777584.746                                  
G14  23354271.140   122727500.355    23354275.500    91647157.309  
G15  24579394.340   129165551.840                                  
G17  21935525.740   115271962.066                                  
G19  20314640.860   106754170.680                                  
G24  21129829.960   111037959.523    21129831.660    82917957.992  
G28  22952237.220   120614814.801                                  
E 2  23610030.320   124071538.563    23610032.420    92650820.297  
E 8  25846698.680   135825278.773    25846703.120   101427953.828  
E25  24748431.880   130053848.977    24748435.640    97118124.441  
E30  25812693.680   135646581.281    25812697.680   101294513.578  
> 2021  3 10 23 10 31.0000000  0 14       0.000000000000
G 2  22784405.340   119732854.949                                  
G 6  21265143.980   111749031.191    21265146.760    83448951.246  
G12  23155843.860   121684774.945                                  
G13  24315888.640   127780816.563                                  
G14  23354724.800   122729884.359    23354729.160    91648937.570  
G15  24579872.900   129168066.668                                  
G17  21935973.160   115274313.270                                  
G19  20314861.060   106755327.891                                  
G24  21129605.700   111036781.109    21129607.420    82917078.012  
G28  22952578.840   120616609.992                                  
E 2  23609865.820   124070674.117    23609867.920    92650174.770  
E 8  25847102.420   135827400.441    25847106.860   101429538.188  
E25  24748658.580   130055040.270    24748662.320    97119014.047  
E30  25812275.200   135644382.129    25812279.200   101292871.355  
> 2021  3 10 23 10 32.0000000  0 14       0.000000000000
G 2  22783819.600   119729776.871                                  
G 6  21264785.840   111747149.082    21264788.600    83447545.777  
G12  23155343.740   121682146.863                                  
G13  24316503.640   127784048.371                                  
G14  23355178.480   122732268.508    23355182.860    91650717.941  
G15  24580351.480   129170581.625                                  
G17  21936420.600   115276664.625                                  
G19  20315081.360   106756485.543                                  
G24  21129381.580   111035603.277    21129383.280    82916198.461  
G28  22952920.480   120618405.305                                  
E 2  23609701.360   124069809.816    23609703.460    92649529.348  
E 8  25847506.180   135829522.238    25847510.640   101431122.645  
E25  24748885.320   130056231.766    24748889.060    97119903.797  
E30  25811856.700   135642182.953    25811860.720   101291229.113  
> 2021  3 10 23 10 33.0000000  0 14       0.000000000000
G 2  22783233.900   119726699.082                                  
G 6  21264427.780   111745267.547    21264430.560    83446140.734  
G12  23154843.640   121679518.844                                  
G13  24317118.620   127787280.156                                  
G14  23355632.200   122734652.820    23355636.580    91652498.430  
G15  24580830.080   129173096.688                                  
G17  21936868.080   115279016.160                                  
G19  20315301.740   106757643.660                                  
G24  21129157.560   111034426.023    21129159.260    82915319.344  
G28  22953262.140   120620200.754                                  
E 2  23609536.920   124068945.688    23609539.020    92648884.055  
E 8  25847909.980   135831644.191    25847914.420   101432707.219  
E25  24749112.080   130057423.457    24749115.840    97120793.695  
E30  25811438.220   135639983.754    25811442.220   101289586.859  
> 2021  3 10 23 10 34.0000000  0 14       0.000000000000
G 2  22782648.280   119723621.578                                  
G 6  21264069.860   111743386.582    21264072.620    83444736.121  
G12  23154343.560   121676890.895                                  
G13  24317733.620   127790511.930                                  
G14  23356085.960   122737037.281    23356090.320    91654279.035  
G15  24581308.700   129175611.871                                  
G17  21937315.600   115281367.867                                  
G19  20315522.200   106758802.230                                  
G24  21128933.640   111033249.367    21128935.360    82914440.672  
G28  22953603.820   120621996.336                                  
E 2  23609372.500   124068081.707    23609374.600    92648238.879  
E 8  25848313.800   135833766.289    25848318.260   101434291.898  
E25  24749338.900   130058615.344    24749342.640    97121683.742  
E30  25811019.720   135637784.539    25811023.720   101287944.586  
> 2021  3 10 23 10 35.0000000  0 14       0.000000000000
G 2  22782062.700   119720544.348                                  
G 6  21263712.020   111741506.195    21263714.780    83443331.938  
G12  23153843.500   121674263.004                                  
G13  24318348.600   127793743.680                                  
G14  23356539.740   122739421.898    23356544.100    91656059.750  
G15  24581787.360   129178127.176                                  
G17  21937763.140   115283719.746                                  
G19  20315742.760   106759961.258                                  
G24  21128709.840   111032073.316    21128711.560    82913562.449  
G28  22953945.540   120623792.043                                  
E 2  23609208.120   124067217.875    23609210.220    92647593.809  
E 8  25848717.640   135835888.527    25848722.100   101435876.688  
E25  24749565.740   130059807.426    24749569.500    97122573.934  
E30  25810601.220   135635585.297    25810605.220   101286302.297  
> 2021  3 10 23 10 36.0000000  0 14       0.000000000000
G 2  22781477.180   119717467.406                                  
G 6  21263354.300   111739626.363    21263357.060    83441928.168  
G12  23153343.440   121671635.184                                  
G13  24318963.580   127796975.402                                  
G14  23356993.540   122741806.664    23356997.900    91657840.582  
G15  24582266.020   129180642.598                                  
G17  21938210.720   115286071.793                                  
G19  20315963.400   106761120.727                                  
G24  21128486.160   111030897.855    21128487.880    82912684.672  
G28  22954287.280   120625587.879                                  
E 2  23609043.780   124066354.199    23609045.880    92646948.855  
E 8  25849121.520   135838010.918    25849125.980   101437461.590  
E25  24749792.620   130060999.719    24749796.380    97123464.281  
E30  25810182.700   135633386.035    25810186.720   101284659.992  
> 2021  3 10 23 10 37.0000000  0 14       0.000000000000
G 2  22780891.700   119714390.742                                  
G 6  21262996.700   111737747.117    21262999.460    83440524.832  
G12  23152843.380   121669007.426                                  
G13  24319578.540   127800207.121                                  
G14  23357447.380   122744191.590    23357451.740    91659621.531  
G15  24582744.720   129183158.145                                  
G17  21938658.340   115288424.008                                  
G19  20316184.120   106762280.668                                  
G24  21128262.600   111029722.980    21128264.300    82911807.332  
G28  22954629.040   120627383.832                                  
E 2  23608879.440   124065490.672    23608881.540    92646304.016  
E 8  25849525.440   135840133.465    25849529.880   101439046.605  
E25  24750019.560   130062192.207    24750023.300    97124354.777  
E30  25809764.200   135631186.754    25809768.200   101283017.672  
> 2021  3 10 23 10 38.0000000  0 14       0.000000000000
G 2  22780306.280   119711314.359                                  
G 6  21262639.200   111735868.430    21262641.960    83439121.918  
G12  23152343.360   121666379.734                                  
G13  24320193.520   127803438.813                                  
G14  23357901.240   122746576.660    23357905.620    91661402.590  
G15  24583223.420   129185673.797                                  
G17  21939105.980   115290776.398                                  
G19  20316404.940   106763441.055                                  
G24  21128039.140   111028548.699    21128040.840    82910930.434  
G28  22954970.820   120629179.918                                  
E 2  23608715.160   124064627.313    23608717.260    92645659.297  
E 8  25849929.360   135842256.137    25849933.820   101440631.715  
E25  24750246.520   130063384.891    24750250.260    97125245.414  
E30  25809345.680   135628987.445    25809349.680   101281375.332  
> 2021  3 10 23 10 39.0000000  0 14       0.000000000000
G 2  22779720.920   119708238.270                                  
G 6  21262281.800   111733990.309    21262284.560    83437719.426  
G12  23151843.340   121663752.117                                  
G13  24320808.480   127806670.492                                  
G14  23358355.140   122748961.887    23358359.500    91663183.766  
G15  24583702.160   129188189.566                                  
G17  21939553.660   115293128.957                                  
G19  20316625.840   106764601.898                                  
G24  21127815.780   111027375.004    21127817.500    82910053.973  
G28  22955312.640   120630976.148                                  
E 2  23608550.900   124063764.090    23608553.000    92645014.684  
E 8  25850333.320   135844378.957    25850337.780   101442216.938  
E25  24750473.520   130064577.781    24750477.260    97126136.207  
E30  25808927.160   135626788.117    25808931.160   101279732.977  
> 2021  3 10 23 10 40.0000000  0 14       0.000000000000
G 2  22779135.620   119705162.434                                  
G 6  21261924.520   111732112.766    21261927.280    83436317.363  
G12  23151343.320   121661124.563                                  
G13  24321423.460   127809902.145                                  
G14  23358809.060   122751347.266    23358813.420    91664965.055  
G15  24584180.920   129190705.465                                  
G17  21940001.380   115295481.688                                  
G19  20316846.840   106765763.195                                  
G24  21127592.560   111026201.906    21127594.260    82909177.957  
G28  22955654.460   120632772.492                                  
E 2  23608386.660   124062901.027    23608388.760    92644370.188  
E 8  25850737.320   135846501.922    25850741.760   101443802.266  
E25  24750700.540   130065770.863    24750704.300    97127027.148  
E30  25808508.640   135624588.766    25808512.640   101278090.605  
> 2021  3 10 23 10 41.0000000  0 14       0.000000000000
G 2  22778550.360   119702086.898                                  
G 6  21261567.340   111730235.781    21261570.100    83434915.723  
G12  23150843.340   121658497.074                                  
G13  24322038.420   127813133.793                                  
G14  23359263.020   122753732.793    23359267.380    91666746.453  
G15  24584659.700   129193221.484                                  
G17  21940449.120   115297834.590                                  
G19  20317067.900   106766924.949                                  
G24  21127369.420   111025029.383    21127371.140    82908302.375  
G28  22955996.320   120634568.969                                  
E 2  23608222.440   124062038.117    23608224.540    92643725.809  
E 8  25851141.320   135848625.023    25851145.780   101445387.699  
E25  24750927.620   130066964.137    24750931.380    97127918.227  
E30  25808090.100   135622389.387    25808094.120   101276448.215  
> 2021  3 10 23 10 42.0000000  0 14       0.000000000000
G 2  22777965.160   119699011.652                                  
G 6  21261210.260   111728359.379    21261213.020    83433514.512  
G12  23150343.360   121655869.660                                  
G13  24322653.380   127816365.410                                  
G14  23359717.000   122756118.484    23359721.360    91668527.973  
G15  24585138.520   129195737.621                                  
G17  21940896.900   115300187.660                                  
G19  20317289.060   106768087.156                                  
G24  21127146.420   111023857.441    21127148.120    82907427.219  
G28  22956338.200   120636365.574                                  
E 2  23608058.280   124061175.367    23608060.380    92643081.547  
E 8  25851545.380   135850748.301    25851549.840   101446973.262  
E25  24751154.740   130068157.621    24751158.480    97128809.465  
E30  25807671.580   135620189.996    25807675.580   101274805.813  
> 2021  3 10 23 10 43.0000000  0 14       0.000000000000
G 2  22777380.000   119695936.688                                  
G 6  21260853.300   111726483.543    21260856.060    83432113.727  
G12  23149843.380   121653242.297                                  
G13  24323268.320   127819597.008                                  
G14  23360171.000   122758504.324    23360175.380    91670309.609  
G15  24585617.340   129198253.883                                  
G17  21941344.700   115302540.902                                  
G19  20317510.320   106769249.828                                  
G24  21126923.520   111022686.074    21126925.220    82906552.500  
G28  22956680.120   120638162.320                                  
E 2  23607894.120   124060312.777    23607896.220    92642437.402  
E 8  25851949.440   135852871.688    25851953.900   101448558.906  
E25  24751381.880   130069351.301    24751385.640    97129700.852  
E30  25807253.040   135617990.578    25807257.040   101273163.391  
> 2021  3 10 23 10 44.0000000  0 14       0.000000000000
G 2  22776794.900   119692861.992                                  
G 6  21260496.460   111724608.273    21260499.220    83430713.363  
G12  23149343.420   121650615.004                                  
G13  24323883.280   127822828.594                                  
G14  23360625.040   122760890.316    23360629.420    91672091.355  
G15  24586096.200   129200770.254                                  
G17  21941792.540   115304894.305                                  
G19  20317731.660   106770412.949                                  
G24  21126700.720   111021515.305    21126702.440    82905678.223  
G28  22957022.040   120639959.180                                  
E 2  23607730.000   124059450.328    23607732.100    92641793.367  
E 8  25852353.540   135854995.234    25852358.000   101450144.668  
E25  24751609.080   130070545.180    24751612.820    97130592.383  
E30  25806834.500   135615791.141    25806838.500   101271520.957  
> 2021  3 10 23 10 45.0000000  0 14       0.000000000000
G 2  22776209.860   119689787.582                                  
G 6  21260139.720   111722733.574    21260142.480    83429313.430  
G12  23148843.480   121647987.781                                  
G13  24324498.220   127826060.168                                  
G14  23361079.120   122763276.461    23361083.480    91673873.211  
G15  24586575.060   129203286.750                                  
G17  21942240.400   115307247.883                                  
G19  20317953.080   106771576.527                                  
G24  21126478.040   111020345.125    21126479.760    82904804.387  
G28  22957364.000   120641756.180                                  
E 2  23607565.920   124058588.027    23607568.020    92641149.441  
E 8  25852757.660   135857118.918    25852762.120   101451730.535  
E25  24751836.300   130071739.250    24751840.040    97131484.059  
E30  25806415.960   135613591.672    25806419.960   101269878.496  
> 2021  3 10 23 10 46.0000000  0 14       0.000000000000
G 2  22775624.880   119686713.445                                  
G 6  21259783.080   111720859.445    21259785.840    83427913.918  
G12  23148343.540   121645360.625                                  
G13  24325113.180   127829291.723                                  
G14  23361533.220   122765662.762    23361537.580    91675655.188  
G15  24587053.960   129205803.359                                  
G17  21942688.320   115309601.637                                  
G19  20318174.580   106772740.563                                  
G24  21126255.480   111019175.551    21126257.200    82903931.004  
G28  22957706.000   120643553.316                                  
E 2  23607401.860   124057725.895    23607403.960    92640505.641  
E 8  25853161.820   135859242.762    25853166.280   101453316.523  
E25  24752063.560   130072933.527    24752067.300    97132375.887  
E30  25805997.420   135611392.191    25806001.420   101268236.027  
> 2021  3 10 23 10 47.0000000  0 14       0.000000000000
G 2  22775039.940   119683639.594                                  
G 6  21259426.540   111718985.891    21259429.320    83426514.836  
G12  23147843.620   121642733.539                                  
G13  24325728.120   127832523.250                                  
G14  23361987.340   122768049.211    23361991.720    91677437.277  
G15  24587532.880   129208320.082                                  
G17  21943136.240   115311955.563                                  
G19  20318396.180   106773905.055                                  
G24  21126033.020   111018006.570    21126034.740    82903058.063  
G28  22958048.000   120645350.582                                  
E 2  23607237.820   124056863.902    23607239.920    92639861.945  
E 8  25853566.000   135861366.734    25853570.460   101454902.605  
E25  24752290.860   130074128.004    24752294.620    97133267.867  
E30  25805578.860   135609192.695    25805582.860   101266593.547  
> 2021  3 10 23 10 48.0000000  0 14       0.000000000000
G 2  22774455.060   119680566.031                                  
G 6  21259070.140   111717112.906    21259072.900    83425116.180  
G12  23147343.720   121640106.520                                  
G13  24326343.040   127835754.758                                  
G14  23362441.500   122770435.820    23362445.860    91679219.484  
G15  24588011.820   129210836.922                                  
G17  21943584.220   115314309.648                                  
G19  20318617.860   106775069.988                                  
G24  21125810.680   111016838.160    21125812.400    82902185.551  
G28  22958390.040   120647147.961                                  
E 2  23607073.820   124056002.074    23607075.920    92639218.375  
E 8  25853970.200   135863490.855    25853974.660   101456488.797  
E25  24752518.200   130075322.684    24752521.960    97134159.996  
E30  25805160.300   135606993.172    25805164.300   101264951.047  
> 2021  3 10 23 10 49.0000000  0 14       0.000000000000
G 2  22773870.240   119677492.746                                  
G 6  21258713.820   111715240.500    21258716.580    83423717.953  
G12  23146843.820   121637479.559                                  
G13  24326957.980   127838986.254                                  
G14  23362895.680   122772822.578    23362900.060    91681001.801  
G15  24588490.780   129213353.883                                  
G17  21944032.220   115316663.902                                  
G19  20318839.620   106776235.391                                  
G24  21125588.460   111015670.344    21125590.180    82901313.480  
G28  22958732.080   120648945.484                                  
E 2  23606909.860   124055140.398    23606911.960    92638574.914  
E 8  25854374.440   135865615.121    25854378.900   101458075.098  
E25  24752745.580   130076517.559    24752749.320    97135052.273  
E30  25804741.740   135604793.621    25804745.740   101263308.527  
> 2021  3 10 23 10 50.0000000  0 14       0.000000000000
G 2  22773285.460   119674419.754                                  
G 6  21258357.620   111713368.645    21258360.380    83422320.141  
G12  23146343.940   121634852.672                                  
G13  24327572.920   127842217.719                                  
G14  23363349.900   122775209.488    23363354.260    91682784.234  
G15  24588969.760   129215870.957                                  
G17  21944480.260   115319018.336                                  
G19  20319061.480   106777401.234                                  
G24  21125366.340   111014503.082    21125368.060    82900441.824  
G28  22959074.180   120650743.137                                  
E 2  23606745.920   124054278.875    23606748.020    92637931.570  
E 8  25854778.700   135867739.535    25854783.160   101459661.508  
E25  24752973.000   130077712.629    24752976.740    97135944.695  
E30  25804323.180   135602594.055    25804327.180   101261665.996  
> 2021  3 10 23 10 51.0000000  0 14       0.000000000000
G 2  22772700.740   119671347.039                                  
G 6  21258001.520   111711497.371    21258004.300    83420922.762  
G12  23145844.080   121632225.848                                  
G13  24328187.840   127845449.176                                  
G14  23363804.140   122777596.551    23363808.520    91684566.781  
G15  24589448.780   129218388.145                                  
G17  21944928.320   115321372.930                                  
G19  20319283.420   106778567.539                                  
G24  21125144.320   111013336.422    21125146.040    82899570.617  
G28  22959416.280   120652540.918                                  
E 2  23606582.000   124053417.500    23606584.100    92637288.336  
E 8  25855183.000   135869864.082    25855187.460   101461248.020  
E25  24753200.440   130078907.895    24753204.200    97136837.266  
E30  25803904.600   135600394.461    25803908.600   101260023.441  
> 2021  3 10 23 10 52.0000000  0 14       0.000000000000
G 2  22772116.080   119668274.613                                  
G 6  21257645.540   111709626.664    21257648.300    83419525.805  
G12  23145344.220   121629599.090                                  
G13  24328802.760   127848680.602                                  
G14  23364258.420   122779983.777    23364262.780    91686349.445  
G15  24589927.800   129220905.441                                  
G17  21945376.420   115323727.699                                  
G19  20319505.440   106779734.297                                  
G24  21124922.440   111012170.352    21124924.140    82898699.848  
G28  22959758.400   120654338.828                                  
E 2  23606418.120   124052556.289    23606420.220    92636645.223  
E 8  25855587.320   135871988.773    25855591.780   101462834.641  
E25  24753427.940   130080103.371    24753431.680    97137729.988  
E30  25803486.040   135598194.855    25803490.040   101258380.879  
> 2021  3 10 23 10 53.0000000  0 14       0.000000000000
G 2  22771531.460   119665202.465                                  
G 6  21257289.660   111707756.520    21257292.420    83418129.270  
G12  23144844.380   121626972.402                                  
G13  24329417.680   127851912.004                                  
G14  23364712.720   122782371.141    23364717.100    91688132.219  
G15  24590406.840   129223422.863                                  
G17  21945824.540   115326082.637                                  
G19  20319727.560   106780901.512                                  
G24  21124700.640   111011004.863    21124702.360    82897829.520  
G28  22960100.560   120656136.867                                  
E 2  23606254.260   124051695.223    23606256.360    92636002.219  
E 8  25855991.660   135874113.625    25855996.120   101464421.375  
E25  24753655.460   130081299.043    24753659.220    97138622.859  
E30  25803067.460   135595995.219    25803071.460   101256738.297  
> 2021  3 10 23 10 54.0000000  0 14       0.000000000000
G 2  22770946.900   119662130.598                                  
G 6  21256933.900   111705886.957    21256936.660    83416733.168  
G12  23144344.540   121624345.777                                  
G13  24330032.580   127855143.391                                  
G14  23365167.040   122784758.672    23365171.420    91689915.113  
G15  24590885.920   129225940.398                                  
G17  21946272.700   115328437.742                                  
G19  20319949.760   106782069.180                                  
G24  21124478.980   111009839.984    21124480.700    82896959.645  
G28  22960442.740   120657935.031                                  
E 2  23606090.440   124050834.324    23606092.540    92635359.344  
E 8  25856396.020   135876238.602    25856400.480   101466008.211  
E25  24753883.040   130082494.906    24753886.780    97139515.875  
E30  25802648.880   135593795.566    25802652.880   101255095.699  
> 2021  3 10 23 10 55.0000000  0 14       0.000000000000
G 2  22770362.400   119659059.016                                  
G 6  21256578.240   111704017.965    21256581.000    83415337.492  
G12  23143844.720   121621719.227                                  
G13  24330647.500   127858374.746                                  
G14  23365621.400   122787146.348    23365625.780    91691698.117  
G15  24591365.020   129228458.055                                  
G17  21946720.900   115330793.023                                  
G19  20320172.040   106783237.301                                  
G24  21124257.420   111008675.688    21124259.140    82896090.199  
G28  22960784.940   120659733.324                                  
E 2  23605926.640   124049973.570    23605928.740    92634716.570  
E 8  25856800.420   135878363.727    25856804.880   101467595.152  
E25  24754110.640   130083690.969    24754114.380    97140409.039  
E30  25802230.300   135591595.883    25802234.300   101253453.082  
> 2021  3 10 23 10 56.0000000  0 14       0.000000000000
G 2  22769777.960   119655987.711                                  
G 6  21256222.700   111702149.551    21256225.460    83413942.250  
G12  23143344.920   121619092.746                                  
G13  24331262.400   127861606.094                                  
G14  23366075.800   122789534.176    23366080.180    91693481.230  
G15  24591844.140   129230975.832                                  
G17  21947169.120   115333148.465                                  
G19  20320394.420   106784405.875                                  
G24  21124035.980   111007512.004    21124037.700    82895221.215  
G28  22961127.180   120661531.746                                  
E 2  23605762.880   124049112.965    23605764.980    92634073.910  
E 8  25857204.860   135880488.992    25857209.320   101469182.199  
E25  24754338.280   130084887.238    24754342.020    97141302.355  
E30  25801811.700   135589396.184    25801815.700   101251810.449  
> 2021  3 10 23 10 57.0000000  0 14       0.000000000000
G 2  22769193.560   119652916.699                                  
G 6  21255867.260   111700281.695    21255870.020    83412547.422  
G12  23142845.140   121616466.320                                  
G13  24331877.300   127864837.422                                  
G14  23366530.220   122791922.156    23366534.600    91695264.465  
G15  24592323.280   129233493.719                                  
G17  21947617.380   115335504.074                                  
G19  20320616.880   106785574.914                                  
G24  21123814.660   111006348.922    21123816.360    82894352.680  
G28  22961469.440   120663330.305                                  
E 2  23605599.140   124048252.523    23605601.240    92633431.375  
E 8  25857609.300   135882614.410    25857613.760   101470769.359  
E25  24754565.960   130086083.699    24754569.700    97142195.816  
E30  25801393.100   135587196.469    25801397.100   101250167.805  
> 2021  3 10 23 10 58.0000000  0 14       0.000000000000
G 2  22768609.220   119649845.957                                  
G 6  21255511.920   111698414.406    21255514.680    83411153.020  
G12  23142345.360   121613839.965                                  
G13  24332492.200   127868068.734                                  
G14  23366984.660   122794310.289    23366989.040    91697047.809  
G15  24592802.440   129236011.727                                  
G17  21948065.680   115337859.852                                  
G19  20320839.420   106786744.398                                  
G24  21123593.440   111005186.402    21123595.140    82893484.566  
G28  22961811.720   120665128.988                                  
E 2  23605435.420   124047392.230    23605437.520    92632788.945  
E 8  25858013.780   135884739.969    25858018.240   101472356.625  
E25  24754793.680   130087280.359    24754797.420    97143089.426  
E30  25800974.520   135584996.723    25800978.520   101248525.137  
> 2021  3 10 23 10 59.0000000  0 14       0.000000000000
G 2  22768024.920   119646775.508                                  
G 6  21255156.700   111696547.707    21255159.460    83409759.055  
G12  23141845.580   121611213.680                                  
G13  24333107.100   127871300.016                                  
G14  23367439.140   122796698.586    23367443.520    91698831.273  
G15  24593281.620   129238529.840                                  
G17  21948514.000   115340215.805                                  
G19  20321062.060   106787914.348                                  
G24  21123372.320   111004024.461    21123374.040    82892616.879  
G28  22962154.020   120666927.805                                  
E 2  23605271.740   124046532.098    23605273.840    92632146.641  
E 8  25858418.300   135886865.660    25858422.760   101473943.992  
E25  24755021.420   130088477.219    24755025.180    97143983.184  
E30  25800555.900   135582796.961    25800559.900   101246882.461  
> 2021  3 10 23 11  0.0000000  0 14       0.000000000000
G 2  22767440.700   119643705.336                                  
G 6  21254801.580   111694681.570    21254804.340    83408365.512  
G12  23141345.840   121608587.469                                  
G13  24333721.980   127874531.285                                  
G14  23367893.640   122799087.020    23367898.020    91700614.848  
G15  24593760.820   129241048.090                                  
G17  21948962.360   115342571.922                                  
G19  20321284.780   106789084.730                                  
G24  21123151.320   111002863.109    21123153.040    82891749.641  
G28  22962496.340   120668726.746                                  
E 2  23605108.100   124045672.109    23605110.200    92631504.441  
E 8  25858822.820   135888991.500    25858827.300   101475531.473  
E25  24755249.220   130089674.285    24755252.980    97144877.098  
E30  25800137.300   135580597.176    25800141.300   101245239.766  
> 2021  3 10 23 11  1.0000000  0 14       0.000000000000
G 2  22766856.520   119640635.453                                  
G 6  21254446.580   111692816.000    21254449.340    83406972.395  
G12  23140846.100   121605961.309                                  
G13  24334336.880   127877762.539                                  
G14  23368348.180   122801475.621    23368352.560    91702398.543  
G15  24594240.060   129243566.441                                  
G17  21949410.740   115344928.207                                  
G19  20321507.580   106790255.582                                  
G24  21122930.440   111001702.348    21122932.160    82890882.836  
G28  22962838.700   120670525.824                                  
E 2  23604944.480   124044812.293    23604946.580    92630862.371  
E 8  25859227.400   135891117.480    25859231.860   101477119.051  
E25  24755477.060   130090871.539    24755480.800    97145771.152  
E30  25799718.700   135578397.367    25799722.700   101243597.051  
> 2021  3 10 23 11  2.0000000  0 14       0.000000000000
G 2  22766272.380   119637565.848                                  
G 6  21254091.680   111690951.000    21254094.440    83405579.699  
G12  23140346.360   121603335.238                                  
G13  24334951.760   127880993.758                                  
G14  23368802.740   122803864.371    23368807.120    91704182.348  
G15  24594719.300   129246084.910                                  
G17  21949859.160   115347284.668                                  
G19  20321730.480   106791426.879                                  
G24  21122709.660   111000542.180    21122711.380    82890016.477  
G28  22963181.080   120672325.035                                  
E 2  23604780.880   124043952.613    23604782.980    92630220.402  
E 8  25859631.980   135893243.613    25859636.440   101478706.746  
E25  24755704.920   130092069.004    24755708.680    97146665.359  
E30  25799300.080   135576197.531    25799304.080   101241954.316  
> 2021  3 10 23 11  3.0000000  0 14       0.000000000000
G 2  22765688.320   119634496.535                                  
G 6  21253736.900   111689086.590    21253739.660    83404187.445  
G12  23139846.660   121600709.219                                  
G13  24335566.640   127884224.980                                  
G14  23369257.340   122806253.281    23369261.720    91705966.270  
G15  24595198.580   129248603.496                                  
G17  21950307.620   115349641.293                                  
G19  20321953.440   106792598.637                                  
G24  21122489.000   110999382.613    21122490.720    82889150.570  
G28  22963523.480   120674124.371                                  
E 2  23604617.320   124043093.102    23604619.440    92629578.559  
E 8  25860036.600   135895369.871    25860041.060   101480294.535  
E25  24755932.840   130093266.660    24755936.580    97147559.715  
E30  25798881.460   135573997.684    25798885.460   101240311.578  
> 2021  3 10 23 11  4.0000000  0 14       0.000000000000
G 2  22765104.300   119631427.492                                  
G 6  21253382.220   111687222.727    21253384.980    83402795.602  
G12  23139346.940   121598083.270                                  
G13  24336181.520   127887456.160                                  
G14  23369711.960   122808642.328    23369716.340    91707750.297  
G15  24595677.860   129251122.199                                  
G17  21950756.100   115351998.086                                  
G19  20322176.520   106793770.836                                  
G24  21122268.460   110998223.645    21122270.180    82888285.105  
G28  22963865.900   120675923.840                                  
E 2  23604453.800   124042233.730    23604455.900    92628936.820  
E 8  25860441.240   135897496.301    25860445.700   101481882.453  
E25  24756160.780   130094464.516    24756164.520    97148454.215  
E30  25798462.840   135571797.820    25798466.840   101238668.820  
> 2021  3 10 23 11  5.0000000  0 14       0.000000000000
G 2  22764520.320   119628358.746                                  
G 6  21253027.640   111685359.453    21253030.400    83401404.195  
G12  23138847.260   121595457.383                                  
G13  24336796.380   127890687.336                                  
G14  23370166.620   122811031.539    23370171.000    91709534.449  
G15  24596157.180   129253641.008                                  
G17  21951204.620   115354355.055                                  
G19  20322399.660   106794943.496                                  
G24  21122048.020   110997065.246    21122049.740    82887420.066  
G28  22964208.360   120677723.434                                  
E 2  23604290.300   124041374.520    23604292.400    92628295.203  
E 8  25860845.920   135899622.840    25860850.380   101483470.449  
E25  24756388.760   130095662.578    24756392.520    97149348.871  
E30  25798044.220   135569597.926    25798048.200   101237026.043  
> 2021  3 10 23 11  6.0000000  0 14       0.000000000000
G 2  22763936.420   119625290.262                                  
G 6  21252673.180   111683496.738    21252675.940    83400013.211  
G12  23138347.580   121592831.574                                  
G13  24337411.260   127893918.469                                  
G14  23370621.300   122813420.895    23370625.680    91711318.707  
G15  24596636.520   129256159.945                                  
G17  21951653.160   115356712.176                                  
G19  20322622.900   106796116.598                                  
G24  21121827.700   110995907.430    21121829.420    82886555.465  
G28  22964550.840   120679523.164                                  
E 2  23604126.820   124040515.461    23604128.920    92627653.699  
E 8  25861250.620   135901749.566    25861255.080   101485058.590  
E25  24756616.780   130096860.832    24756620.540    97150243.672  
E30  25797625.580   135567397.992    25797629.580   101235383.238  
> 2021  3 10 23 11  7.0000000  0 14       0.000000000000
G 2  22763352.560   119622222.055                                  
G 6  21252318.820   111681634.613    21252321.580    83398622.664  
G12  23137847.920   121590205.828                                  
G13  24338026.120   127897149.602                                  
G14  23371076.000   122815810.422    23371080.380    91713103.090  
G15  24597115.880   129258678.988                                  
G17  21952101.740   115359069.465                                  
G19  20322846.220   106797290.152                                  
G24  21121607.500   110994750.223    21121609.200    82885691.316  
G28  22964893.340   120681323.039                                  
E 2  23603963.380   124039656.555    23603965.480    92627012.309  
E 8  25861655.340   135903876.438    25861659.820   101486646.836  
E25  24756844.840   130098059.309    24756848.600    97151138.637  
E30  25797206.940   135565198.055    25797210.940   101233740.426  
> 2021  3 10 23 11  8.0000000  0 14       0.000000000000
G 2  22762768.760   119619154.195                                  
G 6  21251964.580   111679773.027    21251967.340    83397232.520  
G12  23137348.260   121587580.129                                  
G13  24338640.980   127900380.707                                  
G14  23371530.740   122818200.074    23371535.120    91714887.570  
G15  24597595.260   129261198.137                                  
G17  21952550.360   115361426.953                                  
G19  20323069.620   106798464.191                                  
G24  21121387.380   110993593.570    21121389.100    82884827.582  
G28  22965235.860   120683123.020                                  
E 2  23603799.960   124038797.805    23603802.060    92626371.031  
E 8  25862060.080   135906003.344    25862064.540   101488235.109  
E25  24757072.940   130099257.926    24757076.680    97152033.707  
E30  25796788.300   135562998.102    25796792.300   101232097.605  
> 2021  3 10 23 11  9.0000000  0 14       0.000000000000
G 2  22762185.000   119616086.582                                  
G 6  21251610.440   111677912.035    21251613.200    83395842.816  
G12  23136848.620   121584954.520                                  
G13  24339255.820   127903611.785                                  
G14  23371985.520   122820589.898    23371989.900    91716672.180  
G15  24598074.660   129263717.402                                  
G17  21952999.000   115363784.586                                  
G19  20323293.120   106799638.664                                  
G24  21121167.400   110992437.535    21121169.120    82883964.309  
G28  22965578.420   120684923.145                                  
E 2  23603636.580   124037939.215    23603638.680    92625729.879  
E 8  25862464.860   135908130.488    25862469.340   101489823.559  
E25  24757301.060   130100456.785    24757304.820    97152928.961  
E30  25796369.660   135560798.125    25796373.660   101230454.766  
> 2021  3 10 23 11 10.0000000  0 14       0.000000000000
G 2  22761601.320   119613019.262                                  
G 6  21251256.420   111676051.613    21251259.180    83394453.539  
G12  23136349.000   121582328.977                                  
G13  24339870.680   127906842.840                                  
G14  23372440.320   122822979.871    23372444.700    91718456.898  
G15  24598554.080   129266236.793                                  
G17  21953447.660   115366142.391                                  
G19  20323516.700   106800813.590                                  
G24  21120947.520   110991282.094    21120949.240    82883101.480  
G28  22965921.000   120686723.391                                  
E 2  23603473.220   124037080.785    23603475.320    92625088.844  
E 8  25862869.680   135910257.758    25862874.140   101491412.102  
E25  24757529.240   130101655.840    24757533.000    97153824.355  
E30  25795951.020   135558598.125    25795955.020   101228811.910  
> 2021  3 10 23 11 11.0000000  0 14       0.000000000000
G 2  22761017.680   119609952.223                                  
G 6  21250902.500   111674191.770    21250905.260    83393064.695  
G12  23135849.400   121579703.504                                  
G13  24340485.520   127910073.887                                  
G14  23372895.140   122825370.000    23372899.520    91720241.730  
G15  24599033.540   129268756.301                                  
G17  21953896.380   115368500.363                                  
G19  20323740.380   106801988.977                                  
G24  21120727.760   110990127.250    21120729.480    82882239.098  
G28  22966263.600   120688523.777                                  
E 2  23603309.900   124036222.500    23603312.000    92624447.918  
E 8  25863274.500   135912385.148    25863278.980   101493000.738  
E25  24757757.460   130102855.090    24757761.200    97154719.898  
E30  25795532.360   135556398.102    25795536.360   101227169.039  
> 2021  3 10 23 11 12.0000000  0 14       0.000000000000
G 2  22760434.080   119606885.465                                  
G 6  21250548.680   111672332.488    21250551.440    83391676.273  
G12  23135349.800   121577078.098                                  
G13  24341100.360   127913304.887                                  
G14  23373350.000   122827760.273    23373354.380    91722026.676  
G15  24599513.000   129271275.922                                  
G17  21954345.120   115370858.500                                  
G19  20323964.120   106803164.813                                  
G24  21120508.120   110988973.008    21120509.840    82881377.164  
G28  22966606.220   120690324.281                                  
E 2  23603146.600   124035364.375    23603148.700    92623807.109  
E 8  25863679.360   135914512.715    25863683.840   101494589.504  
E25  24757985.700   130104054.543    24757989.460    97155615.594  
E30  25795113.720   135554198.070    25795117.700   101225526.156  
> 2021  3 10 23 11 13.0000000  0 14       0.000000000000
G 2  22759850.560   119603818.996                                  
G 6  21250194.980   111670473.777    21250197.740    83390288.277  
G12  23134850.200   121574452.750                                  
G13  24341715.200   127916535.871                                  
G14  23373804.880   122830150.715    23373809.260    91723811.746  
G15  24599992.480   129273795.648                                  
G17  21954793.880   115373216.801                                  
G19  20324187.960   106804341.102                                  
G24  21120288.580   110987819.340    21120290.300    82880515.656  
G28  22966948.880   120692124.926                                  
E 2  23602983.340   124034506.395    23602985.440    92623166.410  
E 8  25864084.260   135916640.406    25864088.720   101496178.359  
E25  24758213.980   130105254.191    24758217.740    97156511.438  
E30  25794695.060   135551997.996    25794699.040   101223883.246  
> 2021  3 10 23 11 14.0000000  0 14       0.000000000000
G 2  22759267.080   119600752.816                                  
G 6  21249841.400   111668615.641    21249844.160    83388900.707  
G12  23134350.640   121571827.473                                  
G13  24342330.040   127919766.844                                  
G14  23374259.800   122832541.293    23374264.180    91725596.918  
G15  24600472.000   129276315.496                                  
G17  21955242.680   115375575.273                                  
G19  20324411.900   106805517.844                                  
G24  21120069.160   110986666.238    21120070.880    82879654.574  
G28  22967291.560   120693925.703                                  
E 2  23602820.100   124033648.570    23602822.200    92622525.828  
E 8  25864489.160   135918768.242    25864493.640   101497767.328  
E25  24758442.300   130106454.043    24758446.060    97157407.430  
E30  25794276.400   135549797.906    25794280.380   101222240.324  
> 2021  3 10 23 11 15.0000000  0 14       0.000000000000
G 2  22758683.660   119597686.918                                  
G 6  21249487.920   111666758.078    21249490.660    83387513.566  
G12  23133851.060   121569202.254                                  
G13  24342944.860   127922997.789                                  
G14  23374714.740   122834932.027    23374719.120    91727382.203  
G15  24600951.540   129278835.453                                  
G17  21955691.520   115377933.910                                  
G19  20324635.900   106806695.035                                  
G24  21119849.840   110985513.730    21119851.560    82878793.938  
G28  22967634.240   120695726.598                                  
E 2  23602656.880   124032790.906    23602658.980    92621885.363  
E 8  25864894.120   135920896.223    25864898.580   101499356.402  
E25  24758670.680   130107654.086    24758674.420    97158303.566  
E30  25793857.720   135547597.797    25793861.720   101220597.387  
> 2021  3 10 23 11 16.0000000  0 14       0.000000000000
G 2  22758100.300   119594621.316                                  
G 6  21249134.540   111664901.098    21249137.300    83386126.863  
G12  23133351.520   121566577.109                                  
G13  24343559.700   127926228.707                                  
G14  23375169.700   122837322.922    23375174.100    91729167.613  
G15  24601431.080   129281355.516                                  
G17  21956140.400   115380292.734                                  
G19  20324860.000   106807872.695                                  
G24  21119630.640   110984361.809    21119632.360    82877933.738  
G28  22967976.980   120697527.641                                  
E 2  23602493.700   124031933.406    23602495.800    92621245.020  
E 8  25865299.080   135923024.336    25865303.540   101500945.574  
E25  24758899.080   130108854.363    24758902.820    97159199.879  
E30  25793439.060   135545397.664    25793443.040   101218954.426  
> 2021  3 10 23 11 17.0000000  0 14       0.000000000000
G 2  22757516.980   119591555.984                                  
G 6  21248781.280   111663044.668    21248784.020    83384740.570  
G12  23132851.980   121563952.039                                  
G13  24344174.520   127929459.621                                  
G14  23375624.700   122839713.957    23375629.100    91730953.125  
G15  24601910.660   129283875.719                                  
G17  21956589.280   115382651.691                                  
G19  20325084.200   106809050.793                                  
G24  21119411.540   110983210.457    21119413.260    82877073.961  
G28  22968319.720   120699328.793                                  
E 2  23602330.560   124031076.059    23602332.660    92620604.797  
E 8  25865704.080   135925152.609    25865708.540   101502534.867  
E25  24759127.500   130110054.816    24759131.260    97160096.320  
E30  25793020.380   135543197.512    25793024.360   101217311.457  
> 2021  3 10 23 11 18.0000000  0 14       0.000000000000
G 2  22756933.720   119588490.941                                  
G 6  21248428.120   111661188.824    21248430.880    83383354.715  
G12  23132352.460   121561327.031                                  
G13  24344789.340   127932690.496                                  
G14  23376079.740   122842105.156    23376084.120    91732738.758  
G15  24602390.260   129286396.023                                  
G17  21957038.220   115385010.832                                  
G19  20325308.460   106810229.340                                  
G24  21119192.560   110982059.688    21119194.280    82876214.621  
G28  22968662.500   120701130.086                                  
E 2  23602167.440   124030218.859    23602169.540    92619964.680  
E 8  25866109.100   135927281.012    25866113.560   101504124.262  
E25  24759355.980   130111255.465    24759359.740    97160992.910  
E30  25792601.700   135540997.348    25792605.680   101215668.480  
> 2021  3 10 23 11 19.0000000  0 14       0.000000000000
G 2  22756350.520   119585426.184                                  
G 6  21248075.060   111659333.551    21248077.820    83381969.281  
G12  23131852.940   121558702.082                                  
G13  24345404.140   127935921.348                                  
G14  23376534.800   122844496.512    23376539.180    91734524.508  
G15  24602869.880   129288916.434                                  
G17  21957487.180   115387370.133                                  
G19  20325532.820   106811408.352                                  
G24  21118973.700   110980909.520    21118975.400    82875355.730  
G28  22969005.300   120702931.516                                  
E 2  23602004.340   124029361.813    23602006.440    92619324.680  
E 8  25866514.140   135929409.555    25866518.620   101505713.758  
E25  24759584.500   130112456.316    24759588.260    97161889.656  
E30  25792183.020   135538797.152    25792187.000   101214025.480  
> 2021  3 10 23 11 20.0000000  0 14       0.000000000000
G 2  22755767.360   119582361.715                                  
G 6  21247722.140   111657478.840    21247724.880    83380584.266  
G12  23131353.440   121556077.238                                  
G13  24346018.940   127939152.215                                  
G14  23376989.880   122846888.020    23376994.260    91736310.379  
G15  24603349.540   129291436.945                                  
G17  21957936.160   115389729.621                                  
G19  20325757.260   106812587.805                                  
G24  21118754.940   110979759.953    21118756.660    82874497.285  
G28  22969348.140   120704733.059                                  
E 2  23601841.280   124028504.914    23601843.380    92618684.789  
E 8  25866919.220   135931538.246    25866923.680   101507303.367  
E25  24759813.040   130113657.363    24759816.800    97162786.539  
E30  25791764.320   135536596.953    25791768.320   101212382.484  
> 2021  3 10 23 11 21.0000000  0 14       0.000000000000
G 2  22755184.260   119579297.523                                  
G 6  21247369.300   111655624.715    21247372.060    83379199.695  
G12  23130853.960   121553452.430                                  
G13  24346633.760   127942383.027                                  
G14  23377445.000   122849279.680    23377449.380    91738096.359  
G15  24603829.200   129293957.594                                  
G17  21958385.200   115392089.258                                  
G19  20325981.780   106813767.707                                  
G24  21118536.300   110978610.984    21118538.000    82873639.289  
G28  22969690.980   120706534.746                                  
E 2  23601678.260   124027648.188    23601680.360    92618045.023  
E 8  25867324.320   135933667.074    25867328.800   101508893.074  
E25  24760041.640   130114858.609    24760045.400    97163683.574  
E30  25791345.620   135534396.715    25791349.620   101210739.453  
> 2021  3 10 23 11 22.0000000  0 14       0.000000000000
G 2  22754601.220   119576233.629                                  
G 6  21247016.580   111653771.164    21247019.340    83377815.551  
G12  23130354.500   121550827.695                                  
G13  24347248.560   127945613.828                                  
G14  23377900.160   122851671.480    23377904.540    91739882.441  
G15  24604308.880   129296478.340                                  
G17  21958834.240   115394449.066                                  
G19  20326206.400   106814948.063                                  
G24  21118317.760   110977462.617    21118319.480    82872781.742  
G28  22970033.860   120708336.563                                  
E 2  23601515.260   124026791.598    23601517.360    92617405.363  
E 8  25867729.460   135935796.039    25867733.920   101510482.887  
E25  24760270.260   130116060.047    24760274.020    97164580.750  
E30  25790926.940   135532196.457    25790930.920   101209096.402  
> 2021  3 10 23 11 23.0000000  0 14       0.000000000000
G 2  22754018.240   119573170.008                                  
G 6  21246663.980   111651918.180    21246666.720    83376431.828  
G12  23129855.040   121548203.027                                  
G13  24347863.360   127948844.594                                  
G14  23378355.320   122854063.441    23378359.700    91741668.645  
G15  24604788.580   129298999.215                                  
G17  21959283.340   115396809.047                                  
G19  20326431.100   106816128.879                                  
G24  21118099.360   110976314.855    21118101.080    82871924.645  
G28  22970376.760   120710138.504                                  
E 2  23601352.280   124025935.172    23601354.380    92616765.824  
E 8  25868134.620   135937925.148    25868139.080   101512072.805  
E25  24760498.920   130117261.684    24760502.680    97165478.078  
E30  25790508.240   135529996.180    25790512.220   101207453.336  
> 2021  3 10 23 11 24.0000000  0 14       0.000000000000
G 2  22753435.300   119570106.680                                  
G 6  21246311.460   111650065.770    21246314.220    83375048.539  
G12  23129355.580   121545578.426                                  
G13  24348478.140   127952075.328                                  
G14  23378810.540   122856455.563    23378814.920    91743454.965  
G15  24605268.320   129301520.195                                  
G17  21959732.460   115399169.184                                  
G19  20326655.900   106817310.133                                  
G24  21117881.060   110975167.699    21117882.780    82871068.004  
G28  22970719.680   120711940.578                                  
E 2  23601189.340   124025078.902    23601191.440    92616126.402  
E 8  25868539.800   135940054.398    25868544.260   101513662.828  
E25  24760727.640   130118463.531    24760731.380    97166375.563  
E30  25790089.520   135527795.871    25790093.520   101205810.250  
> 2021  3 10 23 11 25.0000000  0 14       0.000000000000
G 2  22752852.420   119567043.637                                  
G 6  21245959.080   111648213.926    21245961.840    83373665.668  
G12  23128856.160   121542953.898                                  
G13  24349092.920   127955306.047                                  
G14  23379265.760   122858847.824    23379270.140    91745241.395  
G15  24605748.060   129304041.289                                  
G17  21960181.600   115401529.484                                  
G19  20326880.760   106818491.848                                  
G24  21117662.880   110974021.117    21117664.580    82870211.789  
G28  22971062.620   120713742.777                                  
E 2  23601026.420   124024222.789    23601028.520    92615487.098  
E 8  25868945.000   135942183.793    25868949.480   101515252.957  
E25  24760956.380   130119665.570    24760960.120    97167273.188  
E30  25789670.820   135525595.555    25789674.820   101204167.160  
> 2021  3 10 23 11 26.0000000  0 14       0.000000000000
G 2  22752269.600   119563980.887                                  
G 6  21245606.800   111646362.664    21245609.540    83372283.230  
G12  23128356.740   121540329.430                                  
G13  24349707.700   127958536.727                                  
G14  23379721.020   122861240.246    23379725.420    91747027.941  
G15  24606227.840   129306562.500                                  
G17  21960630.800   115403889.961                                  
G19  20327105.720   106819674.016                                  
G24  21117444.800   110972875.141    21117446.520    82869356.031  
G28  22971405.600   120715545.117                                  
E 2  23600863.540   124023366.824    23600865.640    92614847.902  
E 8  25869350.240   135944313.328    25869354.720   101516843.195  
E25  24761185.160   130120867.809    24761188.900    97168170.961  
E30  25789252.100   135523395.207    25789256.100   101202524.043  
> 2021  3 10 23 11 27.0000000  0 14       0.000000000000
G 2  22751686.840   119560918.422                                  
G 6  21245254.620   111644511.973    21245257.380    83370901.223  
G12  23127857.320   121537705.035                                  
G13  24350322.480   127961767.387                                  
G14  23380176.320   122863632.820    23380180.700    91748814.605  
G15  24606707.620   129309083.820                                  
G17  21961080.000   115406250.609                                  
G19  20327330.760   106820856.629                                  
G24  21117226.840   110971729.746    21117228.560    82868500.703  
G28  22971748.600   120717347.598                                  
E 2  23600700.680   124022511.016    23600702.780    92614208.824  
E 8  25869755.500   135946442.992    25869759.980   101518433.523  
E25  24761413.980   130122070.250    24761417.720    97169068.887  
E30  25788833.400   135521194.840    25788837.380   101200880.914  
> 2021  3 10 23 11 28.0000000  0 14       0.000000000000
G 2  22751104.120   119557856.250                                  
G 6  21244902.540   111642661.855    21244905.300    83369519.645  
G12  23127357.940   121535080.707                                  
G13  24350937.260   127964998.047                                  
G14  23380631.640   122866025.547    23380636.020    91750601.379  
G15  24607187.440   129311605.254                                  
G17  21961529.260   115408611.426                                  
G19  20327555.900   106822039.703                                  
G24  21117009.000   110970584.945    21117010.700    82867645.820  
G28  22972091.620   120719150.199                                  
E 2  23600537.860   124021655.371    23600539.960    92613569.871  
E 8  25870160.800   135948572.797    25870165.260   101520023.961  
E25  24761642.820   130123272.887    24761646.580    97169966.961  
E30  25788414.680   135518994.457    25788418.660   101199237.770  
> 2021  3 10 23 11 29.0000000  0 14       0.000000000000
G 2  22750521.460   119554794.363                                  
G 6  21244550.600   111640812.313    21244553.340    83368138.488  
G12  23126858.560   121532456.445                                  
G13  24351552.020   127968228.672                                  
G14  23381087.000   122868418.430    23381091.380    91752388.273  
G15  24607667.280   129314126.809                                  
G17  21961978.540   115410972.398                                  
G19  20327781.120   106823223.223                                  
G24  21116791.260   110969440.754    21116792.980    82866791.391  
G28  22972434.680   120720952.949                                  
E 2  23600375.060   124020799.867    23600377.160    92612931.020  
E 8  25870566.120   135950702.742    25870570.580   101521614.504  
E25  24761871.720   130124475.730    24761875.480    97170865.188  
E30  25787995.940   135516794.047    25787999.940   101197594.609  
> 2021  3 10 23 11 30.0000000  0 14       0.000000000000
G 2  22749938.860   119551732.754                                  
G 6  21244198.740   111638963.340    21244201.500    83366757.766  
G12  23126359.180   121529832.250                                  
G13  24352166.780   127971459.273                                  
G14  23381542.380   122870811.461    23381546.760    91754175.273  
G15  24608147.140   129316648.465                                  
G17  21962427.840   115413333.543                                  
G19  20328006.420   106824407.191                                  
G24  21116573.640   110968297.148    21116575.360    82865937.398  
G28  22972777.740   120722755.805                                  
E 2  23600212.300   124019944.523    23600214.400    92612292.289  
E 8  25870971.460   135952832.855    25870975.940   101523205.172  
E25  24762100.640   130125678.766    24762104.400    97171763.559  
E30  25787577.220   135514593.625    25787581.200   101195951.438  
> 2021  3 10 23 11 31.0000000  0 14       0.000000000000
G 2  22749356.300   119548671.441                                  
G 6  21243847.000   111637114.941    21243849.760    83365377.469  
G12  23125859.820   121527208.125                                  
G13  24352781.540   127974689.859                                  
G14  23381997.780   122873204.645    23382002.160    91755962.391  
G15  24608627.020   129319170.246                                  
G17  21962877.200   115415694.859                                  
G19  20328231.800   106825591.617                                  
G24  21116356.140   110967154.148    21116357.840    82865083.859  
G28  22973120.840   120724558.797                                  
E 2  23600049.560   124019089.344    23600051.660    92611653.680  
E 8  25871376.820   135954963.082    25871381.300   101524795.926  
E25  24762329.620   130126882.004    24762333.380    97172662.078  
E30  25787158.480   135512393.176    25787162.480   101194308.246  
> 2021  3 10 23 11 32.0000000  0 14       0.000000000000
G 2  22748773.820   119545610.414                                  
G 6  21243495.380   111635267.113    21243498.120    83363997.598  
G12  23125360.480   121524584.070                                  
G13  24353396.300   127977920.410                                  
G14  23382453.220   122875597.984    23382457.600    91757749.625  
G15  24609106.920   129321692.129                                  
G17  21963326.560   115418056.344                                  
G19  20328457.280   106826776.496                                  
G24  21116138.740   110966011.715    21116140.440    82864230.746  
G28  22973463.980   120726361.922                                  
E 2  23599886.860   124018234.313    23599888.960    92611015.184  
E 8  25871782.220   135957093.457    25871786.700   101526386.789  
E25  24762558.620   130128085.438    24762562.380    97173560.746  
E30  25786739.760   135510192.707    25786743.740   101192665.039  
> 2021  3 10 23 11 33.0000000  0 14       0.000000000000
G 2  22748191.360   119542549.672                                  
G 6  21243143.860   111633419.867    21243146.600    83362618.160  
G12  23124861.160   121521960.066                                  
G13  24354011.060   127981150.941                                  
G14  23382908.680   122877991.480    23382913.080    91759536.973  
G15  24609586.840   129324214.121                                  
G17  21963775.980   115420417.988                                  
G19  20328682.840   106827961.832                                  
G24  21115921.440   110964869.875    21115923.160    82863378.074  
G28  22973807.120   120728165.176                                  
E 2  23599724.180   124017379.434    23599726.280    92610376.797  
E 8  25872187.660   135959223.977    25872192.120   101527977.758  
E25  24762787.660   130129289.078    24762791.420    97174459.570  
E30  25786321.020   135507992.211    25786325.000   101191021.813  
> 2021  3 10 23 11 34.0000000  0 14       0.000000000000
G 2  22747608.980   119539489.215                                  
G 6  21242792.440   111631573.191    21242795.200    83361239.148  
G12  23124361.840   121519336.152                                  
G13  24354625.800   127984381.453                                  
G14  23383364.180   122880385.125    23383368.580    91761324.434  
G15  24610066.780   129326736.242                                  
G17  21964225.420   115422779.816                                  
G19  20328908.500   106829147.621                                  
G24  21115704.280   110963728.633    21115706.000    82862525.848  
G28  22974150.300   120729968.563                                  
E 2  23599561.520   124016524.715    23599563.620    92609738.535  
E 8  25872593.100   135961354.625    25872597.580   101529568.824  
E25  24763016.760   130130492.922    24763020.500    97175358.543  
E30  25785902.260   135505791.695    25785906.260   101189378.574  
> 2021  3 10 23 11 35.0000000  0 14       0.000000000000
G 2  22747026.660   119536429.051                                  
G 6  21242441.140   111629727.090    21242443.900    83359860.570  
G12  23123862.540   121516712.297                                  
G13  24355240.540   127987611.941                                  
G14  23383819.700   122882778.922    23383824.100    91763112.008  
G15  24610546.740   129329258.469                                  
G17  21964674.900   115425141.824                                  
G19  20329134.220   106830333.859                                  
G24  21115487.220   110962587.953    21115488.920    82861674.043  
G28  22974493.500   120731772.074                                  
E 2  23599398.920   124015670.156    23599401.020    92609100.391  
E 8  25872998.580   135963485.430    25873003.060   101531160.012  
E25  24763245.880   130131696.941    24763249.620    97176257.648  
E30  25785483.520   135503591.164    25785487.500   101187735.320  
> 2021  3 10 23 11 36.0000000  0 14       0.000000000000
G 2  22746444.380   119533369.168                                  
G 6  21242089.940   111627881.555    21242092.700    83358482.410  
G12  23123363.240   121514088.512                                  
G13  24355855.280   127990842.391                                  
G14  23384275.260   122885172.875    23384279.660    91764899.699  
G15  24611026.720   129331780.813                                  
G17  21965124.400   115427504.000                                  
G19  20329360.040   106831520.547                                  
G24  21115270.260   110961447.855    21115271.980    82860822.668  
G28  22974836.720   120733575.719                                  
E 2  23599236.320   124014815.750    23599238.420    92608462.359  
E 8  25873404.080   135965616.367    25873408.560   101532751.293  
E25  24763475.040   130132901.180    24763478.780    97177156.918  
E30  25785064.760   135501390.613    25785068.760   101186092.055  
> 2021  3 10 23 11 37.0000000  0 14       0.000000000000
G 2  22745862.160   119530309.574                                  
G 6  21241738.860   111626036.602    21241741.620    83357104.688  
G12  23122863.960   121511464.789                                  
G13  24356470.020   127994072.828                                  
G14  23384730.840   122887566.977    23384735.240    91766687.504  
G15  24611506.740   129334303.262                                  
G17  21965573.940   115429866.340                                  
G19  20329585.940   106832707.688                                  
G24  21115053.420   110960308.363    21115055.140    82859971.750  
G28  22975179.960   120735379.500                                  
E 2  23599073.760   124013961.492    23599075.860    92607824.441  
E 8  25873809.620   135967747.465    25873814.100   101534342.695  
E25  24763704.220   130134105.617    24763707.980    97178056.332  
E30  25784646.020   135499190.043    25784650.000   101184448.770  
> 2021  3 10 23 11 38.0000000  0 14       0.000000000000
G 2  22745279.980   119527250.273                                  
G 6  21241387.900   111624192.227    21241390.640    83355727.395  
G12  23122364.700   121508841.133                                  
G13  24357084.740   127997303.227                                  
G14  23385186.460   122889961.234    23385190.840    91768475.422  
G15  24611986.760   129336825.816                                  
G17  21966023.500   115432228.848                                  
G19  20329811.940   106833895.285                                  
G24  21114836.700   110959169.465    21114838.400    82859121.273  
G28  22975523.240   120737183.406                                  
E 2  23598911.240   124013107.398    23598913.340    92607186.645  
E 8  25874215.180   135969878.680    25874219.660   101535934.184  
E25  24763933.460   130135310.254    24763937.220    97178955.902  
E30  25784227.260   135496989.449    25784231.240   101182805.469  
> 2021  3 10 23 11 39.0000000  0 14       0.000000000000
G 2  22744697.880   119524191.250                                  
G 6  21241037.020   111622348.426    21241039.780    83354350.527  
G12  23121865.460   121506217.559                                  
G13  24357699.460   128000533.613                                  
G14  23385642.100   122892355.645    23385646.500    91770263.453  
G15  24612466.820   129339348.492                                  
G17  21966473.100   115434591.512                                  
G19  20330038.020   106835083.336                                  
G24  21114620.080   110958031.180    21114621.800    82858271.254  
G28  22975866.540   120738987.449                                  
E 2  23598748.740   124012253.465    23598750.840    92606548.965  
E 8  25874620.760   135972010.027    25874625.240   101537525.777  
E25  24764162.740   130136515.090    24764166.480    97179855.613  
E30  25783808.480   135494788.840    25783812.480   101181162.160  
> 2021  3 10 23 11 40.0000000  0 14       0.000000000000
G 2  22744115.820   119521132.523                                  
G 6  21240686.280   111620505.191    21240689.020    83352974.090  
G12  23121366.220   121503594.043                                  
G13  24358314.180   128003763.961                                  
G14  23386097.780   122894750.215    23386102.160    91772051.605  
G15  24612946.880   129341871.277                                  
G17  21966922.740   115436954.336                                  
G19  20330264.180   106836271.836                                  
G24  21114403.580   110956893.461    21114405.300    82857421.660  
G28  22976209.860   120740791.613                                  
E 2  23598586.260   124011399.684    23598588.360    92605911.402  
E 8  25875026.380   135974141.539    25875030.860   101539117.488  
E25  24764392.040   130137720.129    24764395.800    97180755.480  
E30  25783389.720   135492588.199    25783393.700   101179518.824  
> 2021  3 10 23 11 41.0000000  0 14       0.000000000000
G 2  22743533.800   119518074.074                                  
G 6  21240335.620   111618662.523    21240338.380    83351598.074  
G12  23120866.980   121500970.594                                  
G13  24358928.880   128006994.285                                  
G14  23386553.480   122897144.926    23386557.860    91773839.859  
G15  24613426.980   129344394.184                                  
G17  21967372.400   115439317.332                                  
G19  20330490.440   106837460.781                                  
G24  21114187.200   110955756.352    21114188.920    82856572.520  
G28  22976553.200   120742595.922                                  
E 2  23598423.820   124010546.055    23598425.920    92605273.953  
E 8  25875432.020   135976273.176    25875436.480   101540709.293  
E25  24764621.400   130138925.359    24764625.140    97181655.488  
E30  25782970.940   135490387.539    25782974.940   101177875.477  
> 2021  3 10 23 11 42.0000000  0 14       0.000000000000
G 2  22742951.860   119515015.926                                  
G 6  21239985.080   111616820.441    21239987.840    83350222.492  
G12  23120367.780   121498347.211                                  
G13  24359543.600   128010224.586                                  
G14  23387009.200   122899539.797    23387013.600    91775628.238  
G15  24613907.100   129346917.199                                  
G17  21967822.100   115441680.480                                  
G19  20330716.760   106838650.168                                  
G24  21113970.920   110954619.828    21113972.640    82855723.820  
G28  22976896.580   120744400.352                                  
E 2  23598261.420   124009692.574    23598263.520    92604636.613  
E 8  25875837.680   135978404.957    25875842.160   101542301.203  
E25  24764850.780   130140130.793    24764854.540    97182555.652  
E30  25782552.180   135488186.863    25782556.160   101176232.113  
> 2021  3 10 23 11 43.0000000  0 14       0.000000000000
G 2  22742369.960   119511958.063                                  
G 6  21239634.660   111614978.941    21239637.420    83348847.348  
G12  23119868.580   121495723.910                                  
G13  24360158.300   128013454.859                                  
G14  23387464.960   122901934.824    23387469.360    91777416.730  
G15  24614387.220   129349440.324                                  
G17  21968271.820   115444043.809                                  
G19  20330943.180   106839840.027                                  
G24  21113754.760   110953483.895    21113756.480    82854875.559  
G28  22977239.980   120746204.934                                  
E 2  23598099.040   124008839.258    23598101.140    92603999.398  
E 8  25876243.360   135980536.871    25876247.840   101543893.219  
E25  24765080.200   130141336.422    24765083.960    97183455.957  
E30  25782133.400   135485986.160    25782137.380   101174588.734  
> 2021  3 10 23 11 44.0000000  0 14       0.000000000000
G 2  22741788.120   119508900.480                                  
G 6  21239284.340   111613138.004    21239287.100    83347472.621  
G12  23119369.380   121493100.664                                  
G13  24360773.000   128016685.117                                  
G14  23387920.760   122904330.004    23387925.140    91779205.336  
G15  24614867.380   129351963.566                                  
G17  21968721.580   115446407.301                                  
G19  20331169.700   106841030.324                                  
G24  21113538.720   110952348.539    21113540.420    82854027.727  
G28  22977583.400   120748009.629                                  
E 2  23597936.680   124007986.094    23597938.780    92603362.293  
E 8  25876649.080   135982668.930    25876653.560   101545485.340  
E25  24765309.660   130142542.258    24765313.420    97184356.418  
E30  25781714.600   135483785.441    25781718.600   101172945.344  
> 2021  3 10 23 11 45.0000000  0 14       0.000000000000
G 2  22741206.340   119505843.191                                  
G 6  21238934.140   111611297.641    21238936.880    83346098.324  
G12  23118870.220   121490477.492                                  
G13  24361387.680   128019915.348                                  
G14  23388376.560   122906725.328    23388380.960    91780994.055  
G15  24615347.560   129354486.914                                  
G17  21969171.360   115448770.953                                  
G19  20331396.280   106842221.082                                  
G24  21113322.780   110951213.789    21113324.500    82853180.348  
G28  22977926.840   120749814.457                                  
E 2  23597774.360   124007133.098    23597776.460    92602725.316  
E 8  25877054.840   135984801.121    25877059.300   101547077.559  
E25  24765539.160   130143748.293    24765542.920    97185257.031  
E30  25781295.820   135481584.691    25781299.800   101171301.926  
> 2021  3 10 23 11 46.0000000  0 14       0.000000000000
G 2  22740624.620   119502786.191                                  
G 6  21238584.020   111609457.855    21238586.780    83344724.457  
G12  23118371.060   121487854.391                                  
G13  24362002.380   128023145.547                                  
G14  23388832.420   122909120.805    23388836.800    91782782.883  
G15  24615827.760   129357010.371                                  
G17  21969621.180   115451134.773                                  
G19  20331622.960   106843412.281                                  
G24  21113106.960   110950079.641    21113108.680    82852333.418  
G28  22978270.320   120751619.418                                  
E 2  23597612.080   124006280.238    23597614.160    92602088.441  
E 8  25877460.600   135986933.465    25877465.080   101548669.891  
E25  24765768.700   130144954.520    24765772.460    97186157.785  
E30  25780877.020   135479383.938    25780881.020   101169658.508  
> 2021  3 10 23 11 47.0000000  0 14       0.000000000000
G 2  22740042.940   119499729.484                                  
G 6  21238234.040   111607618.641    21238236.780    83343351.020  
G12  23117871.900   121485231.352                                  
G13  24362617.060   128026375.723                                  
G14  23389288.280   122911516.438    23389292.680    91784571.828  
G15  24616307.980   129359533.941                                  
G17  21970071.040   115453498.762                                  
G19  20331849.740   106844603.945                                  
G24  21112891.240   110948946.066    21112892.960    82851486.922  
G28  22978613.820   120753424.512                                  
E 2  23597449.800   124005427.543    23597451.900    92601451.691  
E 8  25877866.400   135989065.910    25877870.880   101550262.301  
E25  24765998.280   130146160.953    24766002.040    97187058.691  
E30  25780458.240   135477183.152    25780462.220   101168015.063  
> 2021  3 10 23 11 48.0000000  0 14       0.000000000000
G 2  22739461.320   119496673.066                                  
G 6  21237884.160   111605780.004    21237886.900    83341978.016  
G12  23117372.760   121482608.395                                  
G13  24363231.740   128029605.871                                  
G14  23389744.200   122913912.238    23389748.580    91786360.898  
G15  24616788.220   129362057.629                                  
G17  21970520.920   115455862.906                                  
G19  20332076.580   106845796.047                                  
G24  21112675.640   110947813.074    21112677.360    82850640.855  
G28  22978957.340   120755229.723                                  
E 2  23597287.580   124004575.004    23597289.680    92600815.055  
E 8  25878272.220   135991198.547    25878276.700   101551854.852  
E25  24766227.900   130147367.594    24766231.660    97187959.754  
E30  25780039.440   135474982.344    25780043.420   101166371.605  
> 2021  3 10 23 11 49.0000000  0 14       0.000000000000
G 2  22738879.760   119493616.934                                  
G 6  21237534.380   111603941.945    21237537.140    83340605.438  
G12  23116873.640   121479985.500                                  
G13  24363846.400   128032836.004                                  
G14  23390200.120   122916308.176    23390204.520    91788150.070  
G15  24617268.500   129364581.426                                  
G17  21970970.840   115458227.219                                  
G19  20332303.520   106846988.609                                  
G24  21112460.160   110946680.680    21112461.860    82849795.234  
G28  22979300.880   120757035.074                                  
E 2  23597125.380   124003722.629    23597127.480    92600178.539  
E 8  25878678.080   135993331.305    25878682.560   101553447.492  
E25  24766457.560   130148574.418    24766461.300    97188860.953  
E30  25779620.620   135472781.520    25779624.620   101164728.133  
> 2021  3 10 23 11 50.0000000  0 14       0.000000000000
G 2  22738298.260   119490561.082                                  
G 6  21237184.720   111602104.453    21237187.480    83339233.285  
G12  23116374.540   121477362.676                                  
G13  24364461.080   128036066.102                                  
G14  23390656.080   122918704.266    23390660.480    91789939.355  
G15  24617748.780   129367105.332                                  
G17  21971420.780   115460591.699                                  
G19  20332530.540   106848181.617                                  
G24  21112244.780   110945548.910    21112246.500    82848950.082  
G28  22979644.460   120758840.547                                  
E 2  23596963.200   124002870.391    23596965.300    92599542.129  
E 8  25879083.940   135995464.188    25879088.420   101555040.230  
E25  24766687.240   130149781.449    24766691.000    97189762.305  
E30  25779201.820   135470580.672    25779205.800   101163084.645  
> 2021  3 10 23 11 51.0000000  0 14       0.000000000000
G 2  22737716.800   119487505.523                                  
G 6  21236835.160   111600267.539    21236837.920    83337861.566  
G12  23115875.440   121474739.918                                  
G13  24365075.740   128039296.164                                  
G14  23391112.080   122921100.512    23391116.460    91791728.762  
G15  24618229.080   129369629.352                                  
G17  21971870.760   115462956.379                                  
G19  20332757.660   106849375.086                                  
G24  21112029.520   110944417.715    21112031.240    82848105.359  
G28  22979988.060   120760646.164                                  
E 2  23596801.060   124002018.328    23596803.160    92598905.848  
E 8  25879489.860   135997597.227    25879494.340   101556633.082  
E25  24766916.980   130150988.680    24766920.720    97190663.809  
E30  25778783.000   135468379.801    25778787.000   101161441.137  
> 2021  3 10 23 11 52.0000000  0 14       0.000000000000
G 2  22737135.400   119484450.246                                  
G 6  21236485.720   111598431.207    21236488.480    83336490.277  
G12  23115376.360   121472117.227                                  
G13  24365690.400   128042526.219                                  
G14  23391568.100   122923496.918    23391572.500    91793518.285  
G15  24618709.400   129372153.473                                  
G17  21972320.780   115465321.219                                  
G19  20332984.840   106850568.996                                  
G24  21111814.380   110943287.094    21111816.100    82847261.066  
G28  22980331.680   120762451.910                                  
E 2  23596638.940   124001166.398    23596641.040    92598269.668  
E 8  25879895.780   135999730.402    25879900.260   101558226.035  
E25  24767146.740   130152196.113    24767150.500    97191565.461  
E30  25778364.200   135466178.922    25778368.180   101159797.621  
> 2021  3 10 23 11 53.0000000  0 14       0.000000000000
G 2  22736554.060   119481395.266                                  
G 6  21236136.400   111596595.453    21236139.140    83335119.422  
G12  23114877.300   121469494.602                                  
G13  24366305.060   128045756.246                                  
G14  23392024.140   122925893.457    23392028.540    91795307.906  
G15  24619189.760   129374677.707                                  
G17  21972770.820   115467686.219                                  
G19  20333212.120   106851763.355                                  
G24  21111599.340   110942157.074    21111601.060    82846417.219  
G28  22980675.320   120764257.781                                  
E 2  23596476.860   124000314.648    23596478.960    92597633.621  
E 8  25880301.740   136001863.719    25880306.220   101559819.094  
E25  24767376.540   130153403.746    24767380.300    97192467.266  
E30  25777945.380   135463978.012    25777949.360   101158154.086  
> 2021  3 10 23 11 54.0000000  0 14       0.000000000000
G 2  22735972.760   119478340.570                                  
G 6  21235787.160   111594760.258    21235789.920    83333748.988  
G12  23114378.240   121466872.039                                  
G13  24366919.700   128048986.234                                  
G14  23392480.220   122928290.172    23392484.620    91797097.660  
G15  24619670.120   129377202.043                                  
G17  21973220.900   115470051.375                                  
G19  20333439.480   106852958.156                                  
G24  21111384.420   110941027.652    21111386.140    82845573.820  
G28  22981019.000   120766063.781                                  
E 2  23596314.800   123999463.043    23596316.900    92596997.680  
E 8  25880707.720   136003997.168    25880712.200   101561412.254  
E25  24767606.380   130154611.578    24767610.140    97193369.219  
E30  25777526.560   135461777.086    25777530.540   101156510.539  
> 2021  3 10 23 11 55.0000000  0 14       0.000000000000
G 2  22735391.520   119475286.168                                  
G 6  21235438.060   111592925.648    21235440.800    83332378.988  
G12  23113879.200   121464249.559                                  
G13  24367534.340   128052216.195                                  
G14  23392936.340   122930687.027    23392940.720    91798887.520  
G15  24620150.500   129379726.504                                  
G17  21973671.000   115472416.707                                  
G19  20333666.940   106854153.426                                  
G24  21111169.620   110939898.828    21111171.320    82844730.867  
G28  22981362.700   120767869.922                                  
E 2  23596152.780   123998611.602    23596154.880    92596361.863  
E 8  25881113.740   136006130.750    25881118.220   101563005.516  
E25  24767836.260   130155819.609    24767840.020    97194271.320  
E30  25777107.720   135459576.133    25777111.700   101154866.973  
> 2021  3 10 23 11 56.0000000  0 14       0.000000000000
G 2  22734810.340   119472232.051                                  
G 6  21235089.040   111591091.625    21235091.800    83331009.422  
G12  23113380.160   121461627.145                                  
G13  24368148.980   128055446.133                                  
G14  23393392.480   122933084.039    23393396.860    91800677.492  
G15  24620630.920   129382251.074                                  
G17  21974121.140   115474782.195                                  
G19  20333894.480   106855349.141                                  
G24  21110954.920   110938770.605    21110956.640    82843888.363  
G28  22981706.420   120769676.191                                  
E 2  23595990.780   123997760.320    23595992.880    92595726.168  
E 8  25881519.780   136008264.496    25881524.260   101564598.895  
E25  24768066.180   130157027.836    24768069.940    97195173.566  
E30  25776688.900   135457375.168    25776692.880   101153223.395  
> 2021  3 10 23 11 57.0000000  0 14       0.000000000000
G 2  22734229.220   119469178.227                                  
G 6  21234740.160   111589258.160    21234742.900    83329640.277  
G12  23112881.140   121459004.785                                  
G13  24368763.620   128058676.047                                  
G14  23393848.640   122935481.211    23393853.040    91802467.586  
G15  24621111.360   129384775.758                                  
G17  21974571.320   115477147.840                                  
G19  20334122.100   106856545.301                                  
G24  21110740.340   110937642.973    21110742.040    82843046.301  
G28  22982050.160   120771482.582                                  
E 2  23595828.820   123996909.180    23595830.920    92595090.574  
E 8  25881925.840   136010398.363    25881930.320   101566192.363  
E25  24768296.140   130158236.266    24768299.900    97196075.965  
E30  25776270.060   135455174.180    25776274.040   101151579.801  
> 2021  3 10 23 11 58.0000000  0 14       0.000000000000
G 2  22733648.140   119466124.684                                  
G 6  21234391.360   111587425.273    21234394.120    83328271.566  
G12  23112382.140   121456382.496                                  
G13  24369378.240   128061905.934                                  
G14  23394304.840   122937878.523    23394309.220    91804257.789  
G15  24621591.800   129387300.543                                  
G17  21975021.520   115479513.648                                  
G19  20334349.800   106857741.910                                  
G24  21110525.860   110936515.914    21110527.580    82842204.668  
G28  22982393.940   120773289.109                                  
E 2  23595666.880   123996058.195    23595668.980    92594455.098  
E 8  25882331.920   136012532.363    25882336.400   101567785.934  
E25  24768526.140   130159444.902    24768529.900    97196978.520  
E30  25775851.220   135452973.156    25775855.200   101149936.184  
> 2021  3 10 23 11 59.0000000  0 14       0.000000000000
G 2  22733067.140   119463071.434                                  
G 6  21234042.680   111585592.965    21234045.440    83326903.285  
G12  23111883.140   121453760.277                                  
G13  24369992.860   128065135.797                                  
G14  23394761.060   122940275.996    23394765.460    91806048.105  
G15  24622072.280   129389825.441                                  
G17  21975471.740   115481879.629                                  
G19  20334577.600   106858938.973                                  
G24  21110311.520   110935389.473    21110313.220    82841363.492  
G28  22982737.720   120775095.773                                  
E 2  23595504.980   123995207.371    23595507.080    92593819.742  
E 8  25882738.040   136014666.508    25882742.520   101569379.613  
E25  24768756.180   130160653.730    24768759.920    97197881.215  
E30  25775432.380   135450772.129    25775436.360   101148292.559  
> 2021  3 10 23 12  0.0000000  0 14       0.000000000000
G 2  22732486.180   119460018.480                                  
G 6  21233694.120   111583761.234    21233696.860    83325535.434  
G12  23111384.160   121451138.129                                  
G13  24370607.480   128068365.617                                  
G14  23395217.320   122942673.621    23395221.700    91807838.539  
G15  24622552.780   129392350.453                                  
G17  21975922.000   115484245.766                                  
G19  20334805.480   106860136.477                                  
G24  21110097.260   110934263.617    21110098.980    82840522.758  
G28  22983081.540   120776902.559                                  
E 2  23595343.100   123994356.711    23595345.200    92593184.512  
E 8  25883144.180   136016800.785    25883148.660   101570973.391  
E25  24768986.240   130161862.758    24768990.000    97198784.059  
E30  25775013.520   135448571.082    25775017.500   101146648.922  
> 2021  3 10 23 12  1.0000000  0 14       0.000000000000
G 2  22731905.280   119456965.809                                  
G 6  21233345.660   111581930.070    21233348.400    83324168.008  
G12  23110885.200   121448516.047                                  
G13  24371222.100   128071595.426                                  
G14  23395673.600   122945071.398    23395677.980    91809629.086  
G15  24623033.280   129394875.563                                  
G17  21976372.300   115486612.063                                  
G19  20335033.440   106861334.445                                  
G24  21109883.140   110933138.355    21109884.840    82839682.465  
G28  22983425.400   120778709.477                                  
E 2  23595181.240   123993506.195    23595183.340    92592549.387  
E 8  25883550.340   136018935.207    25883554.820   101572567.273  
E25  24769216.360   130163071.992    24769220.100    97199687.059  
E30  25774594.680   135446370.012    25774598.660   101145005.266  
> 2021  3 10 23 12  2.0000000  0 14       0.000000000000
G 2  22731324.420   119453913.430                                  
G 6  21232997.320   111580099.496    21233000.060    83322801.023  
G12  23110386.240   121445894.035                                  
G13  24371836.700   128074825.195                                  
G14  23396129.900   122947469.332    23396134.300    91811419.750  
G15  24623513.820   129397400.785                                  
G17  21976822.620   115488978.527                                  
G19  20335261.500   106862532.859                                  
G24  21109669.120   110932013.688    21109670.840    82838842.617  
G28  22983769.260   120780516.531                                  
E 2  23595019.440   123992655.836    23595021.520    92591914.379  
E 8  25883956.540   136021069.758    25883961.020   101574161.258  
E25  24769446.500   130164281.426    24769450.260    97200590.207  
E30  25774175.820   135444168.910    25774179.800   101143361.586  
> 2021  3 10 23 12  3.0000000  0 14       0.000000000000
G 2  22730743.620   119450861.340                                  
G 6  21232649.080   111578269.492    21232651.820    83321434.461  
G12  23109887.320   121443272.098                                  
G13  24372451.300   128078054.957                                  
G14  23396586.240   122949867.418    23396590.640    91813210.527  
G15  24623994.380   129399926.113                                  
G17  21977272.980   115491345.145                                  
G19  20335489.640   106863731.727                                  
G24  21109455.220   110930889.613    21109456.920    82838003.207  
G28  22984113.160   120782323.711                                  
E 2  23594857.640   123991805.645    23594859.740    92591279.496  
E 8  25884362.760   136023204.449    25884367.240   101575755.344  
E25  24769676.680   130165491.059    24769680.440    97201493.504  
E30  25773756.960   135441967.797    25773760.940   101141717.898  
> 2021  3 10 23 12  4.0000000  0 14       0.000000000000
G 2  22730162.880   119447809.535                                  
G 6  21232300.940   111576440.063    21232303.700    83320068.328  
G12  23109388.380   121440650.223                                  
G13  24373065.900   128081284.676                                  
G14  23397042.620   122952265.648    23397047.020    91815001.414  
G15  24624474.960   129402451.559                                  
G17  21977723.360   115493711.938                                  
G19  20335717.860   106864931.047                                  
G24  21109241.420   110929766.137    21109243.140    82837164.250  
G28  22984457.080   120784131.020                                  
E 2  23594695.880   123990955.590    23594697.980    92590644.715  
E 8  25884769.000   136025339.281    25884773.480   101577349.535  
E25  24769906.900   130166700.887    24769910.660    97202396.945  
E30  25773338.100   135439766.660    25773342.080   101140074.195  
> 2021  3 10 23 12  5.0000000  0 14       0.000000000000
G 2  22729582.200   119444758.016                                  
G 6  21231952.920   111574611.211    21231955.680    83318702.629  
G12  23108889.460   121438028.410                                  
G13  24373680.500   128084514.375                                  
G14  23397499.020   122954664.035    23397503.420    91816792.414  
G15  24624955.540   129404977.105                                  
G17  21978173.780   115496078.887                                  
G19  20335946.160   106866130.816                                  
G24  21109027.740   110928643.254    21109029.460    82836325.730  
G28  22984801.020   120785938.465                                  
E 2  23594534.160   123990105.715    23594536.260    92590010.066  
E 8  25885175.280   136027474.254    25885179.760   101578943.832  
E25  24770137.160   130167910.918    24770140.920    97203300.543  
E30  25772919.240   135437565.508    25772923.220   101138430.477  
> 2021  3 10 23 12  6.0000000  0 14       0.000000000000
G 2  22729001.560   119441706.773                                  
G 6  21231605.020   111572782.941    21231607.760    83317337.363  
G12  23108390.560   121435406.668                                  
G13  24374295.080   128087744.031                                  
G14  23397955.440   122957062.582    23397959.840    91818583.535  
G15  24625436.160   129407502.766                                  
G17  21978624.220   115498445.996                                  
G19  20336174.560   106867331.027                                  
G24  21108814.180   110927520.949    21108815.900    82835487.648  
G28  22985145.000   120787746.047                                  
E 2  23594372.460   123989255.988    23594374.560    92589375.531  
E 8  25885581.580   136029609.367    25885586.060   101580538.234  
E25  24770367.480   130169121.156    24770371.220    97204204.289  
E30  25772500.360   135435364.328    25772504.340   101136786.742  
> 2021  3 10 23 12  7.0000000  0 14       0.000000000000
G 2  22728420.980   119438655.809                                  
G 6  21231257.220   111570955.258    21231259.960    83315972.535  
G12  23107891.680   121432784.992                                  
G13  24374909.660   128090973.695                                  
G14  23398411.900   122959461.281    23398416.300    91820374.770  
G15  24625916.800   129410028.547                                  
G17  21979074.700   115500813.281                                  
G19  20336403.040   106868531.699                                  
G24  21108600.720   110926399.250    21108602.440    82834650.012  
G28  22985489.000   120789553.758                                  
E 2  23594210.800   123988406.434    23594212.900    92588741.121  
E 8  25885987.900   136031744.648    25885992.400   101582132.758  
E25  24770597.820   130170331.602    24770601.560    97205108.195  
E30  25772081.500   135433163.152    25772085.480   101135143.008  
> 2021  3 10 23 12  8.0000000  0 14       0.000000000000
G 2  22727840.480   119435605.227                                  
G 6  21230909.520   111569128.125    21230912.280    83314608.117  
G12  23107392.800   121430163.406                                  
G13  24375524.240   128094203.320                                  
G14  23398868.380   122961860.129    23398872.780    91822166.117  
G15  24626397.460   129412554.410                                  
G17  21979525.220   115503180.730                                  
G19  20336631.600   106869732.828                                  
G24  21108387.380   110925278.121    21108389.100    82833812.809  
G28  22985833.020   120791361.590                                  
E 2  23594049.160   123987557.000    23594051.260    92588106.809  
E 8  25886394.240   136033879.980    25886398.740   101583727.324  
E25  24770828.180   130171542.215    24770831.940    97206012.223  
E30  25771662.620   135430961.930    25771666.600   101133499.234  
> 2021  3 10 23 12  9.0000000  0 14       0.000000000000
G 2  22727260.020   119432554.859                                  
G 6  21230561.940   111567301.590    21230564.700    83313244.148  
G12  23106893.940   121427541.879                                  
G13  24376138.800   128097432.914                                  
G14  23399324.900   122964259.145    23399329.300    91823957.586  
G15  24626878.140   129415080.398                                  
G17  21979975.760   115505548.340                                  
G19  20336860.260   106870934.398                                  
G24  21108174.160   110924157.617    21108175.860    82832976.070  
G28  22986177.060   120793169.570                                  
E 2  23593887.540   123986707.754    23593889.640    92587472.629  
E 8  25886800.620   136036015.520    25886805.120   101585322.043  
E25  24771058.600   130172753.047    24771062.360    97206916.414  
E30  25771243.740   135428760.691    25771247.700   101131855.457  
> 2021  3 10 23 12 10.0000000  0 14       0.000000000000
G 2  22726679.600   119429504.805                                  
G 6  21230214.480   111565475.625    21230217.220    83311880.605  
G12  23106395.100   121424920.410                                  
G13  24376753.380   128100662.484                                  
G14  23399781.440   122966658.297    23399785.840    91825749.164  
G15  24627358.840   129417606.500                                  
G17  21980426.320   115507916.117                                  
G19  20337088.980   106872136.418                                  
G24  21107961.040   110923037.699    21107962.760    82832139.766  
G28  22986521.120   120794977.672                                  
E 2  23593725.960   123985858.656    23593728.060    92586838.563  
E 8  25887207.040   136038151.176    25887211.520   101586916.848  
E25  24771289.040   130173964.078    24771292.800    97207820.754  
E30  25770824.840   135426559.441    25770828.820   101130211.664  
> 2021  3 10 23 12 11.0000000  0 14       0.000000000000
G 2  22726099.240   119426455.031                                  
G 6  21229867.120   111563650.230    21229869.860    83310517.492  
G12  23105896.260   121422299.008                                  
G13  24377367.940   128103892.020                                  
G14  23400238.020   122969057.609    23400242.420    91827540.859  
G15  24627839.560   129420132.699                                  
G17  21980876.920   115510284.051                                  
G19  20337317.800   106873338.883                                  
G24  21107748.040   110921918.355    21107749.740    82831303.898  
G28  22986865.220   120796785.902                                  
E 2  23593564.420   123985009.707    23593566.520    92586204.605  
E 8  25887613.460   136040286.973    25887617.940   101588511.762  
E25  24771519.540   130175175.313    24771523.300    97208725.250  
E30  25770405.960   135424358.168    25770409.940   101128567.859  
> 2021  3 10 23 12 12.0000000  0 14       0.000000000000
G 2  22725518.940   119423405.539                                  
G 6  21229519.860   111561825.414    21229522.600    83309154.805  
G12  23105397.440   121419677.676                                  
G13  24377982.500   128107121.531                                  
G14  23400694.620   122971457.066    23400699.020    91829332.660  
G15  24628320.300   129422659.012                                  
G17  21981327.560   115512652.145                                  
G19  20337546.720   106874541.789                                  
G24  21107535.140   110920799.621    21107536.860    82830468.480  
G28  22987209.340   120798594.262                                  
E 2  23593402.900   123984160.926    23593405.000    92585570.777  
E 8  25888019.920   136042422.918    25888024.400   101590106.785  
E25  24771750.060   130176386.750    24771753.820    97209629.891  
E30  25769987.060   135422156.875    25769991.040   101126924.039  
> 2021  3 10 23 12 13.0000000  0 14       0.000000000000
G 2  22724938.700   119420356.348                                  
G 6  21229172.720   111560001.176    21229175.460    83307792.547  
G12  23104898.620   121417056.402                                  
G13  24378597.040   128110351.008                                  
G14  23401151.260   122973856.684    23401155.660    91831124.582  
G15  24628801.060   129425185.430                                  
G17  21981778.220   115515020.398                                  
G19  20337775.700   106875745.156                                  
G24  21107322.380   110919681.488    21107324.080    82829633.512  
G28  22987553.480   120800402.758                                  
E 2  23593241.420   123983312.293    23593243.520    92584937.059  
E 8  25888426.400   136044558.984    25888430.880   101591701.898  
E25  24771980.640   130177598.383    24771984.400    97210534.684  
E30  25769568.160   135419955.559    25769572.140   101125280.199  
> 2021  3 10 23 12 14.0000000  0 14       0.000000000000
G 2  22724358.520   119417307.453                                  
G 6  21228825.680   111558177.512    21228828.440    83306430.723  
G12  23104399.820   121414435.211                                  
G13  24379211.580   128113580.465                                  
G14  23401607.920   122976256.453    23401612.320    91832916.617  
G15  24629281.860   129427711.965                                  
G17  21982228.920   115517388.824                                  
G19  20338004.780   106876948.969                                  
G24  21107109.720   110918563.934    21107111.420    82828798.973  
G28  22987897.660   120802211.379                                  
E 2  23593079.960   123982463.824    23593082.060    92584303.461  
E 8  25888832.900   136046695.199    25888837.400   101593297.121  
E25  24772211.240   130178810.227    24772215.000    97211439.629  
E30  25769149.260   135417754.219    25769153.240   101123636.344  
> 2021  3 10 23 12 15.0000000  0 14       0.000000000000
G 2  22723778.380   119414258.848                                  
G 6  21228478.760   111556354.418    21228481.520    83305069.320  
G12  23103901.040   121411814.090                                  
G13  24379826.120   128116809.891                                  
G14  23402064.600   122978656.371    23402069.000    91834708.762  
G15  24629762.660   129430238.598                                  
G17  21982679.640   115519757.406                                  
G19  20338233.940   106878153.230                                  
G24  21106897.160   110917446.977    21106898.880    82827964.883  
G28  22988241.860   120804020.141                                  
E 2  23592918.520   123981615.508    23592920.620    92583669.977  
E 8  25889239.440   136048831.559    25889243.940   101594892.453  
E25  24772441.880   130180022.254    24772445.640    97212344.715  
E30  25768730.360   135415552.859    25768734.340   101121992.473  
> 2021  3 10 23 12 16.0000000  0 14       0.000000000000
G 2  22723198.280   119411210.699                                  
G 6  21228131.980   111554531.789    21228134.680    83303708.402  
G12  23103402.220   121409193.313                                  
G13  24380440.720   128120038.996                                  
G14  23402521.360   122981056.223    23402525.740    91836500.938  
G15  24630243.480   129432765.328                                  
G17  21983130.380   115522126.250                                  
G19  20338463.180   106879358.066                                  
G24  21106684.760   110916330.441    21106686.440    82827131.223  
G28  22988586.060   120805829.047                                  
E 2  23592757.120   123980767.367    23592759.220    92583036.641  
E 8  25889646.020   136050967.910    25889650.540   101596487.711  
E25  24772672.560   130181234.480    24772676.320    97213249.949  
E30  25768311.440   135413351.570    25768315.400   101120348.711  
> 2021  3 10 23 12 17.0000000  0 14       0.000000000000
G 2  22722618.260   119408162.680                                  
G 6  21227785.280   111552709.859    21227787.980    83302347.867  
G12  23102903.460   121406572.324                                  
G13  24381055.240   128123268.371                                  
G14  23402978.120   122983456.449    23402982.500    91838293.305  
G15  24630724.320   129435292.188                                  
G17  21983581.180   115524495.168                                  
G19  20338692.500   106880563.227                                  
G24  21106472.420   110915214.676    21106474.120    82826298.012  
G28  22988930.320   120807638.066                                  
E 2  23592595.760   123979919.344    23592597.840    92582403.375  
E 8  25890052.620   136053104.543    25890057.120   101598083.246  
E25  24772903.280   130182446.906    24772907.040    97214155.328  
E30  25767892.520   135411150.168    25767896.480   101118704.805  
> 2021  3 10 23 12 18.0000000  0 14       0.000000000000
G 2  22722038.280   119405114.953                                  
G 6  21227438.680   111550888.512    21227441.400    83300987.762  
G12  23102404.700   121403951.414                                  
G13  24381669.760   128126497.699                                  
G14  23403434.900   122985856.832    23403439.280    91840085.789  
G15  24631205.180   129437819.145                                  
G17  21984032.000   115526864.238                                  
G19  20338921.920   106881768.832                                  
G24  21106260.220   110914099.516    21106261.900    82825465.258  
G28  22989274.580   120809447.219                                  
E 2  23592434.420   123979071.500    23592436.500    92581770.246  
E 8  25890459.220   136055241.293    25890463.740   101599678.867  
E25  24773134.040   130183659.531    24773137.800    97215060.863  
E30  25767473.600   135408948.742    25767477.560   101117060.887  
> 2021  3 10 23 12 19.0000000  0 14       0.000000000000
G 2  22721458.380   119402067.520                                  
G 6  21227092.200   111549067.738    21227094.920    83299628.086  
G12  23101905.980   121401330.570                                  
G13  24382284.280   128129727.008                                  
G14  23403891.700   122988257.367    23403896.080    91841878.391  
G15  24631686.060   129440346.227                                  
G17  21984482.840   115529233.477                                  
G19  20339151.420   106882974.895                                  
G24  21106048.120   110912984.945    21106049.800    82824632.938  
G28  22989618.880   120811256.504                                  
E 2  23592273.100   123978223.805    23592275.200    92581137.227  
E 8  25890865.880   136057378.188    25890870.380   101601274.602  
E25  24773364.840   130184872.363    24773368.600    97215966.547  
E30  25767054.680   135406747.297    25767058.640   101115416.949  
> 2021  3 10 23 12 20.0000000  0 14       0.000000000000
G 2  22720878.520   119399020.379                                  
G 6  21226745.820   111547247.543    21226748.540    83298268.844  
G12  23101407.260   121398709.789                                  
G13  24382898.780   128132956.285                                  
G14  23404348.540   122990658.070    23404352.920    91843671.113  
G15  24632166.960   129442873.395                                  
G17  21984933.720   115531602.883                                  
G19  20339381.020   106884181.406                                  
G24  21105836.140   110911870.969    21105837.820    82823801.066  
G28  22989963.200   120813065.922                                  
E 2  23592111.820   123977376.273    23592113.920    92580504.328  
E 8  25891272.540   136059515.207    25891277.040   101602870.426  
E25  24773595.680   130186085.398    24773599.440    97216872.387  
E30  25766635.760   135404545.836    25766639.720   101113773.004  
> 2021  3 10 23 12 21.0000000  0 14       0.000000000000
G 2  22720298.720   119395973.523                                  
G 6  21226399.560   111545427.930    21226402.280    83296910.039  
G12  23100908.540   121396089.070                                  
G13  24383513.300   128136185.539                                  
G14  23404805.400   122993058.910    23404809.780    91845463.945  
G15  24632647.900   129445400.680                                  
G17  21985384.640   115533972.445                                  
G19  20339610.700   106885388.359                                  
G24  21105624.260   110910757.578    21105625.960    82822969.637  
G28  22990307.540   120814875.473                                  
E 2  23591950.580   123976528.895    23591952.680    92579871.547  
E 8  25891679.220   136061652.375    25891683.740   101604466.363  
E25  24773826.540   130187298.625    24773830.300    97217778.363  
E30  25766216.840   135402344.348    25766220.800   101112129.035  
> 2021  3 10 23 12 22.0000000  0 14       0.000000000000
G 2  22719718.980   119392926.965                                  
G 6  21226053.400   111543608.891    21226056.120    83295551.660  
G12  23100409.860   121393468.441                                  
G13  24384127.800   128139414.766                                  
G14  23405262.300   122995459.906    23405266.680    91847256.891  
G15  24633128.840   129447928.070                                  
G17  21985835.580   115536342.180                                  
G19  20339840.460   106886595.770                                  
G24  21105412.500   110909644.793    21105414.200    82822138.656  
G28  22990651.900   120816685.148                                  
E 2  23591789.360   123975681.664    23591791.460    92579238.875  
E 8  25892085.940   136063789.680    25892090.460   101606062.398  
E25  24774057.460   130188512.051    24774061.220    97218684.496  
E30  25765797.900   135400142.848    25765801.860   101110485.059  
> 2021  3 10 23 12 23.0000000  0 14       0.000000000000
G 2  22719139.300   119389880.699                                  
G 6  21225707.360   111541790.426    21225710.080    83294193.715  
G12  23099911.180   121390847.871                                  
G13  24384742.280   128142643.961                                  
G14  23405719.220   122997861.059    23405723.600    91849049.957  
G15  24633609.800   129450455.574                                  
G17  21986286.560   115538712.070                                  
G19  20340070.300   106887803.629                                  
G24  21105200.860   110908532.586    21105202.540    82821308.109  
G28  22990996.300   120818494.957                                  
E 2  23591628.160   123974834.609    23591630.260    92578606.332  
E 8  25892492.700   136065927.125    25892497.200   101607658.543  
E25  24774288.400   130189725.688    24774292.160    97219590.781  
E30  25765378.980   135397941.336    25765382.940   101108841.074  
> 2021  3 10 23 12 24.0000000  0 14       0.000000000000
G 2  22718559.660   119386834.734                                  
G 6  21225361.420   111539972.539    21225364.140    83292836.199  
G12  23099412.500   121388227.371                                  
G13  24385356.780   128145873.117                                  
G14  23406176.160   123000262.367    23406180.560    91850843.133  
G15  24634090.800   129452983.176                                  
G17  21986737.560   115541082.129                                  
G19  20340300.220   106889011.930                                  
G24  21104989.320   110907420.988    21104991.020    82820478.016  
G28  22991340.720   120820304.887                                  
E 2  23591467.020   123973987.699    23591469.100    92577973.902  
E 8  25892899.460   136068064.691    25892903.960   101609254.777  
E25  24774519.380   130190939.520    24774523.140    97220497.215  
E30  25764960.040   135395739.793    25764964.000   101107197.066  
> 2021  3 10 23 12 25.0000000  0 14       0.000000000000
G 2  22717980.080   119383789.043                                  
G 6  21225015.600   111538155.234    21225018.320    83291479.117  
G12  23098913.840   121385606.930                                  
G13  24385971.260   128149102.242                                  
G14  23406633.140   123002663.820    23406637.540    91852636.422  
G15  24634571.800   129455510.895                                  
G17  21987188.600   115543452.344                                  
G19  20340530.240   106890220.680                                  
G24  21104777.900   110906310.004    21104779.600    82819648.379  
G28  22991685.160   120822114.953                                  
E 2  23591305.880   123973140.945    23591307.980    92577341.586  
E 8  25893306.260   136070202.418    25893310.760   101610851.129  
E25  24774750.420   130192153.547    24774754.180    97221403.793  
E30  25764541.100   135393538.227    25764545.060   101105553.039  
> 2021  3 10 23 12 26.0000000  0 14       0.000000000000
G 2  22717400.560   119380743.656                                  
G 6  21224669.880   111536338.512    21224672.600    83290122.469  
G12  23098415.200   121382986.566                                  
G13  24386585.740   128152331.348                                  
G14  23407090.160   123005065.434    23407094.560    91854429.828  
G15  24635052.820   129458038.711                                  
G17  21987639.660   115545822.730                                  
G19  20340760.340   106891429.879                                  
G24  21104566.600   110905199.613    21104568.300    82818819.188  
G28  22992029.620   120823925.160                                  
E 2  23591144.780   123972294.352    23591146.880    92576709.391  
E 8  25893713.080   136072340.262    25893717.580   101612447.570  
E25  24774981.480   130193367.789    24774985.240    97222310.531  
E30  25764122.140   135391336.648    25764126.100   101103909.004  
> 2021  3 10 23 12 27.0000000  0 14       0.000000000000
G 2  22716821.100   119377698.555                                  
G 6  21224324.280   111534522.359    21224327.000    83288766.250  
G12  23097916.580   121380366.273                                  
G13  24387200.200   128155560.426                                  
G14  23407547.200   123007467.191    23407551.600    91856223.348  
G15  24635533.880   129460566.637                                  
G17  21988090.760   115548193.266                                  
G19  20340990.520   106892639.520                                  
G24  21104355.420   110904089.805    21104357.100    82817990.434  
G28  22992374.120   120825735.492                                  
E 2  23590983.720   123971447.918    23590985.800    92576077.313  
E 8  25894119.920   136074478.250    25894124.440   101614044.117  
E25  24775212.580   130194582.219    24775216.340    97223217.410  
E30  25763703.200   135389135.043    25763707.160   101102264.949  
> 2021  3 10 23 12 28.0000000  0 14       0.000000000000
G 2  22716241.680   119374653.746                                  
G 6  21223978.780   111532706.785    21223981.520    83287410.457  
G12  23097417.960   121377746.039                                  
G13  24387814.660   128158789.469                                  
G14  23408004.260   123009869.109    23408008.660    91858016.980  
G15  24636014.940   129463094.672                                  
G17  21988541.880   115550563.969                                  
G19  20341220.800   106893849.609                                  
G24  21104144.340   110902980.605    21104146.040    82817162.129  
G28  22992718.640   120827545.945                                  
E 2  23590822.680   123970601.641    23590824.760    92575445.352  
E 8  25894526.800   136076616.367    25894531.320   101615640.762  
E25  24775443.720   130195796.852    24775447.480    97224124.441  
E30  25763284.240   135386933.418    25763288.200   101100620.879  
> 2021  3 10 23 12 29.0000000  0 14       0.000000000000
G 2  22715662.320   119371609.230                                  
G 6  21223633.400   111530891.797    21223636.120    83286055.105  
G12  23096919.360   121375125.875                                  
G13  24388429.120   128162018.480                                  
G14  23408461.360   123012271.172    23408465.760    91859810.723  
G15  24636496.020   129465622.813                                  
G17  21988993.040   115552934.832                                  
G19  20341451.160   106895060.152                                  
G24  21103933.380   110901872.012    21103935.080    82816334.281  
G28  22993063.180   120829356.547                                  
E 2  23590661.660   123969755.516    23590663.760    92574813.504  
E 8  25894933.700   136078754.633    25894938.220   101617237.516  
E25  24775674.900   130197011.684    24775678.660    97225031.621  
E30  25762865.280   135384731.773    25762869.240   101098976.797  
> 2021  3 10 23 12 30.0000000  0 14       0.000000000000
G 2  22715083.020   119368565.008                                  
G 6  21223288.120   111529077.375    21223290.860    83284700.180  
G12  23096420.760   121372505.793                                  
G13  24389043.580   128165247.449                                  
G14  23408918.480   123014673.395    23408922.880    91861604.586  
G15  24636977.140   129468151.055                                  
G17  21989444.240   115555305.855                                  
G19  20341681.600   106896271.145                                  
G24  21103722.520   110900764.008    21103724.220    82815506.871  
G28  22993407.760   120831167.270                                  
E 2  23590500.680   123968909.551    23590502.780    92574181.781  
E 8  25895340.620   136080893.020    25895345.140   101618834.363  
E25  24775906.120   130198226.715    24775909.860    97225938.949  
E30  25762446.320   135382530.117    25762450.280   101097332.703  
> 2021  3 10 23 12 31.0000000  0 14       0.000000000000
G 2  22714503.780   119365521.082                                  
G 6  21222942.960   111527263.539    21222945.700    83283345.688  
G12  23095922.200   121369885.777                                  
G13  24389658.020   128168476.398                                  
G14  23409375.640   123017075.770    23409380.040    91863398.559  
G15  24637458.260   129470679.402                                  
G17  21989895.460   115557677.059                                  
G19  20341912.120   106897482.594                                  
G24  21103511.800   110899656.594    21103513.500    82814679.902  
G28  22993752.340   120832978.145                                  
E 2  23590339.740   123968063.750    23590341.820    92573550.172  
E 8  25895747.580   136083031.559    25895752.100   101620431.324  
E25  24776137.360   130199441.949    24776141.120    97226846.430  
E30  25762027.360   135380328.430    25762031.320   101095688.586  
> 2021  3 10 23 12 32.0000000  0 14       0.000000000000
G 2  22713924.600   119362477.445                                  
G 6  21222597.900   111525450.273    21222600.640    83281991.621  
G12  23095423.640   121367265.828                                  
G13  24390272.460   128171705.316                                  
G14  23409832.820   123019478.289    23409837.220    91865192.648  
G15  24637939.420   129473207.875                                  
G17  21990346.700   115560048.422                                  
G19  20342142.740   106898694.484                                  
G24  21103301.160   110898549.766    21103302.860    82813853.371  
G28  22994096.960   120834789.148                                  
E 2  23590178.820   123967218.090    23590180.900    92572918.676  
E 8  25896154.560   136085170.219    25896159.060   101622028.371  
E25  24776368.660   130200657.387    24776372.420    97227754.059  
E30  25761608.380   135378126.719    25761612.340   101094044.453  
> 2021  3 10 23 12 33.0000000  0 14       0.000000000000
G 2  22713345.460   119359434.098                                  
G 6  21222252.960   111523637.590    21222255.700    83280637.992  
G12  23094925.080   121364645.953                                  
G13  24390886.900   128174934.207                                  
G14  23410290.040   123021880.969    23410294.440    91866986.852  
G15  24638420.580   129475736.438                                  
G17  21990798.000   115562419.949                                  
G19  20342373.440   106899906.813                                  
G24  21103090.660   110897443.512    21103092.360    82813027.270  
G28  22994441.620   120836600.277                                  
E 2  23590017.920   123966372.598    23590020.020    92572287.301  
E 8  25896561.560   136087309.020    25896566.080   101623625.527  
E25  24776599.980   130201873.020    24776603.740    97228661.840  
E30  25761189.420   135375924.996    25761193.380   101092400.313  
> 2021  3 10 23 12 34.0000000  0 14       0.000000000000
G 2  22712766.380   119356391.047                                  
G 6  21221908.120   111521825.484    21221910.860    83279284.793  
G12  23094426.540   121362026.141                                  
G13  24391501.340   128178163.066                                  
G14  23410747.280   123024283.801    23410751.680    91868781.168  
G15  24638901.780   129478265.109                                  
G17  21991249.300   115564791.637                                  
G19  20342604.220   106901119.590                                  
G24  21102880.260   110896337.855    21102881.960    82812201.613  
G28  22994786.280   120838411.535                                  
E 2  23589857.060   123965527.262    23589859.160    92571656.043  
E 8  25896968.580   136089447.961    25896973.100   101625222.785  
E25  24776831.360   130203088.855    24776835.120    97229569.766  
E30  25760770.440   135373723.254    25760774.400   101090756.152  
> 2021  3 10 23 12 35.0000000  0 14       0.000000000000
G 2  22712187.360   119353348.281                                  
G 6  21221563.400   111520013.945    21221566.140    83277932.016  
G12  23093928.020   121359406.398                                  
G13  24392115.760   128181391.875                                  
G14  23411204.560   123026686.781    23411208.960    91870575.594  
G15  24639382.980   129480793.887                                  
G17  21991700.660   115567163.480                                  
G19  20342835.100   106902332.836                                  
G24  21102669.960   110895232.809    21102671.680    82811376.410  
G28  22995130.980   120840222.945                                  
E 2  23589696.240   123964682.086    23589698.320    92571024.906  
E 8  25897375.640   136091587.031    25897380.160   101626820.145  
E25  24777062.760   130204304.883    24777066.520    97230477.840  
E30  25760351.460   135371521.500    25760355.420   101089111.988  
> 2021  3 10 23 12 36.0000000  0 14       0.000000000000
G 2  22711608.400   119350305.809                                  
G 6  21221218.780   111518202.992    21221221.520    83276579.680  
G12  23093429.520   121356786.730                                  
G13  24392730.180   128184620.660                                  
G14  23411661.860   123029089.922    23411666.260    91872370.141  
G15  24639864.220   129483322.773                                  
G17  21992152.040   115569535.500                                  
G19  20343066.040   106903546.516                                  
G24  21102459.800   110894128.340    21102461.500    82810551.641  
G28  22995475.700   120842034.469                                  
E 2  23589535.440   123963837.059    23589537.520    92570393.879  
E 8  25897782.720   136093726.242    25897787.240   101628417.605  
E25  24777294.200   130205521.113    24777297.960    97231386.063  
E30  25759932.480   135369319.715    25759936.440   101087467.797  
> 2021  3 10 23 12 37.0000000  0 14       0.000000000000
G 2  22711029.500   119347263.633                                  
G 6  21220874.280   111516392.633    21220877.020    83275227.781  
G12  23092931.020   121354167.121                                  
G13  24393344.580   128187849.426                                  
G14  23412119.180   123031493.215    23412123.600    91874164.805  
G15  24640345.460   129485851.766                                  
G17  21992603.440   115571907.672                                  
G19  20343297.080   106904760.641                                  
G24  21102249.720   110893024.461    21102251.440    82809727.313  
G28  22995820.440   120843846.141                                  
E 2  23589374.660   123962992.195    23589376.760    92569762.973  
E 8  25898189.840   136095865.590    25898194.340   101630015.172  
E25  24777525.680   130206737.555    24777529.440    97232294.445  
E30  25759513.480   135367117.910    25759517.440   101085823.594  
> 2021  3 10 23 12 38.0000000  0 14       0.000000000000
G 2  22710450.640   119344221.750                                  
G 6  21220529.900   111514582.844    21220532.620    83273876.313  
G12  23092432.540   121351547.590                                  
G13  24393959.000   128191078.160                                  
G14  23412576.540   123033896.656    23412580.960    91875959.574  
G15  24640826.740   129488380.863                                  
G17  21993054.880   115574280.000                                  
G19  20343528.200   106905975.215                                  
G24  21102039.780   110891921.160    21102041.480    82808903.414  
G28  22996165.220   120845657.918                                  
E 2  23589213.920   123962147.500    23589216.020    92569132.195  
E 8  25898596.960   136098005.063    25898601.480   101631612.828  
E25  24777757.200   130207954.195    24777760.960    97233202.977  
E30  25759094.500   135364916.090    25759098.460   101084179.379  
> 2021  3 10 23 12 39.0000000  0 14       0.000000000000
G 2  22709871.840   119341180.152                                  
G 6  21220185.600   111512773.633    21220188.340    83272525.277  
G12  23091934.060   121348928.129                                  
G13  24394573.400   128194306.859                                  
G14  23413033.940   123036300.254    23413038.340    91877754.465  
G15  24641308.020   129490910.066                                  
G17  21993506.340   115576652.508                                  
G19  20343759.420   106907190.230                                  
G24  21101829.940   110890818.445    21101831.640    82808079.957  
G28  22996510.020   120847469.844                                  
E 2  23589053.200   123961302.941    23589055.300    92568501.520  
E 8  25899004.120   136100144.672    25899008.640   101633210.582  
E25  24777988.760   130209171.039    24777992.520    97234111.652  
E30  25758675.500   135362714.246    25758679.460   101082535.148  
> 2021  3 10 23 12 40.0000000  0 14       0.000000000000
G 2  22709293.100   119338138.855                                  
G 6  21219841.440   111510965.004    21219844.160    83271174.676  
G12  23091435.620   121346308.746                                  
G13  24395187.780   128197535.539                                  
G14  23413491.340   123038704.000    23413495.760    91879549.465  
G15  24641789.340   129493439.371                                  
G17  21993957.860   115579025.168                                  
G19  20343990.700   106908405.699                                  
G24  21101620.200   110889716.348    21101621.920    82807256.957  
G28  22996854.840   120849281.898                                  
E 2  23588892.540   123960458.559    23588894.620    92567870.973  
E 8  25899411.300   136102284.438    25899415.820   101634808.457  
E25  24778220.360   130210388.074    24778224.120    97235020.480  
E30  25758256.500   135360512.395    25758260.460   101080890.906  
> 2021  3 10 23 12 41.0000000  0 14       0.000000000000
G 2  22708714.400   119335097.848                                  
G 6  21219497.360   111509156.941    21219500.100    83269824.496  
G12  23090937.160   121343689.418                                  
G13  24395802.180   128200764.172                                  
G14  23413948.800   123041107.898    23413953.200    91881344.582  
G15  24642270.660   129495968.781                                  
G17  21994409.380   115581397.988                                  
G19  20344222.080   106909621.609                                  
G24  21101410.600   110888614.844    21101412.300    82806434.402  
G28  22997199.680   120851094.090                                  
E 2  23588731.880   123959614.324    23588733.980    92567240.539  
E 8  25899818.520   136104424.305    25899823.020   101636406.410  
E25  24778452.000   130211605.309    24778455.760    97235929.453  
E30  25757837.500   135358310.504    25757841.460   101079246.641  
> 2021  3 10 23 12 42.0000000  0 14       0.000000000000
G 2  22708135.780   119332057.141                                  
G 6  21219153.420   111507349.465    21219156.160    83268474.754  
G12  23090438.740   121341070.160                                  
G13  24396416.560   128203992.781                                  
G14  23414406.260   123043511.961    23414410.680    91883139.816  
G15  24642752.020   129498498.313                                  
G17  21994860.940   115583770.973                                  
G19  20344453.560   106910837.973                                  
G24  21101201.100   110887513.934    21101202.800    82805612.289  
G28  22997544.560   120852906.410                                  
E 2  23588571.260   123958770.250    23588573.360    92566610.223  
E 8  25900225.760   136106564.344    25900230.260   101638004.488  
E25  24778683.680   130212822.758    24778687.440    97236838.586  
E30  25757418.500   135356108.605    25757422.440   101077602.367  
> 2021  3 10 23 12 43.0000000  0 14       0.000000000000
G 2  22707557.200   119329016.723                                  
G 6  21218809.580   111505542.578    21218812.320    83267125.449  
G12  23089940.320   121338450.977                                  
G13  24397030.940   128207221.355                                  
G14  23414863.780   123045916.164    23414868.180    91884935.156  
G15  24643233.380   129501027.938                                  
G17  21995312.540   115586144.117                                  
G19  20344685.100   106912054.785                                  
G24  21100991.700   110886413.594    21100993.420    82804790.605  
G28  22997889.440   120854718.863                                  
E 2  23588410.660   123957926.328    23588412.760    92565980.023  
E 8  25900633.020   136108704.504    25900637.520   101639602.660  
E25  24778915.380   130214040.395    24778919.140    97237747.859  
E30  25756999.480   135353906.688    25757003.440   101075958.078  
> 2021  3 10 23 12 44.0000000  0 14       0.000000000000
G 2  22706978.680   119325976.598                                  
G 6  21218465.840   111503736.258    21218468.580    83265776.570  
G12  23089441.920   121335831.859                                  
G13  24397645.300   128210449.891                                  
G14  23415321.300   123048320.523    23415325.720    91886730.617  
G15  24643714.780   129503557.676                                  
G17  21995764.160   115588517.422                                  
G19  20344916.740   106913272.047                                  
G24  21100782.440   110885313.867    21100784.140    82803969.375  
G28  22998234.360   120856531.438                                  
E 2  23588250.100   123957082.570    23588252.200    92565349.945  
E 8  25901040.300   136110844.801    25901044.820   101641200.934  
E25  24779147.140   130215258.230    24779150.900    97238657.285  
E30  25756580.480   135351704.750    25756584.420   101074313.777  
> 2021  3 10 23 12 45.0000000  0 14       0.000000000000
G 2  22706400.220   119322936.773                                  
G 6  21218122.220   111501930.520    21218124.960    83264428.133  
G12  23088943.520   121333212.813                                  
G13  24398259.660   128213678.406                                  
G14  23415778.880   123050725.035    23415783.280    91888526.191  
G15  24644196.200   129506087.512                                  
G17  21996215.820   115590890.883                                  
G19  20345148.460   106914489.750                                  
G24  21100573.280   110884214.738    21100575.000    82803148.602  
G28  22998579.320   120858344.160                                  
E 2  23588089.580   123956238.965    23588091.680    92564719.980  
E 8  25901447.600   136112985.207    25901452.120   101642799.285  
E25  24779378.920   130216476.270    24779382.680    97239566.859  
E30  25756161.460   135349502.785    25756165.400   101072669.449  
> 2021  3 10 23 12 46.0000000  0 14       0.000000000000
G 2  22705821.820   119319897.234                                  
G 6  21217778.700   111500125.352    21217781.440    83263080.117  
G12  23088445.160   121330593.836                                  
G13  24398874.040   128216906.887                                  
G14  23416236.460   123053129.695    23416240.880    91890321.879  
G15  24644677.620   129508617.457                                  
G17  21996667.500   115593264.504                                  
G19  20345380.260   106915707.898                                  
G24  21100364.240   110883116.207    21100365.940    82802328.266  
G28  22998924.300   120860156.992                                  
E 2  23587929.080   123955395.531    23587931.180    92564090.141  
E 8  25901854.940   136115125.781    25901859.460   101644397.762  
E25  24779610.740   130217694.527    24779614.500    97240476.590  
E30  25755742.440   135347300.813    25755746.380   101071025.117  
> 2021  3 10 23 12 47.0000000  0 14       0.000000000000
G 2  22705243.460   119316858.000                                  
G 6  21217435.300   111498320.766    21217438.040    83261732.539  
G12  23087946.780   121327974.926                                  
G13  24399488.380   128220135.320                                  
G14  23416694.080   123055534.512    23416698.500    91892117.680  
G15  24645159.080   129511147.508                                  
G17  21997119.220   115595638.289                                  
G19  20345612.160   106916926.500                                  
G24  21100155.300   110882018.273    21100157.020    82801508.383  
G28  22999269.300   120861969.973                                  
E 2  23587768.600   123954552.238    23587770.700    92563460.402  
E 8  25902262.320   136117266.488    25902266.840   101645996.336  
E25  24779842.600   130218912.977    24779846.380    97241386.469  
E30  25755323.400   135345098.813    25755327.360   101069380.766  
> 2021  3 10 23 12 48.0000000  0 14       0.000000000000
G 2  22704665.180   119313819.051                                  
G 6  21217092.020   111496516.758    21217094.760    83260385.391  
G12  23087448.440   121325356.082                                  
G13  24400102.720   128223363.723                                  
G14  23417151.740   123057939.473    23417156.160    91893913.594  
G15  24645640.540   129513677.656                                  
G17  21997570.960   115598012.227                                  
G19  20345844.140   106918145.535                                  
G24  21099946.480   110880920.922    21099948.200    82800688.930  
G28  22999614.320   120863783.078                                  
E 2  23587608.160   123953709.121    23587610.260    92562830.801  
E 8  25902669.700   136119407.324    25902674.220   101647595.008  
E25  24780074.520   130220131.625    24780078.280    97242296.492  
E30  25754904.380   135342896.797    25754908.320   101067736.398  
> 2021  3 10 23 12 49.0000000  0 14       0.000000000000
G 2  22704086.940   119310780.398                                  
G 6  21216748.840   111494713.332    21216751.560    83259038.676  
G12  23086950.100   121322737.309                                  
G13  24400717.060   128226592.094                                  
G14  23417609.420   123060344.598    23417613.840    91895709.625  
G15  24646122.040   129516207.910                                  
G17  21998022.740   115600386.336                                  
G19  20346076.200   106919365.023                                  
G24  21099737.780   110879824.160    21099739.500    82799869.922  
G28  22999959.360   120865596.313                                  
E 2  23587447.760   123952866.160    23587449.860    92562201.313  
E 8  25903077.120   136121548.293    25903081.640   101649193.777  
E25  24780306.460   130221350.477    24780310.220    97243206.668  
E30  25754485.340   135340694.762    25754489.300   101066092.020  
> 2021  3 10 23 12 50.0000000  0 14       0.000000000000
G 2  22703508.760   119307742.043                                  
G 6  21216405.760   111492910.488    21216408.500    83257692.398  
G12  23086451.780   121320118.605                                  
G13  24401331.400   128229820.438                                  
G14  23418067.120   123062749.871    23418071.540    91897505.770  
G15  24646603.560   129518738.266                                  
G17  21998474.560   115602760.605                                  
G19  20346308.340   106920584.961                                  
G24  21099529.180   110878727.988    21099530.900    82799051.352  
G28  23000304.440   120867409.691                                  
E 2  23587287.380   123952023.359    23587289.480    92561571.941  
E 8  25903484.560   136123689.414    25903489.080   101650792.660  
E25  24780538.420   130222569.523    24780542.200    97244116.992  
E30  25754066.300   135338492.707    25754070.260   101064447.625  
> 2021  3 10 23 12 51.0000000  0 14       0.000000000000
G 2  22702930.620   119304703.977                                  
G 6  21216062.800   111491108.219    21216065.540    83256346.547  
G12  23085953.460   121317499.965                                  
G13  24401945.740   128233048.758                                  
G14  23418524.860   123065155.293    23418529.280    91899302.027  
G15  24647085.080   129521268.734                                  
G17  21998926.380   115605135.031                                  
G19  20346540.560   106921805.344                                  
G24  21099320.700   110877632.414    21099322.420    82798233.230  
G28  23000649.540   120869223.199                                  
E 2  23587127.020   123951180.699    23587129.120    92560942.680  
E 8  25903892.020   136125830.633    25903896.540   101652391.617  
E25  24780770.440   130223788.770    24780774.220    97245027.465  
E30  25753647.260   135336290.633    25753651.220   101062803.219  
> 2021  3 10 23 12 52.0000000  0 14       0.000000000000
G 2  22702352.560   119301666.203                                  
G 6  21215719.940   111489306.523    21215722.680    83255001.129  
G12  23085455.160   121314881.402                                  
G13  24402560.060   128236277.031                                  
G14  23418982.620   123067560.867    23418987.040    91901098.395  
G15  24647566.640   129523799.293                                  
G17  21999378.260   115607509.621                                  
G19  20346772.880   106923026.168                                  
G24  21099112.340   110876537.461    21099114.060    82797415.566  
G28  23000994.660   120871036.832                                  
E 2  23586966.700   123950338.203    23586968.800    92560313.539  
E 8  25904299.520   136127972.023    25904304.040   101653990.703  
E25  24781002.500   130225008.223    24781006.260    97245938.090  
E30  25753228.220   135334088.535    25753232.180   101061158.789  
> 2021  3 10 23 12 53.0000000  0 14       0.000000000000
G 2  22701774.540   119298628.734                                  
G 6  21215377.200   111487505.414    21215379.940    83253656.145  
G12  23084956.880   121312262.906                                  
G13  24403174.380   128239505.289                                  
G14  23419440.420   123069966.602    23419444.840    91902894.883  
G15  24648048.200   129526329.969                                  
G17  21999830.160   115609884.383                                  
G19  20347005.280   106924247.445                                  
G24  21098904.100   110875443.105    21098905.800    82796598.355  
G28  23001339.800   120872850.605                                  
E 2  23586806.400   123949495.871    23586808.520    92559684.523  
E 8  25904707.020   136130113.523    25904711.560   101655589.871  
E25  24781234.600   130226227.879    24781238.360    97246848.867  
E30  25752809.160   135331886.422    25752813.120   101059514.352  
> 2021  3 10 23 12 54.0000000  0 14       0.000000000000
G 2  22701196.580   119295591.551                                  
G 6  21215034.580   111485704.895    21215037.320    83252311.602  
G12  23084458.620   121309644.480                                  
G13  24403788.680   128242733.488                                  
G14  23419898.260   123072372.488    23419902.680    91904691.488  
G15  24648529.800   129528860.742                                  
G17  22000282.100   115612259.297                                  
G19  20347237.780   106925469.160                                  
G24  21098695.960   110874349.340    21098697.660    82795781.582  
G28  23001684.980   120874664.492                                  
E 2  23586646.140   123948653.699    23586648.260    92559055.621  
E 8  25905114.580   136132255.172    25905119.100   101657189.148  
E25  24781466.720   130227447.734    24781470.500    97247759.793  
E30  25752390.120   135329684.289    25752394.080   101057869.898  
> 2021  3 10 23 12 55.0000000  0 14       0.000000000000
G 2  22700618.680   119292554.652                                  
G 6  21214692.060   111483904.941    21214694.800    83250967.480  
G12  23083960.360   121307026.129                                  
G13  24404402.980   128245961.672                                  
G14  23420356.100   123074778.527    23420360.520    91906488.203  
G15  24649011.420   129531391.621                                  
G17  22000734.060   115614634.371                                  
G19  20347470.340   106926691.324                                  
G24  21098487.940   110873256.191    21098489.640    82794965.270  
G28  23002030.180   120876478.523                                  
E 2  23586485.920   123947811.680    23586488.020    92558426.840  
E 8  25905522.140   136134396.949    25905526.660   101658788.520  
E25  24781698.880   130228667.785    24781702.660    97248670.867  
E30  25751971.060   135327482.141    25751975.020   101056225.434  
> 2021  3 10 23 12 56.0000000  0 14       0.000000000000
G 2  22700040.840   119289518.055                                  
G 6  21214349.660   111482105.570    21214352.380    83249623.797  
G12  23083462.120   121304407.840                                  
G13  24405017.280   128249189.816                                  
G14  23420813.980   123077184.715    23420818.420    91908285.031  
G15  24649493.040   129533922.602                                  
G17  22001186.040   115617009.605                                  
G19  20347703.000   106927913.938                                  
G24  21098280.020   110872163.633    21098281.740    82794149.398  
G28  23002375.400   120878292.680                                  
E 2  23586325.720   123946969.816    23586327.820    92557798.172  
E 8  25905929.720   136136538.855    25905934.260   101660387.992  
E25  24781931.100   130229888.043    24781934.880    97249582.094  
E30  25751552.000   135325279.965    25751555.960   101054580.949  
> 2021  3 10 23 12 57.0000000  0 14       0.000000000000
G 2  22699463.040   119286481.762                                  
G 6  21214007.360   111480306.789    21214010.100    83248280.551  
G12  23082963.880   121301789.625                                  
G13  24405631.560   128252417.930                                  
G14  23421271.900   123079591.059    23421276.320    91910081.973  
G15  24649974.680   129536453.676                                  
G17  22001638.080   115619385.008                                  
G19  20347935.740   106929137.000                                  
G24  21098072.240   110871071.660    21098073.940    82793333.965  
G28  23002720.660   120880106.984                                  
E 2  23586165.540   123946128.121    23586167.660    92557169.629  
E 8  25906337.340   136138680.906    25906341.880   101661987.570  
E25  24782163.340   130231108.500    24782167.120    97250493.469  
E30  25751132.940   135323077.777    25751136.900   101052936.457  
> 2021  3 10 23 12 58.0000000  0 14       0.000000000000
G 2  22698885.320   119283445.762                                  
G 6  21213665.160   111478508.574    21213667.900    83246937.727  
G12  23082465.660   121299171.477                                  
G13  24406245.860   128255646.008                                  
G14  23421729.840   123081997.555    23421734.260    91911879.031  
G15  24650456.360   129538984.859                                  
G17  22002090.120   115621760.559                                  
G19  20348168.560   106930360.496                                  
G24  21097864.560   110869980.289    21097866.260    82792518.980  
G28  23003065.920   120881921.414                                  
E 2  23586005.400   123945286.574    23586007.520    92556541.199  
E 8  25906745.000   136140823.082    25906749.520   101663587.242  
E25  24782395.620   130232329.156    24782399.400    97251404.996  
E30  25750713.860   135320875.563    25750717.820   101051291.941  
> 2021  3 10 23 12 59.0000000  0 14       0.000000000000
G 2  22698307.640   119280410.055                                  
G 6  21213323.080   111476710.949    21213325.820    83245595.348  
G12  23081967.460   121296553.395                                  
G13  24406860.140   128258874.063                                  
G14  23422187.820   123084404.203    23422192.240    91913676.203  
G15  24650938.040   129541516.160                                  
G17  22002542.200   115624136.273                                  
G19  20348401.480   106931584.445                                  
G24  21097656.980   110868889.523    21097658.700    82791704.445  
G28  23003411.220   120883735.961                                  
E 2  23585845.300   123944445.188    23585847.400    92555912.887  
E 8  25907152.660   136142965.402    25907157.200   101665187.023  
E25  24782627.940   130233550.016    24782631.720    97252316.672  
E30  25750294.800   135318673.328    25750298.760   101049647.414  
> 2021  3 10 23 13  0.0000000  0 14       0.000000000000
G 2  22697730.020   119277374.652                                  
G 6  21212981.120   111474913.906    21212983.860    83244253.398  
G12  23081469.260   121293935.387                                  
G13  24407474.400   128262102.059                                  
G14  23422645.820   123086811.012    23422650.240    91915473.492  
G15  24651419.760   129544047.551                                  
G17  22002994.320   115626512.148                                  
G19  20348634.460   106932808.836                                  
G24  21097449.540   110867799.344    21097451.240    82790890.352  
G28  23003756.560   120885550.656                                  
E 2  23585685.220   123943603.973    23585687.320    92555284.703  
E 8  25907560.360   136145107.867    25907564.900   101666786.906  
E25  24782860.320   130234771.086    24782864.080    97253228.504  
E30  25749875.720   135316471.086    25749879.680   101048002.879  
> 2021  3 10 23 13  1.0000000  0 14       0.000000000000
G 2  22697152.460   119274339.535                                  
G 6  21212639.260   111473117.441    21212642.000    83242911.883  
G12  23080971.080   121291317.441                                  
G13  24408088.660   128265330.047                                  
G14  23423103.840   123089217.965    23423108.260    91917270.895  
G15  24651901.480   129546579.043                                  
G17  22003446.460   115628888.180                                  
G19  20348867.540   106934033.672                                  
G24  21097242.200   110866709.766    21097243.900    82790076.707  
G28  23004101.900   120887365.480                                  
E 2  23585525.160   123942762.898    23585527.280    92554656.621  
E 8  25907968.080   136147250.434    25907972.620   101668386.871  
E25  24783092.700   130235992.336    24783096.480    97254140.473  
E30  25749456.640   135314268.820    25749460.600   101046358.328  
> 2021  3 10 23 13  2.0000000  0 14       0.000000000000
G 2  22696574.940   119271304.719                                  
G 6  21212297.520   111471321.551    21212300.260    83241570.797  
G12  23080472.920   121288699.574                                  
G13  24408702.920   128268557.992                                  
G14  23423561.900   123091625.074    23423566.320    91919068.406  
G15  24652383.240   129549110.637                                  
G17  22003898.640   115631264.375                                  
G19  20349100.700   106935258.957                                  
G24  21097034.960   110865620.785    21097036.680    82789263.508  
G28  23004447.280   120889180.426                                  
E 2  23585365.140   123941921.996    23585367.260    92554028.672  
E 8  25908375.820   136149393.156    25908380.360   101669986.953  
E25  24783325.140   130237213.793    24783328.920    97255052.598  
E30  25749037.560   135312066.527    25749041.520   101044713.754  
> 2021  3 10 23 13  3.0000000  0 14       0.000000000000
G 2  22695997.500   119268270.199                                  
G 6  21211955.880   111469526.246    21211958.620    83240230.148  
G12  23079974.780   121286081.773                                  
G13  24409317.180   128271785.898                                  
G14  23424019.980   123094032.336    23424024.420    91920866.039  
G15  24652865.000   129551642.332                                  
G17  22004350.840   115633640.738                                  
G19  20349333.960   106936484.688                                  
G24  21096827.860   110864532.402    21096829.560    82788450.754  
G28  23004792.680   120890995.508                                  
E 2  23585205.160   123941081.246    23585207.260    92553400.836  
E 8  25908783.600   136151536.000    25908788.140   101671587.121  
E25  24783557.620   130238435.461    24783561.400    97255964.875  
E30  25748618.480   135309864.219    25748622.440   101043069.172  
> 2021  3 10 23 13  4.0000000  0 14       0.000000000000
G 2  22695420.100   119265235.977                                  
G 6  21211614.360   111467731.523    21211617.100    83238889.938  
G12  23079476.640   121283464.035                                  
G13  24409931.420   128275013.777                                  
G14  23424478.100   123096439.750    23424482.540    91922663.781  
G15  24653346.780   129554174.129                                  
G17  22004803.080   115636017.258                                  
G19  20349567.280   106937710.863                                  
G24  21096620.860   110863444.617    21096622.560    82787638.449  
G28  23005138.100   120892810.730                                  
E 2  23585045.200   123940240.656    23585047.320    92552773.121  
E 8  25909191.400   136153678.980    25909195.940   101673187.391  
E25  24783790.140   130239657.324    24783793.920    97256877.305  
E30  25748199.380   135307661.895    25748203.360   101041424.574  
> 2021  3 10 23 13  5.0000000  0 14       0.000000000000
G 2  22694842.760   119262202.043                                  
G 6  21211272.940   111465937.387    21211275.680    83237550.156  
G12  23078978.500   121280846.371                                  
G13  24410545.660   128278241.625                                  
G14  23424936.260   123098847.316    23424940.680    91924461.637  
G15  24653828.600   129556706.027                                  
G17  22005255.360   115638393.934                                  
G19  20349800.700   106938937.484                                  
G24  21096413.980   110862357.441    21096415.680    82786826.598  
G28  23005483.560   120894626.090                                  
E 2  23584885.260   123939400.215    23584887.380    92552145.512  
E 8  25909599.220   136155822.094    25909603.760   101674787.766  
E25  24784022.680   130240879.391    24784026.460    97257789.879  
E30  25747780.300   135305459.551    25747784.260   101039779.965  
> 2021  3 10 23 13  6.0000000  0 14       0.000000000000
G 2  22694265.480   119259168.402                                  
G 6  21210931.640   111464143.824    21210934.380    83236210.813  
G12  23078480.400   121278228.789                                  
G13  24411159.900   128281469.438                                  
G14  23425394.420   123101255.043    23425398.860    91926259.613  
G15  24654310.420   129559238.043                                  
G17  22005707.660   115640770.770                                  
G19  20350034.220   106940164.547                                  
G24  21096207.200   110861270.859    21096208.920    82786015.188  
G28  23005829.020   120896441.566                                  
E 2  23584725.380   123938559.953    23584727.480    92551518.039  
E 8  25910007.060   136157965.344    25910011.600   101676388.238  
E25  24784255.280   130242101.656    24784259.060    97258702.605  
E30  25747361.200   135303257.188    25747365.160   101038135.340  
> 2021  3 10 23 13  7.0000000  0 14       0.000000000000
G 2  22693688.240   119256135.023                                  
G 6  21210590.440   111462350.852    21210593.180    83234871.902  
G12  23077982.300   121275611.254                                  
G13  24411774.120   128284697.199                                  
G14  23425852.640   123103662.914    23425857.060    91928057.699  
G15  24654792.260   129561770.109                                  
G17  22006159.980   115643147.773                                  
G19  20350267.800   106941392.051                                  
G24  21096000.540   110860184.859    21096002.260    82785204.211  
G28  23006174.520   120898257.180                                  
E 2  23584565.500   123937719.859    23584567.620    92550890.695  
E 8  25910414.940   136160108.719    25910419.480   101677988.805  
E25  24784487.900   130243324.137    24784491.680    97259615.492  
E30  25746942.100   135301054.813    25746946.060   101036490.707  
> 2021  3 10 23 13  8.0000000  0 14       0.000000000000
G 2  22693111.080   119253102.031                                  
G 6  21210249.360   111460558.438    21210252.100    83233533.410  
G12  23077484.220   121272993.781                                  
G13  24412388.340   128287924.918                                  
G14  23426310.860   123106070.930    23426315.280    91929855.891  
G15  24655274.120   129564302.316                                  
G17  22006612.340   115645524.918                                  
G19  20350501.480   106942620.012                                  
G24  21095794.000   110859099.414    21095795.700    82784393.652  
G28  23006520.040   120900072.906                                  
E 2  23584405.660   123936879.871    23584407.780    92550263.426  
E 8  25910822.840   136162252.254    25910827.380   101679589.492  
E25  24784720.560   130244546.789    24784724.360    97260528.508  
E30  25746522.980   135298852.398    25746526.960   101034846.043  
> 2021  3 10 23 13  9.0000000  0 14       0.000000000000
G 2  22692533.980   119250069.273                                  
G 6  21209908.400   111458766.617    21209911.120    83232195.363  
G12  23076986.140   121270376.395                                  
G13  24413002.560   128291152.633                                  
G14  23426769.120   123108479.109    23426773.560    91931654.203  
G15  24655756.000   129566834.621                                  
G17  22007064.720   115647902.234                                  
G19  20350735.240   106943848.418                                  
G24  21095587.560   110858014.570    21095589.260    82783583.539  
G28  23006865.600   120901888.785                                  
E 2  23584245.860   123936040.070    23584247.980    92549636.297  
E 8  25911230.760   136164395.906    25911235.320   101681190.266  
E25  24784953.280   130245769.656    24784957.060    97261441.684  
E30  25746103.880   135296649.973    25746107.860   101033201.371  
> 2021  3 10 23 13 10.0000000  0 14       0.000000000000
G 2  22691956.920   119247036.824                                  
G 6  21209567.520   111456975.371    21209570.260    83230857.746  
G12  23076488.080   121267759.086                                  
G13  24413616.760   128294380.301                                  
G14  23427227.420   123110887.438    23427231.840    91933452.629  
G15  24656237.900   129569367.031                                  
G17  22007517.140   115650279.707                                  
G19  20350969.080   106945077.270                                  
G24  21095381.240   110856930.367    21095382.940    82782773.906  
G28  23007211.180   120903704.785                                  
E 2  23584086.080   123935200.430    23584088.200    92549009.297  
E 8  25911638.720   136166539.699    25911643.260   101682791.148  
E25  24785186.020   130246992.727    24785189.800    97262355.016  
E30  25745684.760   135294447.531    25745688.740   101031556.691  
> 2021  3 10 23 13 11.0000000  0 14       0.000000000000
G 2  22691379.920   119244004.664                                  
G 6  21209226.780   111455184.719    21209229.520    83229520.570  
G12  23075990.040   121265141.844                                  
G13  24414230.960   128297607.938                                  
G14  23427685.740   123113295.922    23427690.160    91935251.172  
G15  24656719.820   129571899.543                                  
G17  22007969.600   115652657.344                                  
G19  20351203.000   106946306.566                                  
G24  21095175.040   110855846.766    21095176.740    82781964.723  
G28  23007556.780   120905520.914                                  
E 2  23583926.320   123934360.953    23583928.440    92548382.414  
E 8  25912046.680   136168683.621    25912051.240   101684392.129  
E25  24785418.800   130248216.004    24785422.580    97263268.500  
E30  25745265.660   135292245.070    25745269.620   101029912.000  
> 2021  3 10 23 13 12.0000000  0 14       0.000000000000
G 2  22690802.960   119240972.809                                  
G 6  21208886.140   111453394.641    21208888.880    83228183.820  
G12  23075492.000   121262524.695                                  
G13  24414845.160   128300835.574                                  
G14  23428144.080   123115704.570    23428148.520    91937049.836  
G15  24657201.780   129574432.137                                  
G17  22008422.080   115655035.152                                  
G19  20351437.020   106947536.313                                  
G24  21094968.940   110854763.766    21094970.660    82781155.988  
G28  23007902.400   120907337.172                                  
E 2  23583766.620   123933521.625    23583768.720    92547755.641  
E 8  25912454.700   136170827.684    25912459.240   101685993.215  
E25  24785651.620   130249439.473    24785655.400    97264182.133  
E30  25744846.540   135290042.598    25744850.500   101028267.305  
> 2021  3 10 23 13 13.0000000  0 14       0.000000000000
G 2  22690226.080   119237941.254                                  
G 6  21208545.620   111451605.145    21208548.340    83226847.508  
G12  23074993.980   121259907.594                                  
G13  24415459.340   128304063.152                                  
G14  23428602.460   123118113.363    23428606.900    91938848.609  
G15  24657683.740   129576964.840                                  
G17  22008874.580   115657413.105                                  
G19  20351671.120   106948766.500                                  
G24  21094762.960   110853681.348    21094764.680    82780347.688  
G28  23008248.060   120909153.578                                  
E 2  23583606.920   123932682.465    23583609.040    92547128.996  
E 8  25912862.720   136172971.863    25912867.260   101687594.387  
E25  24785884.480   130250663.152    24785888.260    97265095.918  
E30  25744427.420   135287840.105    25744431.380   101026622.586  
> 2021  3 10 23 13 14.0000000  0 14       0.000000000000
G 2  22689649.260   119234909.984                                  
G 6  21208205.200   111449816.246    21208207.920    83225511.645  
G12  23074495.980   121257290.570                                  
G13  24416073.520   128307290.688                                  
G14  23429060.880   123120522.309    23429065.300    91940647.500  
G15  24658165.720   129579497.660                                  
G17  22009327.120   115659791.223                                  
G19  20351905.300   106949997.141                                  
G24  21094557.100   110852599.516    21094558.820    82779539.828  
G28  23008593.720   120910970.109                                  
E 2  23583447.280   123931843.477    23583449.380    92546502.477  
E 8  25913270.760   136175116.188    25913275.320   101689195.664  
E25  24786117.360   130251887.027    24786121.160    97266009.852  
E30  25744008.280   135285637.586    25744012.260   101024977.848  
> 2021  3 10 23 13 15.0000000  0 14       0.000000000000
G 2  22689072.480   119231879.016                                  
G 6  21207864.880   111448027.910    21207867.620    83224176.195  
G12  23073997.980   121254673.605                                  
G13  24416687.700   128310518.191                                  
G14  23429519.320   123122931.410    23429523.740    91942446.500  
G15  24658647.720   129582030.578                                  
G17  22009779.700   115662169.504                                  
G19  20352139.560   106951228.223                                  
G24  21094351.340   110851518.262    21094353.060    82778732.398  
G28  23008939.420   120912786.781                                  
E 2  23583287.640   123931004.625    23583289.760    92545876.063  
E 8  25913678.840   136177260.641    25913683.400   101690797.039  
E25  24786350.300   130253111.109    24786354.100    97266923.938  
E30  25743589.160   135283435.051    25743593.120   101023333.102  
> 2021  3 10 23 13 16.0000000  0 14       0.000000000000
G 2  22688495.760   119228848.348                                  
G 6  21207524.680   111446240.164    21207527.420    83222841.195  
G12  23073500.000   121252056.711                                  
G13  24417301.860   128313745.660                                  
G14  23429977.780   123125340.664    23429982.200    91944245.617  
G15  24659129.740   129584563.594                                  
G17  22010232.300   115664547.938                                  
G19  20352373.920   106952459.742                                  
G24  21094145.700   110850437.613    21094147.420    82777925.422  
G28  23009285.160   120914603.582                                  
E 2  23583128.040   123930165.941    23583130.160    92545249.773  
E 8  25914086.940   136179405.215    25914091.500   101692398.508  
E25  24786583.280   130254335.387    24786587.060    97267838.168  
E30  25743170.020   135281232.492    25743174.000   101021688.336  
> 2021  3 10 23 13 17.0000000  0 14       0.000000000000
G 2  22687919.100   119225817.973                                  
G 6  21207184.600   111444453.000    21207187.340    83221506.625  
G12  23073002.040   121249439.891                                  
G13  24417916.020   128316973.086                                  
G14  23430436.280   123127750.066    23430440.700    91946044.848  
G15  24659611.780   129587096.723                                  
G17  22010684.920   115666926.531                                  
G19  20352608.340   106953691.707                                  
G24  21093940.180   110849357.566    21093941.900    82777118.895  
G28  23009630.900   120916420.512                                  
E 2  23582968.480   123929327.414    23582970.600    92544623.602  
E 8  25914495.080   136181549.934    25914499.620   101694000.082  
E25  24786816.280   130255559.867    24786820.080    97268752.555  
E30  25742750.880   135279029.918    25742754.860   101020043.555  
> 2021  3 10 23 13 18.0000000  0 14       0.000000000000
G 2  22687342.480   119222787.895                                  
G 6  21206844.620   111442666.418    21206847.360    83220172.488  
G12  23072504.080   121246823.137                                  
G13  24418530.180   128320200.484                                  
G14  23430894.800   123130159.621    23430899.220    91947844.188  
G15  24660093.820   129589629.934                                  
G17  22011137.580   115669305.293                                  
G19  20352842.860   106954924.121                                  
G24  21093734.760   110848278.094    21093736.480    82776312.793  
G28  23009976.680   120918237.574                                  
E 2  23582808.940   123928489.035    23582811.060    92543997.535  
E 8  25914903.220   136183694.805    25914907.780   101695601.777  
E25  24787049.340   130256784.551    24787053.120    97269667.094  
E30  25742331.740   135276827.324    25742335.720   101018398.762  
> 2021  3 10 23 13 19.0000000  0 14       0.000000000000
G 2  22686765.940   119219758.117                                  
G 6  21206504.760   111440880.434    21206507.500    83218838.805  
G12  23072006.160   121244206.469                                  
G13  24419144.320   128323427.840                                  
G14  23431353.340   123132569.336    23431357.780    91949643.648  
G15  24660575.900   129592163.250                                  
G17  22011590.280   115671684.215                                  
G19  20353077.480   106956156.984                                  
G24  21093529.460   110847199.199    21093531.160    82775507.125  
G28  23010322.480   120920054.777                                  
E 2  23582649.440   123927650.840    23582651.560    92543371.609  
E 8  25915311.400   136185839.773    25915315.940   101697203.535  
E25  24787282.420   130258009.438    24787286.220    97270581.781  
E30  25741912.600   135274624.715    25741916.560   101016753.957  
> 2021  3 10 23 13 20.0000000  0 14       0.000000000000
G 2  22686189.440   119216728.641                                  
G 6  21206165.000   111439095.000    21206167.740    83217505.527  
G12  23071508.220   121241589.844                                  
G13  24419758.460   128326655.156                                  
G14  23431811.940   123134979.203    23431816.360    91951443.223  
G15  24661058.000   129594696.660                                  
G17  22012043.000   115674063.297                                  
G19  20353312.160   106957390.285                                  
G24  21093324.260   110846120.891    21093325.980    82774701.895  
G28  23010668.300   120921872.102                                  
E 2  23582489.960   123926812.793    23582492.080    92542745.797  
E 8  25915719.600   136187984.887    25915724.160   101698805.406  
E25  24787515.560   130259234.523    24787519.340    97271496.617  
E30  25741493.460   135272422.094    25741497.420   101015109.141  
> 2021  3 10 23 13 21.0000000  0 14       0.000000000000
G 2  22685613.020   119213699.445                                  
G 6  21205825.360   111437310.172    21205828.100    83216172.703  
G12  23071010.320   121238973.305                                  
G13  24420372.600   128329882.453                                  
G14  23432270.540   123137389.215    23432274.980    91953242.906  
G15  24661540.120   129597230.188                                  
G17  22012495.760   115676442.535                                  
G19  20353546.940   106958624.035                                  
G24  21093119.180   110845043.195    21093120.900    82773897.121  
G28  23011014.160   120923689.559                                  
E 2  23582330.520   123925974.895    23582332.640    92542120.094  
E 8  25916127.820   136190130.137    25916132.380   101700407.375  
E25  24787748.720   130260459.805    24787752.500    97272411.598  
E30  25741074.300   135270219.430    25741078.280   101013464.297  
> 2021  3 10 23 13 22.0000000  0 14       0.000000000000
G 2  22685036.640   119210670.551                                  
G 6  21205485.820   111435525.918    21205488.560    83214840.305  
G12  23070512.420   121236356.840                                  
G13  24420986.720   128333109.707                                  
G14  23432729.180   123139799.379    23432733.620    91955042.703  
G15  24662022.240   129599763.801                                  
G17  22012948.540   115678821.941                                  
G19  20353781.800   106959858.223                                  
G24  21092914.220   110843966.121    21092915.940    82773092.813  
G28  23011360.040   120925507.160                                  
E 2  23582171.100   123925137.168    23582173.220    92541494.520  
E 8  25916536.080   136192275.516    25916540.640   101702009.445  
E25  24787981.920   130261685.297    24787985.700    97273326.738  
E30  25740655.140   135268016.754    25740659.120   101011819.441  
> 2021  3 10 23 13 23.0000000  0 14       0.000000000000
G 2  22684460.300   119207641.961                                  
G 6  21205146.400   111433742.238    21205149.140    83213508.336  
G12  23070014.540   121233740.453                                  
G13  24421600.840   128336336.922                                  
G14  23433187.860   123142209.695    23433192.280    91956842.613  
G15  24662504.400   129602297.527                                  
G17  22013401.360   115681201.504                                  
G19  20354016.740   106961092.863                                  
G24  21092709.380   110842889.656    21092711.080    82772288.957  
G28  23011705.940   120927324.879                                  
E 2  23582011.720   123924299.582    23582013.840    92540869.047  
E 8  25916944.360   136194421.035    25916948.920   101703611.617  
E25  24788215.160   130262910.973    24788218.940    97274242.016  
E30  25740236.000   135265814.066    25740239.960   101010174.582  
> 2021  3 10 23 13 24.0000000  0 14       0.000000000000
G 2  22683884.040   119204613.664                                  
G 6  21204807.100   111431959.141    21204809.820    83212176.801  
G12  23069516.660   121231124.125                                  
G13  24422214.960   128339564.117                                  
G14  23433646.560   123144620.172    23433650.980    91958642.645  
G15  24662986.560   129604831.359                                  
G17  22013854.220   115683581.223                                  
G19  20354251.760   106962327.934                                  
G24  21092504.640   110841813.762    21092506.360    82771485.531  
G28  23012051.860   120929142.719                                  
E 2  23581852.360   123923462.176    23581854.480    92540243.711  
E 8  25917352.660   136196566.664    25917357.220   101705213.871  
E25  24788448.440   130264136.859    24788452.220    97275157.453  
E30  25739816.820   135263611.367    25739820.800   101008529.707  
> 2021  3 10 23 13 25.0000000  0 14       0.000000000000
G 2  22683307.840   119201585.668                                  
G 6  21204467.900   111430176.629    21204470.620    83210845.707  
G12  23069018.800   121228507.883                                  
G13  24422829.060   128342791.258                                  
G14  23434105.280   123147030.793    23434109.700    91960442.781  
G15  24663468.760   129607365.277                                  
G17  22014307.080   115685961.098                                  
G19  20354486.880   106963563.449                                  
G24  21092300.020   110840738.480    21092301.740    82770682.563  
G28  23012397.820   120930960.711                                  
E 2  23581693.040   123922624.910    23581695.160    92539618.484  
E 8  25917761.000   136198712.438    25917765.540   101706816.234  
E25  24788681.760   130265362.945    24788685.540    97276073.035  
E30  25739397.660   135261408.637    25739401.620   101006884.813  
> 2021  3 10 23 13 26.0000000  0 14       0.000000000000
G 2  22682731.680   119198557.965                                  
G 6  21204128.800   111428394.699    21204131.540    83209515.047  
G12  23068520.960   121225891.707                                  
G13  24423443.160   128346018.367                                  
G14  23434564.040   123149441.570    23434568.460    91962243.035  
G15  24663950.960   129609899.297                                  
G17  22014760.000   115688341.133                                  
G19  20354722.080   106964799.410                                  
G24  21092095.520   110839663.816    21092097.240    82769880.051  
G28  23012743.800   120932778.828                                  
E 2  23581533.740   123921787.824    23581535.860    92538993.383  
E 8  25918169.340   136200858.340    25918173.900   101708418.691  
E25  24788915.100   130266589.238    24788918.900    97276988.773  
E30  25738978.500   135259205.887    25738982.460   101005239.906  
> 2021  3 10 23 13 27.0000000  0 14       0.000000000000
G 2  22682155.580   119195530.563                                  
G 6  21203789.820   111426613.355    21203792.560    83208184.820  
G12  23068023.140   121223275.602                                  
G13  24424057.260   128349245.449                                  
G14  23435022.820   123151852.500    23435027.260    91964043.406  
G15  24664433.200   129612433.422                                  
G17  22015212.920   115690721.328                                  
G19  20354957.360   106966035.816                                  
G24  21091891.140   110838589.742    21091892.840    82769077.984  
G28  23013089.800   120934597.078                                  
E 2  23581374.480   123920950.883    23581376.600    92538368.395  
E 8  25918577.720   136203004.375    25918582.280   101710021.246  
E25  24789148.500   130267815.734    24789152.300    97277904.660  
E30  25738559.320   135257003.117    25738563.280   101003594.980  
> 2021  3 10 23 13 28.0000000  0 14       0.000000000000
G 2  22681579.540   119192503.461                                  
G 6  21203450.960   111424832.590    21203453.680    83206855.031  
G12  23067525.320   121220659.563                                  
G13  24424671.340   128352472.492                                  
G14  23435481.640   123154263.586    23435486.060    91965843.891  
G15  24664915.440   129614967.645                                  
G17  22015665.900   115693101.680                                  
G19  20355192.720   106967272.672                                  
G24  21091686.860   110837516.262    21091688.560    82768276.359  
G28  23013435.820   120936415.465                                  
E 2  23581215.240   123920114.109    23581217.360    92537743.531  
E 8  25918986.120   136205150.547    25918990.680   101711623.906  
E25  24789381.940   130269042.422    24789385.720    97278820.691  
E30  25738140.140   135254800.336    25738144.100   101001950.047  
> 2021  3 10 23 13 29.0000000  0 14       0.000000000000
G 2  22681003.560   119189476.652                                  
G 6  21203112.200   111423052.410    21203114.920    83205525.676  
G12  23067027.520   121218043.602                                  
G13  24425285.420   128355699.508                                  
G14  23435940.480   123156674.824    23435944.920    91967644.488  
G15  24665397.700   129617501.961                                  
G17  22016118.900   115695482.195                                  
G19  20355428.160   106968509.969                                  
G24  21091482.680   110836443.355    21091484.400    82767475.164  
G28  23013781.880   120938233.988                                  
E 2  23581056.040   123919277.496    23581058.160    92537118.789  
E 8  25919394.540   136207296.828    25919399.100   101713226.648  
E25  24789615.400   130270269.320    24789619.200    97279736.883  
E30  25737720.960   135252597.535    25737724.920   101000305.098  
> 2021  3 10 23 13 30.0000000  0 14       0.000000000000
G 2  22680427.640   119186450.145                                  
G 6  21202773.540   111421272.809    21202776.280    83204196.754  
G12  23066529.720   121215427.707                                  
G13  24425899.500   128358926.480                                  
G14  23436399.360   123159086.215    23436403.780    91969445.199  
G15  24665880.000   129620036.383                                  
G17  22016571.920   115697862.867                                  
G19  20355663.700   106969747.707                                  
G24  21091278.640   110835371.047    21091280.340    82766674.414  
G28  23014127.960   120940052.645                                  
E 2  23580896.880   123918441.039    23580898.980    92536494.164  
E 8  25919803.000   136209443.266    25919807.560   101714829.504  
E25  24789848.920   130271496.426    24789852.700    97280653.227  
E30  25737301.780   135250394.719    25737305.740   100998660.141  
> 2021  3 10 23 13 31.0000000  0 14       0.000000000000
G 2  22679851.760   119183423.934                                  
G 6  21202435.020   111419493.797    21202437.740    83202868.273  
G12  23066031.960   121212811.879                                  
G13  24426513.560   128362153.418                                  
G14  23436858.260   123161497.762    23436862.680    91971246.027  
G15  24666362.300   129622570.906                                  
G17  22017024.980   115700243.695                                  
G19  20355899.320   106970985.891                                  
G24  21091074.700   110834299.352    21091076.400    82765874.121  
G28  23014474.060   120941871.430                                  
E 2  23580737.740   123917604.746    23580739.840    92535869.660  
E 8  25920211.480   136211589.828    25920216.040   101716432.457  
E25  24790082.460   130272723.715    24790086.260    97281569.707  
E30  25736882.600   135248191.875    25736886.560   100997015.160  
> 2021  3 10 23 13 32.0000000  0 14       0.000000000000
G 2  22679275.940   119180398.016                                  
G 6  21202096.580   111417715.367    21202099.320    83201540.223  
G12  23065534.200   121210196.125                                  
G13  24427127.620   128365380.316                                  
G14  23437317.180   123163909.449    23437321.620    91973046.965  
G15  24666844.620   129625105.520                                  
G17  22017478.060   115702624.680                                  
G19  20356135.020   106972224.516                                  
G24  21090870.880   110833228.254    21090872.580    82765074.277  
G28  23014820.180   120943690.348                                  
E 2  23580578.620   123916768.602    23580580.740    92535245.266  
E 8  25920619.980   136213736.520    25920624.540   101718035.504  
E25  24790316.040   130273951.215    24790319.840    97282486.352  
E30  25736463.400   135245989.020    25736467.360   100995370.172  
> 2021  3 10 23 13 33.0000000  0 14       0.000000000000
G 2  22678700.200   119177372.402                                  
G 6  21201758.280   111415937.520    21201761.000    83200212.613  
G12  23065036.440   121207580.445                                  
G13  24427741.680   128368607.176                                  
G14  23437776.140   123166321.301    23437780.580    91974848.020  
G15  24667326.960   129627640.230                                  
G17  22017931.180   115705005.828                                  
G19  20356370.820   106973463.582                                  
G24  21090667.160   110832157.750    21090668.880    82764274.875  
G28  23015166.340   120945509.402                                  
E 2  23580419.540   123915932.625    23580421.660    92534620.996  
E 8  25921028.520   136215883.352    25921033.080   101719638.656  
E25  24790549.680   130275178.910    24790553.460    97283403.133  
E30  25736044.200   135243786.137    25736048.180   100993725.164  
> 2021  3 10 23 13 34.0000000  0 14       0.000000000000
G 2  22678124.500   119174347.098                                  
G 6  21201420.080   111414160.254    21201422.800    83198885.434  
G12  23064538.700   121204964.828                                  
G13  24428355.720   128371833.992                                  
G14  23438235.140   123168733.301    23438239.560    91976649.188  
G15  24667809.320   129630175.043                                  
G17  22018384.320   115707387.133                                  
G19  20356606.680   106974703.098                                  
G24  21090463.560   110831087.863    21090465.280    82763475.934  
G28  23015512.520   120947328.590                                  
E 2  23580260.480   123915096.801    23580262.600    92533996.844  
E 8  25921437.060   136218030.297    25921441.620   101721241.895  
E25  24790783.340   130276406.820    24790787.120    97284320.078  
E30  25735625.020   135241583.246    25735628.980   100992080.148  
> 2021  3 10 23 13 35.0000000  0 14       0.000000000000
G 2  22677548.840   119171322.074                                  
G 6  21201081.980   111412383.578    21201084.720    83197558.695  
G12  23064040.980   121202349.289                                  
G13  24428969.760   128375060.789                                  
G14  23438694.160   123171145.457    23438698.580    91978450.473  
G15  24668291.700   129632709.969                                  
G17  22018837.500   115709768.602                                  
G19  20356842.640   106975943.059                                  
G24  21090260.100   110830018.570    21090261.800    82762677.438  
G28  23015858.740   120949147.914                                  
E 2  23580101.460   123914261.148    23580103.580    92533372.816  
E 8  25921845.640   136220177.414    25921850.200   101722845.258  
E25  24791017.040   130277634.922    24791020.820    97285237.168  
E30  25735205.800   135239380.328    25735209.780   100990435.113  
> 2021  3 10 23 13 36.0000000  0 14       0.000000000000
G 2  22676973.260   119168297.363                                  
G 6  21200744.000   111410607.477    21200746.740    83196232.387  
G12  23063543.280   121199733.813                                  
G13  24429583.800   128378287.535                                  
G14  23439153.200   123173557.758    23439157.640    91980251.867  
G15  24668774.100   129635244.980                                  
G17  22019290.720   115712150.211                                  
G19  20357078.680   106977183.449                                  
G24  21090056.720   110828949.887    21090058.440    82761879.395  
G28  23016204.960   120950967.355                                  
E 2  23579942.480   123913425.645    23579944.580    92532748.898  
E 8  25922254.240   136222324.621    25922258.800   101724448.691  
E25  24791250.780   130278863.223    24791254.560    97286154.406  
E30  25734786.600   135237177.387    25734790.560   100988790.063  
> 2021  3 10 23 13 37.0000000  0 14       0.000000000000
G 2  22676397.740   119165272.941                                  
G 6  21200406.140   111408831.957    21200408.860    83194906.512  
G12  23063045.580   121197118.402                                  
G13  24430197.820   128381514.246                                  
G14  23439612.280   123175970.227    23439616.720    91982053.383  
G15  24669256.520   129637780.090                                  
G17  22019743.960   115714531.992                                  
G19  20357314.800   106978424.297                                  
G24  21089853.480   110827881.820    21089855.200    82761081.813  
G28  23016551.220   120952786.938                                  
E 2  23579783.520   123912590.301    23579785.620    92532125.105  
E 8  25922662.880   136224471.957    25922667.440   101726052.223  
E25  24791484.540   130280091.723    24791488.340    97287071.789  
E30  25734367.400   135234974.438    25734371.360   100987145.000  
> 2021  3 10 23 13 38.0000000  0 14       0.000000000000
G 2  22675822.260   119162248.824                                  
G 6  21200068.380   111407057.023    21200071.100    83193581.074  
G12  23062547.900   121194503.070                                  
G13  24430811.840   128384740.930                                  
G14  23440071.380   123178382.844    23440075.820    91983855.012  
G15  24669738.960   129640315.297                                  
G17  22020197.220   115716913.930                                  
G19  20357551.020   106979665.582                                  
G24  21089650.340   110826814.359    21089652.060    82760284.680  
G28  23016897.500   120954606.648                                  
E 2  23579624.580   123911755.125    23579626.700    92531501.438  
E 8  25923071.520   136226619.445    25923076.080   101727655.863  
E25  24791718.360   130281320.441    24791722.160    97287989.340  
E30  25733948.180   135232771.465    25733952.140   100985499.926  
> 2021  3 10 23 13 39.0000000  0 14       0.000000000000
G 2  22675246.840   119159225.000                                  
G 6  21199730.720   111405282.676    21199733.460    83192256.074  
G12  23062050.240   121191887.816                                  
G13  24431425.840   128387967.559                                  
G14  23440530.520   123180795.609    23440534.960    91985656.750  
G15  24670221.400   129642850.605                                  
G17  22020650.520   115719296.016                                  
G19  20357787.300   106980907.313                                  
G24  21089447.320   110825747.477    21089449.040    82759487.984  
G28  23017243.800   120956426.500                                  
E 2  23579465.680   123910920.105    23579467.800    92530877.883  
E 8  25923480.200   136228767.055    25923484.760   101729259.598  
E25  24791952.220   130282549.352    24791956.020    97288907.031  
E30  25733528.960   135230568.473    25733532.920   100983854.836  
> 2021  3 10 23 13 40.0000000  0 14       0.000000000000
G 2  22674671.500   119156201.480                                  
G 6  21199393.180   111403508.906    21199395.920    83190931.508  
G12  23061552.580   121189272.621                                  
G13  24432039.840   128391194.156                                  
G14  23440989.680   123183208.527    23440994.120    91987458.602  
G15  24670703.880   129645385.992                                  
G17  22021103.840   115721678.270                                  
G19  20358023.680   106982149.488                                  
G24  21089244.420   110824681.203    21089246.140    82758691.738  
G28  23017590.140   120958246.480                                  
E 2  23579306.820   123910085.238    23579308.940    92530254.445  
E 8  25923888.820   136230914.336    25923893.380   101730863.086  
E25  24792186.120   130283778.461    24792189.900    97289824.875  
E30  25733109.760   135228365.559    25733113.720   100982209.805  
> 2021  3 10 23 13 42.0000000  0 14       0.000000000000
G 2  22673520.940   119150155.328                                  
G 6  21198718.440   111399963.113    21198721.180    83188283.676  
G12  23060557.300   121184042.465                                  
G13  24433267.820   128397647.238                                  
G14  23441908.100   123188034.824    23441912.540    91991062.656  
G15  24671668.880   129650457.102                                  
G17  22022010.600   115726443.246                                  
G19  20358496.700   106984635.152                                  
G24  21088838.940   110822550.418    21088840.660    82757100.570  
G28  23018282.860   120961886.828                                  
E 2  23578989.160   123908415.996    23578991.280    92529007.934  
E 8  25924706.300   136235210.230    25924710.860   101734071.055  
E25  24792654.020   130286237.293    24792657.800    97291661.012  
E30  25732271.320   135223959.484    25732275.280   100978919.555  
> 2021  3 10 23 13 43.0000000  0 14       0.000000000000
G 2  22672945.760   119147132.707                                  
G 6  21198381.240   111398191.098    21198383.960    83186960.418  
G12  23060059.700   121181427.477                                  
G13  24433881.800   128400873.734                                  
G14  23442367.360   123190448.207    23442371.780    91992864.855  
G15  24672151.400   129652992.789                                  
G17  22022464.000   115728825.961                                  
G19  20358733.320   106985878.652                                  
G24  21088636.380   110821485.945    21088638.100    82756305.672  
G28  23018629.280   120963707.211                                  
E 2  23578830.400   123907581.617    23578832.500    92528384.855  
E 8  25925115.080   136237358.355    25925119.640   101735675.172  
E25  24792888.020   130287467.004    24792891.820    97292579.305  
E30  25731852.080   135221756.418    25731856.040   100977274.410  
> 2021  3 10 23 13 44.0000000  0 14       0.000000000000
G 2  22672370.620   119144110.391                                  
G 6  21198044.140   111396419.664    21198046.880    83185637.594  
G12  23059562.100   121178812.574                                  
G13  24434495.780   128404100.180                                  
G14  23442826.640   123192861.738    23442831.060    91994667.168  
G15  24672633.940   129655528.586                                  
G17  22022917.460   115731208.840                                  
G19  20358970.040   106987122.602                                  
G24  21088433.940   110820422.039    21088435.640    82755511.195  
G28  23018975.700   120965527.719                                  
E 2  23578671.640   123906747.395    23578673.760    92527761.898  
E 8  25925523.880   136239506.609    25925528.440   101737279.387  
E25  24793122.060   130288696.926    24793125.860    97293497.750  
E30  25731432.860   135219553.332    25731436.820   100975629.250  
> 2021  3 10 23 13 45.0000000  0 14       0.000000000000
G 2  22671795.560   119141088.367                                  
G 6  21197707.160   111394648.816    21197709.900    83184315.211  
G12  23059064.500   121176197.727                                  
G13  24435109.740   128407326.598                                  
G14  23443285.940   123195275.422    23443290.380    91996469.590  
G15  24673116.520   129658064.496                                  
G17  22023370.940   115733591.879                                  
G19  20359206.840   106988366.977                                  
G24  21088231.580   110819358.730    21088233.300    82754717.168  
G28  23019322.160   120967348.363                                  
E 2  23578512.920   123905913.328    23578515.040    92527139.055  
E 8  25925932.700   136241655.016    25925937.260   101738883.715  
E25  24793356.160   130289927.043    24793359.940    97294416.344  
E30  25731013.620   135217350.227    25731017.580   100973984.074  
> 2021  3 10 23 13 46.0000000  0 14       0.000000000000
G 2  22671220.540   119138066.637                                  
G 6  21197370.300   111392878.551    21197373.020    83182993.262  
G12  23058566.920   121173582.965                                  
G13  24435723.700   128410552.973                                  
G14  23443745.280   123197689.254    23443749.720    91998272.125  
G15  24673599.100   129660600.484                                  
G17  22023824.440   115735975.070                                  
G19  20359443.720   106989611.801                                  
G24  21088029.360   110818296.023    21088031.080    82753923.586  
G28  23019668.640   120969169.137                                  
E 2  23578354.240   123905079.426    23578356.360    92526516.340  
E 8  25926341.560   136243803.555    25926346.120   101740488.141  
E25  24793590.280   130291157.359    24793594.060    97295335.090  
E30  25730594.380   135215147.109    25730598.340   100972338.891  
> 2021  3 10 23 13 47.0000000  0 14       0.000000000000
G 2  22670645.580   119135045.211                                  
G 6  21197033.540   111391108.867    21197036.260    83181671.742  
G12  23058069.360   121170968.266                                  
G13  24436337.660   128413779.309                                  
G14  23444204.640   123200103.242    23444209.080    92000074.777  
G15  24674081.700   129663136.586                                  
G17  22024277.980   115738358.430                                  
G19  20359680.680   106990857.078                                  
G24  21087827.260   110817233.930    21087828.960    82753130.465  
G28  23020015.160   120970990.047                                  
E 2  23578195.580   123904245.688    23578197.700    92525893.742  
E 8  25926750.440   136245952.191    25926755.000   101742092.641  
E25  24793824.440   130292387.887    24793828.220    97296253.984  
E30  25730175.120   135212943.973    25730179.080   100970693.691  
> 2021  3 10 23 13 48.0000000  0 14       0.000000000000
G 2  22670070.680   119132024.094                                  
G 6  21196696.880   111389339.770    21196699.620    83180350.664  
G12  23057571.820   121168353.633                                  
G13  24436951.600   128417005.602                                  
G14  23444664.040   123202517.391    23444668.480    92001877.551  
G15  24674564.320   129665672.770                                  
G17  22024731.540   115740741.934                                  
G19  20359917.740   106992102.781                                  
G24  21087625.260   110816172.414    21087626.960    82752337.777  
G28  23020361.680   120972811.086                                  
E 2  23578036.960   123903412.098    23578039.080    92525271.254  
E 8  25927159.340   136248100.973    25927163.900   101743697.250  
E25  24794058.640   130293618.609    24794062.420    97297173.035  
E30  25729755.880   135210740.813    25729759.840   100969048.477  
> 2021  3 10 23 13 49.0000000  0 14       0.000000000000
G 2  22669495.840   119129003.270                                  
G 6  21196360.340   111387571.266    21196363.080    83179030.031  
G12  23057074.280   121165739.078                                  
G13  24437565.540   128420231.863                                  
G14  23445123.480   123204931.688    23445127.900    92003680.434  
G15  24675046.960   129668209.059                                  
G17  22025185.140   115743125.605                                  
G19  20360154.880   106993348.938                                  
G24  21087423.360   110815111.492    21087425.080    82751545.531  
G28  23020708.240   120974632.266                                  
E 2  23577878.360   123902578.695    23577880.480    92524648.906  
E 8  25927568.260   136250249.902    25927572.820   101745301.969  
E25  24794292.880   130294849.539    24794296.660    97298092.234  
E30  25729336.640   135208537.645    25729340.600   100967403.254  
> 2021  3 10 23 13 50.0000000  0 14       0.000000000000
G 2  22668921.040   119125982.750                                  
G 6  21196023.920   111385803.328    21196026.640    83177709.816  
G12  23056576.760   121163124.586                                  
G13  24438179.480   128423458.090                                  
G14  23445582.920   123207346.129    23445587.360    92005483.426  
G15  24675529.620   129670745.445                                  
G17  22025638.760   115745509.426                                  
G19  20360392.080   106994595.531                                  
G24  21087221.600   110814051.172    21087223.300    82750753.730  
G28  23021054.840   120976453.574                                  
E 2  23577719.800   123901745.426    23577721.920    92524026.660  
E 8  25927977.220   136252398.953    25927981.780   101746906.777  
E25  24794527.140   130296080.672    24794530.940    97299011.586  
E30  25728917.380   135206334.457    25728921.340   100965758.016  
> 2021  3 10 23 13 51.0000000  0 14       0.000000000000
G 2  22668346.320   119122962.531                                  
G 6  21195687.600   111384035.980    21195690.340    83176390.043  
G12  23056079.260   121160510.184                                  
G13  24438793.400   128426684.273                                  
G14  23446042.400   123209760.738    23446046.840    92007286.539  
G15  24676012.300   129673281.938                                  
G17  22026092.420   115747893.406                                  
G19  20360629.400   106995842.570                                  
G24  21087019.940   110812991.434    21087021.640    82749962.371  
G28  23021401.440   120978275.008                                  
E 2  23577561.260   123900912.324    23577563.380    92523404.539  
E 8  25928386.200   136254548.125    25928390.760   101748511.676  
E25  24794761.460   130297312.000    24794765.260    97299931.082  
E30  25728498.120   135204131.242    25728502.080   100964112.762  
> 2021  3 10 23 13 52.0000000  0 14       0.000000000000
G 2  22667771.640   119119942.617                                  
G 6  21195351.400   111382269.219    21195354.120    83175070.711  
G12  23055581.760   121157895.840                                  
G13  24439407.320   128429910.418                                  
G14  23446501.920   123212175.492    23446506.360    92009089.762  
G15  24676495.000   129675818.520                                  
G17  22026546.120   115750277.543                                  
G19  20360866.780   106997090.055                                  
G24  21086818.380   110811932.305    21086820.100    82749171.461  
G28  23021748.080   120980096.586                                  
E 2  23577402.760   123900079.383    23577404.880    92522782.539  
E 8  25928795.200   136256697.434    25928799.760   101750116.680  
E25  24794995.820   130298543.527    24794999.600    97300850.730  
E30  25728078.860   135201928.020    25728082.820   100962467.496  
> 2021  3 10 23 13 53.0000000  0 14       0.000000000000
G 2  22667197.040   119116923.008                                  
G 6  21195015.320   111380503.047    21195018.040    83173751.816  
G12  23055084.280   121155281.574                                  
G13  24440021.220   128433136.523                                  
G14  23446961.460   123214590.406    23446965.900    92010893.105  
G15  24676977.720   129678355.203                                  
G17  22026999.820   115752661.840                                  
G19  20361104.260   106998337.977                                  
G24  21086616.960   110810873.770    21086618.660    82748380.996  
G28  23022094.740   120981918.285                                  
E 2  23577244.300   123899246.602    23577246.400    92522160.656  
E 8  25929204.220   136258846.875    25929208.780   101751721.781  
E25  24795230.200   130299775.266    24795234.000    97301770.535  
E30  25727659.600   135199724.770    25727663.560   100960822.215  
> 2021  3 10 23 13 54.0000000  0 14       0.000000000000
G 2  22666622.480   119113903.695                                  
G 6  21194679.340   111378737.461    21194682.060    83172433.363  
G12  23054586.820   121152667.371                                  
G13  24440635.120   128436362.586                                  
G14  23447421.040   123217005.465    23447425.480    92012696.559  
G15  24677460.460   129680891.980                                  
G17  22027453.580   115755046.297                                  
G19  20361341.800   106999586.328                                  
G24  21086415.640   110809815.840    21086417.340    82747590.984  
G28  23022441.420   120983740.113                                  
E 2  23577085.840   123898413.988    23577087.960    92521538.898  
E 8  25929613.260   136260996.434    25929617.820   101753326.969  
E25  24795464.640   130301007.211    24795468.440    97302690.492  
E30  25727240.320   135197521.504    25727244.280   100959176.918  
> 2021  3 10 23 13 55.0000000  0 14       0.000000000000
G 2  22666047.980   119110884.676                                  
G 6  21194343.460   111376972.461    21194346.180    83171115.340  
G12  23054089.360   121150053.242                                  
G13  24441249.020   128439588.602                                  
G14  23447880.640   123219420.676    23447885.080    92014500.125  
G15  24677943.200   129683428.855                                  
G17  22027907.340   115757430.898                                  
G19  20361579.440   107000835.129                                  
G24  21086214.440   110808758.523    21086216.140    82746801.430  
G28  23022788.120   120985562.078                                  
E 2  23576927.440   123897581.520    23576929.560    92520917.254  
E 8  25930022.340   136263146.137    25930026.900   101754932.266  
E25  24795699.100   130302239.336    24795702.900    97303610.586  
E30  25726821.060   135195318.215    25726825.020   100957531.609  
> 2021  3 10 23 13 56.0000000  0 14       0.000000000000
G 2  22665473.520   119107865.961                                  
G 6  21194007.700   111375208.031    21194010.420    83169797.750  
G12  23053591.920   121147439.188                                  
G13  24441862.900   128442814.586                                  
G14  23448340.260   123221836.047    23448344.700    92016303.809  
G15  24678425.980   129685965.820                                  
G17  22028361.160   115759815.668                                  
G19  20361817.180   107002084.383                                  
G24  21086013.340   110807701.809    21086015.060    82746012.328  
G28  23023134.860   120987384.180                                  
E 2  23576769.060   123896749.227    23576771.180    92520295.734  
E 8  25930431.440   136265295.965    25930436.000   101756537.656  
E25  24795933.620   130303471.684    24795937.400    97304530.844  
E30  25726401.780   135193114.922    25726405.740   100955886.293  
> 2021  3 10 23 13 57.0000000  0 14       0.000000000000
G 2  22664899.140   119104847.539                                  
G 6  21193672.060   111373444.195    21193674.780    83168480.598  
G12  23053094.500   121144825.199                                  
G13  24442476.780   128446040.539                                  
G14  23448799.920   123224251.566    23448804.360    92018107.605  
G15  24678908.760   129688502.902                                  
G17  22028815.000   115762200.586                                  
G19  20362054.980   107003334.059                                  
G24  21085812.380   110806645.680    21085814.080    82745223.660  
G28  23023481.620   120989206.410                                  
E 2  23576610.700   123895917.082    23576612.820    92519674.328  
E 8  25930840.560   136267445.918    25930845.120   101758143.137  
E25  24796168.160   130304704.227    24796171.960    97305451.250  
E30  25725982.500   135190911.602    25725986.460   100954240.957  
> 2021  3 10 23 13 58.0000000  0 14       0.000000000000
G 2  22664324.820   119101829.426                                  
G 6  21193336.520   111371680.941    21193339.240    83167163.887  
G12  23052597.080   121142211.289                                  
G13  24443090.640   128449266.445                                  
G14  23449259.620   123226667.242    23449264.060    92019911.516  
G15  24679391.560   129691040.063                                  
G17  22029268.860   115764585.668                                  
G19  20362292.860   107004584.188                                  
G24  21085611.520   110805590.156    21085613.220    82744435.441  
G28  23023828.400   120991028.781                                  
E 2  23576452.380   123895085.105    23576454.500    92519053.047  
E 8  25931249.720   136269596.008    25931254.280   101759748.723  
E25  24796402.740   130305936.969    24796406.540    97306371.801  
E30  25725563.220   135188708.254    25725567.180   100952595.602  
> 2021  3 10 23 13 59.0000000  0 14       0.000000000000
G 2  22663750.540   119098811.605                                  
G 6  21193001.100   111369918.273    21193003.820    83165847.605  
G12  23052099.680   121139597.438                                  
G13  24443704.520   128452492.309                                  
G14  23449719.340   123229083.063    23449723.780    92021715.539  
G15  24679874.400   129693577.332                                  
G17  22029722.760   115766970.902                                  
G19  20362530.840   107005834.758                                  
G24  21085410.760   110804535.234    21085412.480    82743647.676  
G28  23024175.220   120992851.285                                  
E 2  23576294.100   123894253.285    23576296.200    92518431.883  
E 8  25931658.880   136271746.219    25931663.460   101761354.398  
E25  24796637.360   130307169.914    24796641.160    97307292.508  
E30  25725143.940   135186504.902    25725147.900   100950950.242  
> 2021  3 10 23 14  0.0000000  0 14       0.000000000000
G 2  22663176.320   119095794.086                                  
G 6  21192665.780   111368156.191    21192668.500    83164531.766  
G12  23051602.300   121136983.660                                  
G13  24444318.360   128455718.129                                  
G14  23450179.080   123231499.039    23450183.520    92023519.676  
G15  24680357.240   129696114.699                                  
G17  22030176.680   115769356.305                                  
G19  20362768.900   107007085.766                                  
G24  21085210.140   110803480.910    21085211.840    82742860.355  
G28  23024522.060   120994673.918                                  
E 2  23576135.840   123893421.629    23576137.940    92517810.844  
E 8  25932068.080   136273896.566    25932072.660   101762960.176  
E25  24796872.020   130308403.063    24796875.820    97308213.367  
E30  25724724.640   135184301.535    25724728.600   100949304.871  
> 2021  3 10 23 14  1.0000000  0 14       0.000000000000
G 2  22662602.160   119092776.867                                  
G 6  21192330.580   111366394.691    21192333.300    83163216.363  
G12  23051104.920   121134369.953                                  
G13  24444932.220   128458943.906                                  
G14  23450638.860   123233915.172    23450643.300    92025323.930  
G15  24680840.100   129698652.152                                  
G17  22030630.640   115771741.855                                  
G19  20363007.040   107008337.223                                  
G24  21085009.620   110802427.184    21085011.320    82742073.484  
G28  23024868.920   120996496.680                                  
E 2  23575977.600   123892590.129    23575979.720    92517189.914  
E 8  25932477.300   136276047.035    25932481.880   101764566.043  
E25  24797106.720   130309636.410    24797110.520    97309134.371  
E30  25724305.360   135182098.141    25724309.300   100947659.480  
> 2021  3 10 23 14  2.0000000  0 14       0.000000000000
G 2  22662028.060   119089759.957                                  
G 6  21191995.480   111364633.777    21191998.220    83161901.395  
G12  23050607.560   121131756.313                                  
G13  24445546.060   128462169.652                                  
G14  23451098.660   123236331.457    23451103.100    92027128.297  
G15  24681322.980   129701189.707                                  
G17  22031084.620   115774127.563                                  
G19  20363245.280   107009589.125                                  
G24  21084809.220   110801374.051    21084810.920    82741287.051  
G28  23025215.800   120998319.582                                  
E 2  23575819.400   123891758.789    23575821.520    92516569.113  
E 8  25932886.560   136278197.633    25932891.120   101766172.012  
E25  24797341.460   130310869.957    24797345.260    97310055.527  
E30  25723886.060   135179894.727    25723890.020   100946014.074  
> 2021  3 10 23 14  3.0000000  0 14       0.000000000000
G 2  22661454.020   119086743.340                                  
G 6  21191660.500   111362873.445    21191663.240    83160586.863  
G12  23050110.220   121129142.746                                  
G13  24446159.880   128465395.355                                  
G14  23451558.500   123238747.891    23451562.940    92028932.773  
G15  24681805.880   129703727.371                                  
G17  22031538.640   115776513.422                                  
G19  20363483.580   107010841.453                                  
G24  21084608.920   110800321.508    21084610.640    82740501.063  
G28  23025562.720   121000142.621                                  
E 2  23575661.240   123890927.613    23575663.360    92515948.426  
E 8  25933295.820   136280348.371    25933300.400   101767778.082  
E25  24797576.240   130312103.711    24797580.020    97310976.836  
E30  25723466.760   135177691.297    25723470.720   100944368.656  
> 2021  3 10 23 14  4.0000000  0 14       0.000000000000
G 2  22660880.040   119083727.031                                  
G 6  21191325.640   111361113.703    21191328.360    83159272.770  
G12  23049612.900   121126529.250                                  
G13  24446773.700   128468621.016                                  
G14  23452018.360   123241164.480    23452022.800    92030737.371  
G15  24682288.800   129706265.129                                  
G17  22031992.680   115778899.449                                  
G19  20363721.980   107012094.234                                  
G24  21084408.740   110799269.559    21084410.460    82739715.516  
G28  23025909.660   121001965.793                                  
E 2  23575503.100   123890096.598    23575505.220    92515327.863  
E 8  25933705.120   136282499.234    25933709.680   101769384.242  
E25  24797811.040   130313337.664    24797814.840    97311898.293  
E30  25723047.460   135175487.848    25723051.400   100942723.227  
> 2021  3 10 23 14  5.0000000  0 14       0.000000000000
G 2  22660306.100   119080711.027                                  
G 6  21190990.880   111359354.543    21190993.600    83157959.113  
G12  23049115.580   121123915.828                                  
G13  24447387.520   128471846.641                                  
G14  23452478.240   123243581.215    23452482.680    92032542.074  
G15  24682771.740   129708802.973                                  
G17  22032446.760   115781285.629                                  
G19  20363960.460   107013347.461                                  
G24  21084208.680   110798218.230    21084210.400    82738930.434  
G28  23026256.620   121003789.090                                  
E 2  23575345.000   123889265.742    23575347.100    92514707.418  
E 8  25934114.440   136284650.230    25934119.020   101770990.504  
E25  24798045.900   130314571.828    24798049.700    97312819.910  
E30  25722628.140   135173284.375    25722632.100   100941077.777  
> 2021  3 10 23 14  6.0000000  0 14       0.000000000000
G 2  22659732.240   119077695.305                                  
G 6  21190656.240   111357595.957    21190658.960    83156645.883  
G12  23048618.260   121121302.484                                  
G13  24448001.340   128475072.215                                  
G14  23452938.160   123245998.113    23452942.600    92034346.898  
G15  24683254.700   129711340.910                                  
G17  22032900.860   115783671.961                                  
G19  20364199.020   107014601.109                                  
G24  21084008.740   110797167.484    21084010.440    82738145.785  
G28  23026603.600   121005612.523                                  
E 2  23575186.920   123888435.059    23575189.040    92514087.105  
E 8  25934523.780   136286801.340    25934528.360   101772596.848  
E25  24798280.800   130315806.195    24798284.580    97313741.680  
E30  25722208.840   135171080.887    25722212.800   100939432.313  
> 2021  3 10 23 14  7.0000000  0 14       0.000000000000
G 2  22659158.420   119074679.871                                  
G 6  21190321.700   111355837.961    21190324.420    83155333.094  
G12  23048120.980   121118689.207                                  
G13  24448615.140   128478297.758                                  
G14  23453398.120   123248415.164    23453402.560    92036151.836  
G15  24683737.680   129713878.871                                  
G17  22033355.000   115786058.438                                  
G19  20364437.680   107015855.203                                  
G24  21083808.900   110796117.340    21083810.600    82737361.590  
G28  23026950.620   121007436.086                                  
E 2  23575028.880   123887604.543    23575031.000    92513466.914  
E 8  25934933.160   136288952.590    25934937.720   101774203.301  
E25  24798515.720   130317040.777    24798519.520    97314663.605  
E30  25721789.520   135168877.379    25721793.480   100937786.840  
> 2021  3 10 23 14  8.0000000  0 14       0.000000000000
G 2  22658584.660   119071664.863                                  
G 6  21189987.260   111354080.625    21189990.000    83154020.762  
G12  23047623.660   121116076.164                                  
G13  24449228.980   128481522.980                                  
G14  23453858.100   123250832.324    23453862.560    92037956.781  
G15  24684220.680   129716416.938                                  
G17  22033809.160   115788445.125                                  
G19  20364676.400   107017109.777                                  
G24  21083609.160   110795067.930    21083610.860    82736577.953  
G28  23027297.660   121009259.730                                  
E 2  23574870.860   123886774.156    23574872.960    92512846.824  
E 8  25935342.560   136291103.891    25935347.140   101775809.746  
E25  24798750.680   130318275.512    24798754.480    97315585.648  
E30  25721370.200   135166673.941    25721374.140   100936141.457  
> 2021  3 10 23 14  9.0000000  0 14       0.000000000000
G 2  22658010.960   119068650.051                                  
G 6  21189652.960   111352323.809    21189655.680    83152708.855  
G12  23047126.400   121113463.023                                  
G13  24449842.760   128484748.434                                  
G14  23454318.100   123253249.688    23454322.560    92039761.953  
G15  24684703.680   129718955.168                                  
G17  22034263.340   115790831.934                                  
G19  20364915.220   107018364.770                                  
G24  21083409.540   110794019.004    21083411.260    82735794.664  
G28  23027644.720   121011083.551                                  
E 2  23574712.880   123885943.949    23574714.980    92512226.867  
E 8  25935751.980   136293255.410    25935756.560   101777416.398  
E25  24798985.700   130319510.492    24798989.480    97316507.871  
E30  25720950.880   135164470.406    25720954.820   100934495.965  
> 2021  3 10 23 14 10.0000000  0 14       0.000000000000
G 2  22657437.320   119065635.551                                  
G 6  21189318.760   111350567.582    21189321.480    83151397.391  
G12  23046629.140   121110849.953                                  
G13  24450456.540   128487973.867                                  
G14  23454778.140   123255667.195    23454782.600    92041567.234  
G15  24685186.700   129721493.492                                  
G17  22034717.560   115793218.902                                  
G19  20365154.120   107019620.207                                  
G24  21083210.060   110792970.695    21083211.760    82735011.836  
G28  23027991.800   121012907.523                                  
E 2  23574554.920   123885113.902    23574557.020    92511607.027  
E 8  25936161.420   136295407.047    25936166.000   101779023.141  
E25  24799220.740   130320745.660    24799224.540    97317430.238  
E30  25720531.540   135162266.855    25720535.480   100932850.457  
> 2021  3 10 23 14 11.0000000  0 14       0.000000000000
G 2  22656863.720   119062621.344                                  
G 6  21188984.660   111348811.941    21188987.400    83150086.359  
G12  23046131.900   121108236.961                                  
G13  24451070.320   128491199.250                                  
G14  23455238.200   123258084.855    23455242.660    92043372.629  
G15  24685669.760   129724031.922                                  
G17  22035171.820   115795606.016                                  
G19  20365393.100   107020876.074                                  
G24  21083010.680   110791922.984    21083012.380    82734229.453  
G28  23028338.920   121014731.621                                  
E 2  23574397.000   123884284.012    23574399.100    92510987.301  
E 8  25936570.900   136297558.820    25936575.480   101780629.980  
E25  24799455.820   130321981.023    24799459.620    97318352.750  
E30  25720112.220   135160063.293    25720116.160   100931204.938  
> 2021  3 10 23 14 12.0000000  0 14       0.000000000000
G 2  22656290.200   119059607.449                                  
G 6  21188650.680   111347056.879    21188653.420    83148775.762  
G12  23045634.680   121105624.035                                  
G13  24451684.080   128494424.582                                  
G14  23455698.300   123260502.672    23455702.760    92045178.141  
G15  24686152.820   129726570.434                                  
G17  22035626.100   115797993.289                                  
G19  20365632.180   107022132.383                                  
G24  21082811.420   110790875.867    21082813.120    82733447.516  
G28  23028686.060   121016555.836                                  
E 2  23574239.100   123883454.281    23574241.200    92510367.699  
E 8  25936980.380   136299710.715    25936984.960   101782236.914  
E25  24799690.940   130323216.613    24799694.740    97319275.430  
E30  25719692.880   135157859.703    25719696.820   100929559.402  
> 2021  3 10 23 14 13.0000000  0 14       0.000000000000
G 2  22655716.720   119056593.859                                  
G 6  21188316.820   111345302.414    21188319.540    83147465.609  
G12  23045137.460   121103011.188                                  
G13  24452297.820   128497649.875                                  
G14  23456158.420   123262920.645    23456162.880    92046983.770  
G15  24686635.900   129729109.047                                  
G17  22036080.420   115800380.723                                  
G19  20365871.320   107023389.145                                  
G24  21082612.260   110789829.332    21082613.980    82732666.012  
G28  23029033.220   121018380.203                                  
E 2  23574081.240   123882624.723    23574083.340    92509748.223  
E 8  25937389.900   136301862.738    25937394.480   101783843.945  
E25  24799926.100   130324452.387    24799929.900    97320198.246  
E30  25719273.560   135155656.094    25719277.500   100927913.852  
> 2021  3 10 23 14 14.0000000  0 14       0.000000000000
G 2  22655143.320   119053580.559                                  
G 6  21187983.060   111343548.527    21187985.800    83146155.891  
G12  23044640.260   121100398.395                                  
G13  24452911.580   128500875.145                                  
G14  23456618.580   123265338.770    23456623.040    92048789.508  
G15  24687119.000   129731647.758                                  
G17  22036534.760   115802768.305                                  
G19  20366110.560   107024646.340                                  
G24  21082413.240   110788783.406    21082414.940    82731884.965  
G28  23029380.400   121020204.691                                  
E 2  23573923.400   123881795.316    23573925.520    92509128.863  
E 8  25937799.440   136304014.887    25937804.020   101785451.066  
E25  24800161.300   130325688.363    24800165.080    97321121.215  
E30  25718854.220   135153452.469    25718858.160   100926268.285  
> 2021  3 10 23 14 15.0000000  0 14       0.000000000000
G 2  22654569.960   119050567.574                                  
G 6  21187649.420   111341795.227    21187652.140    83144846.605  
G12  23044143.080   121097785.688                                  
G13  24453525.300   128504100.363                                  
G14  23457078.760   123267757.039    23457083.220    92050595.359  
G15  24687602.120   129734186.559                                  
G17  22036989.120   115805156.047                                  
G19  20366349.880   107025903.984                                  
G24  21082214.320   110787738.070    21082216.020    82731104.359  
G28  23029727.620   121022029.324                                  
E 2  23573765.600   123880966.066    23573767.720    92508509.617  
E 8  25938209.000   136306167.160    25938213.580   101787058.285  
E25  24800396.540   130326924.555    24800400.320    97322044.344  
E30  25718434.880   135151248.816    25718438.820   100924622.703  
> 2021  3 10 23 14 16.0000000  0 14       0.000000000000
G 2  22653996.660   119047554.879                                  
G 6  21187315.880   111340042.516    21187318.620    83143537.766  
G12  23043645.920   121095173.047                                  
G13  24454139.040   128507325.535                                  
G14  23457538.960   123270175.469    23457543.440    92052401.328  
G15  24688085.240   129736725.461                                  
G17  22037443.520   115807543.945                                  
G19  20366589.280   107027162.063                                  
G24  21082015.500   110786693.328    21082017.200    82730324.195  
G28  23030074.860   121023854.090                                  
E 2  23573607.820   123880136.984    23573609.940    92507890.496  
E 8  25938618.580   136308319.570    25938623.180   101788665.602  
E25  24800631.800   130328160.922    24800635.600    97322967.605  
E30  25718015.520   135149045.152    25718019.460   100922977.113  
> 2021  3 10 23 14 17.0000000  0 14       0.000000000000
G 2  22653423.420   119044542.496                                  
G 6  21186982.460   111338290.391    21186985.200    83142229.359  
G12  23043148.760   121092560.484                                  
G13  24454752.760   128510550.668                                  
G14  23457999.200   123272594.055    23458003.680    92054207.414  
G15  24688568.400   129739264.457                                  
G17  22037897.960   115809931.996                                  
G19  20366828.760   107028420.586                                  
G24  21081816.800   110785649.176    21081818.500    82729544.469  
G28  23030422.120   121025678.980                                  
E 2  23573450.080   123879308.059    23573452.200    92507271.496  
E 8  25939028.200   136310472.109    25939032.780   101790273.016  
E25  24800867.120   130329397.504    24800870.920    97323891.027  
E30  25717596.180   135146841.480    25717600.120   100921331.516  
> 2021  3 10 23 14 18.0000000  0 14       0.000000000000
G 2  22652850.240   119041530.414                                  
G 6  21186649.160   111336538.863    21186651.880    83140921.402  
G12  23042651.600   121089947.984                                  
G13  24455366.460   128513775.750                                  
G14  23458459.480   123275012.789    23458463.940    92056013.609  
G15  24689051.580   129741803.543                                  
G17  22038352.420   115812320.203                                  
G19  20367068.340   107029679.547                                  
G24  21081618.220   110784605.652    21081619.920    82728765.215  
G28  23030769.420   121027504.008                                  
E 2  23573292.380   123878479.305    23573294.500    92506652.621  
E 8  25939437.840   136312624.781    25939442.420   101791880.527  
E25  24801102.460   130330634.293    24801106.260    97324814.605  
E30  25717176.820   135144637.785    25717180.760   100919685.898  
> 2021  3 10 23 14 19.0000000  0 14       0.000000000000
G 2  22652277.100   119038518.648                                  
G 6  21186315.960   111334787.906    21186318.680    83139613.871  
G12  23042154.480   121087335.570                                  
G13  24455980.180   128517000.813                                  
G14  23458919.780   123277431.680    23458924.240    92057819.922  
G15  24689534.760   129744342.734                                  
G17  22038806.900   115814708.570                                  
G19  20367308.000   107030938.957                                  
G24  21081419.760   110783562.719    21081421.460    82727986.398  
G28  23031116.740   121029329.168                                  
E 2  23573134.700   123877650.715    23573136.820    92506033.867  
E 8  25939847.500   136314777.578    25939852.080   101793488.133  
E25  24801337.860   130331871.285    24801341.660    97325738.332  
E30  25716757.460   135142434.070    25716761.400   100918040.270  
> 2021  3 10 23 14 20.0000000  0 14       0.000000000000
G 2  22651704.040   119035507.172                                  
G 6  21185982.880   111333037.543    21185985.600    83138306.785  
G12  23041657.360   121084723.211                                  
G13  24456593.880   128520225.813                                  
G14  23459380.100   123279850.719    23459384.560    92059626.348  
G15  24690017.980   129746882.008                                  
G17  22039261.420   115817097.094                                  
G19  20367547.740   107032198.801                                  
G24  21081221.400   110782520.367    21081223.100    82727208.020  
G28  23031464.080   121031154.461                                  
E 2  23572977.060   123876822.277    23572979.160    92505415.227  
E 8  25940257.180   136316930.492    25940261.780   101795095.828  
E25  24801573.280   130333108.477    24801577.080    97326662.207  
E30  25716338.120   135140230.348    25716342.060   100916394.629  
> 2021  3 10 23 14 21.0000000  0 14       0.000000000000
G 2  22651131.020   119032496.004                                  
G 6  21185649.900   111331287.766    21185652.620    83137000.133  
G12  23041160.260   121082110.938                                  
G13  24457207.560   128523450.781                                  
G14  23459840.460   123282269.914    23459844.920    92061432.891  
G15  24690501.200   129749421.379                                  
G17  22039715.980   115819485.770                                  
G19  20367787.560   107033459.090                                  
G24  21081023.160   110781478.637    21081024.880    82726430.105  
G28  23031811.440   121032979.895                                  
E 2  23572819.440   123875993.996    23572821.540    92504796.707  
E 8  25940666.900   136319083.543    25940671.480   101796703.625  
E25  24801808.760   130334345.871    24801812.540    97327586.234  
E30  25715918.740   135138026.586    25715922.680   100914748.969  
> 2021  3 10 23 14 22.0000000  0 14       0.000000000000
G 2  22650558.080   119029485.137                                  
G 6  21185317.040   111329538.570    21185319.760    83135693.914  
G12  23040663.180   121079498.734                                  
G13  24457821.240   128526675.711                                  
G14  23460300.840   123284689.258    23460305.300    92063239.539  
G15  24690984.440   129751960.840                                  
G17  22040170.540   115821874.605                                  
G19  20368027.460   107034719.813                                  
G24  21080825.040   110780437.496    21080826.740    82725652.633  
G28  23032158.820   121034805.453                                  
E 2  23572661.840   123875165.883    23572663.960    92504178.309  
E 8  25941076.640   136321236.719    25941081.220   101798311.516  
E25  24802044.260   130335583.473    24802048.060    97328510.418  
E30  25715499.380   135135822.820    25715503.320   100913103.297  
> 2021  3 10 23 14 23.0000000  0 14       0.000000000000
G 2  22649985.180   119026474.563                                  
G 6  21184984.280   111327789.961    21184987.020    83134388.141  
G12  23040166.100   121076886.598                                  
G13  24458434.920   128529900.586                                  
G14  23460761.260   123287108.746    23460765.720    92065046.301  
G15  24691467.700   129754500.398                                  
G17  22040625.160   115824263.586                                  
G19  20368267.460   107035980.984                                  
G24  21080627.040   110779396.953    21080628.740    82724875.605  
G28  23032506.240   121036631.148                                  
E 2  23572504.280   123874337.930    23572506.400    92503560.035  
E 8  25941486.400   136323390.020    25941490.980   101799919.496  
E25  24802279.800   130336821.270    24802283.600    97329434.746  
E30  25715080.020   135133619.035    25715083.960   100911457.617  
> 2021  3 10 23 14 24.0000000  0 14       0.000000000000
G 2  22649412.340   119023464.293                                  
G 6  21184651.640   111326041.941    21184654.380    83133082.805  
G12  23039669.040   121074274.531                                  
G13  24459048.580   128533125.410                                  
G14  23461221.700   123289528.395    23461226.160    92066853.184  
G15  24691950.980   129757040.039                                  
G17  22041079.800   115826652.719                                  
G19  20368507.520   107037242.574                                  
G24  21080429.140   110778357.012    21080430.840    82724099.027  
G28  23032853.680   121038456.957                                  
E 2  23572346.760   123873510.133    23572348.880    92502941.875  
E 8  25941896.180   136325543.441    25941900.760   101801527.570  
E25  24802515.380   130338059.270    24802519.180    97330359.223  
E30  25714660.640   135131415.234    25714664.580   100909811.922  
> 2021  3 10 23 14 25.0000000  0 14       0.000000000000
G 2  22648839.560   119020454.328                                  
G 6  21184319.120   111324294.500    21184321.840    83131777.902  
G12  23039171.980   121071662.531                                  
G13  24459662.240   128536350.211                                  
G14  23461682.180   123291948.195    23461686.640    92068660.184  
G15  24692434.280   129759579.773                                  
G17  22041534.460   115829042.008                                  
G19  20368747.680   107038504.621                                  
G24  21080231.360   110777317.664    21080233.060    82723322.898  
G28  23033201.160   121040282.918                                  
E 2  23572189.260   123872682.500    23572191.380    92502323.836  
E 8  25942305.980   136327697.000    25942310.560   101803135.746  
E25  24802751.000   130339297.477    24802754.800    97331283.859  
E30  25714241.260   135129211.418    25714245.200   100908166.215  
> 2021  3 10 23 14 26.0000000  0 14       0.000000000000
G 2  22648266.840   119017444.668                                  
G 6  21183986.700   111322547.660    21183989.440    83130473.445  
G12  23038674.960   121069050.602                                  
G13  24460275.900   128539574.961                                  
G14  23462142.680   123294368.145    23462147.140    92070467.293  
G15  24692917.600   129762119.605                                  
G17  22041989.160   115831431.461                                  
G19  20368987.920   107039767.102                                  
G24  21080033.680   110776278.898    21080035.380    82722547.203  
G28  23033548.640   121042109.004                                  
E 2  23572031.800   123871855.039    23572033.920    92501705.926  
E 8  25942715.820   136329850.691    25942720.400   101804744.023  
E25  24802986.660   130340535.883    24802990.460    97332208.645  
E30  25713821.880   135127007.578    25713825.820   100906520.492  
> 2021  3 10 23 14 27.0000000  0 14       0.000000000000
G 2  22647694.180   119014435.313                                  
G 6  21183654.400   111320801.395    21183657.120    83129169.422  
G12  23038177.940   121066438.746                                  
G13  24460889.540   128542799.676                                  
G14  23462603.200   123296788.254    23462607.660    92072274.516  
G15  24693400.920   129764659.543                                  
G17  22042443.880   115833821.066                                  
G19  20369228.260   107041030.031                                  
G24  21079836.140   110775240.727    21079837.820    82721771.945  
G28  23033896.160   121043935.234                                  
E 2  23571874.380   123871027.727    23571876.480    92501088.133  
E 8  25943125.680   136332004.504    25943130.260   101806352.387  
E25  24803222.360   130341774.484    24803226.160    97333133.574  
E30  25713402.500   135124803.734    25713406.440   100904874.766  
> 2021  3 10 23 14 28.0000000  0 14       0.000000000000
G 2  22647121.580   119011426.262                                  
G 6  21183322.220   111319055.719    21183324.940    83127865.840  
G12  23037680.920   121063826.965                                  
G13  24461503.180   128546024.332                                  
G14  23463063.760   123299208.508    23463068.220    92074081.852  
G15  24693884.280   129767199.551                                  
G17  22042898.640   115836210.813                                  
G19  20369468.660   107042293.391                                  
G24  21079638.680   110774203.152    21079640.380    82720997.141  
G28  23034243.720   121045761.578                                  
E 2  23571716.960   123870200.586    23571719.080    92500470.461  
E 8  25943535.560   136334158.445    25943540.140   101807960.848  
E25  24803458.100   130343013.297    24803461.900    97334058.660  
E30  25712983.120   135122599.855    25712987.060   100903229.012  
> 2021  3 10 23 14 29.0000000  0 14       0.000000000000
G 2  22646549.040   119008417.516                                  
G 6  21182990.140   111317310.629    21182992.860    83126562.691  
G12  23037183.940   121061215.250                                  
G13  24462116.800   128549248.941                                  
G14  23463524.360   123301628.922    23463528.820    92075889.309  
G15  24694367.640   129769739.664                                  
G17  22043353.420   115838600.723                                  
G19  20369709.160   107043557.195                                  
G24  21079441.360   110773166.180    21079443.060    82720222.777  
G28  23034591.280   121047588.074                                  
E 2  23571559.600   123869373.602    23571561.720    92499852.906  
E 8  25943945.460   136336312.516    25943950.040   101809569.406  
E25  24803693.880   130344252.313    24803697.660    97334983.898  
E30  25712563.740   135120395.961    25712567.660   100901583.250  
> 2021  3 10 23 14 30.0000000  0 14       0.000000000000
G 2  22645976.540   119005409.063                                  
G 6  21182658.160   111315566.129    21182660.880    83125259.984  
G12  23036686.960   121058603.605                                  
G13  24462730.420   128552473.516                                  
G14  23463984.980   123304049.480    23463989.440    92077696.871  
G15  24694851.020   129772279.871                                  
G17  22043808.240   115840990.785                                  
G19  20369949.740   107044821.430                                  
G24  21079244.140   110772129.805    21079245.840    82719448.867  
G28  23034938.880   121049414.691                                  
E 2  23571402.260   123868546.773    23571404.360    92499235.473  
E 8  25944355.380   136338466.699    25944359.980   101811178.051  
E25  24803929.680   130345491.527    24803933.480    97335909.289  
E30  25712144.340   135118192.051    25712148.280   100899937.473  
> 2021  3 10 23 14 31.0000000  0 14       0.000000000000
G 2  22645404.120   119002400.914                                  
G 6  21182326.300   111313822.215    21182329.020    83123957.715  
G12  23036189.980   121055992.039                                  
G13  24463344.020   128555698.055                                  
G14  23464445.620   123306470.199    23464450.080    92079504.551  
G15  24695334.440   129774820.168                                  
G17  22044263.080   115843381.004                                  
G19  20370190.400   107046086.113                                  
G24  21079047.040   110771094.047    21079048.740    82718675.414  
G28  23035286.500   121051241.457                                  
E 2  23571244.940   123867720.109    23571247.060    92498618.164  
E 8  25944765.340   136340621.012    25944769.920   101812786.793  
E25  24804165.540   130346730.945    24804169.340    97336834.832  
E30  25711724.940   135115988.113    25711728.880   100898291.684  
> 2021  3 10 23 14 32.0000000  0 14       0.000000000000
G 2  22644831.740   118999393.074                                  
G 6  21181994.560   111312078.883    21181997.280    83122655.883  
G12  23035693.040   121053380.547                                  
G13  24463957.620   128558922.547                                  
G14  23464906.300   123308891.066    23464910.760    92081312.344  
G15  24695817.860   129777360.551                                  
G17  22044717.960   115845771.375                                  
G19  20370431.140   107047351.238                                  
G24  21078850.060   110770058.887    21078851.760    82717902.410  
G28  23035634.140   121053068.348                                  
E 2  23571087.660   123866893.594    23571089.780    92498000.965  
E 8  25945175.320   136342775.469    25945179.900   101814395.641  
E25  24804401.440   130347970.555    24804405.220    97337760.516  
E30  25711305.540   135113784.168    25711309.480   100896645.883  
> 2021  3 10 23 14 33.0000000  0 14       0.000000000000
G 2  22644259.420   118996385.543                                  
G 6  21181662.920   111310336.141    21181665.640    83121354.488  
G12  23035196.100   121050769.133                                  
G13  24464571.220   128562146.992                                  
G14  23465367.000   123311312.094    23465371.460    92083120.258  
G15  24696301.280   129779901.027                                  
G17  22045172.860   115848161.906                                  
G19  20370671.980   107048616.809                                  
G24  21078653.180   110769024.332    21078654.880    82717129.859  
G28  23035981.820   121054895.379                                  
E 2  23570930.420   123866067.262    23570932.540    92497383.902  
E 8  25945585.320   136344930.031    25945589.900   101816004.570  
E25  24804637.360   130349210.375    24804641.160    97338686.359  
E30  25710886.140   135111580.207    25710890.080   100895000.074  
> 2021  3 10 23 14 34.0000000  0 14       0.000000000000
G 2  22643687.160   118993378.316                                  
G 6  21181331.400   111308593.988    21181334.120    83120053.535  
G12  23034699.180   121048157.781                                  
G13  24465184.800   128565371.398                                  
G14  23465827.740   123313733.270    23465832.200    92084928.281  
G15  24696784.740   129782441.609                                  
G17  22045627.800   115850552.594                                  
G19  20370912.880   107049882.809                                  
G24  21078456.440   110767990.379    21078458.120    82716357.754  
G28  23036329.520   121056722.535                                  
E 2  23570773.200   123865241.074    23570775.320    92496766.949  
E 8  25945995.340   136347084.730    25945999.920   101817613.602  
E25  24804873.320   130350450.395    24804877.120    97339612.352  
E30  25710466.740   135109376.219    25710470.680   100893354.242  
> 2021  3 10 23 14 35.0000000  0 14       0.000000000000
G 2  22643114.960   118990371.391                                  
G 6  21181000.000   111306852.422    21181002.720    83118753.016  
G12  23034202.280   121045546.523                                  
G13  24465798.380   128568595.762                                  
G14  23466288.500   123316154.590    23466292.960    92086736.414  
G15  24697268.220   129784982.273                                  
G17  22046082.760   115852943.438                                  
G19  20371153.880   107051149.250                                  
G24  21078259.800   110766957.039    21078261.480    82715586.109  
G28  23036677.240   121058549.832                                  
E 2  23570616.020   123864415.051    23570618.120    92496150.117  
E 8  25946405.400   136349239.555    25946409.980   101819222.727  
E25  24805109.340   130351690.613    24805113.120    97340538.492  
E30  25710047.340   135107172.219    25710051.260   100891708.402  
> 2021  3 10 23 14 36.0000000  0 14       0.000000000000
G 2  22642542.820   118987364.762                                  
G 6  21180668.700   111305111.449    21180671.420    83117452.945  
G12  23033705.380   121042935.324                                  
G13  24466411.940   128571820.070                                  
G14  23466749.300   123318576.074    23466753.760    92088544.668  
G15  24697751.720   129787523.031                                  
G17  22046537.740   115855334.430                                  
G19  20371394.960   107052416.129                                  
G24  21078063.280   110765924.301    21078064.960    82714814.910  
G28  23037024.980   121060377.258                                  
E 2  23570458.860   123863589.195    23570460.960    92495533.410  
E 8  25946815.460   136351394.504    25946820.060   101820831.945  
E25  24805345.380   130352931.039    24805349.180    97341464.789  
E30  25709627.920   135104968.199    25709631.840   100890062.551  
> 2021  3 10 23 14 37.0000000  0 14       0.000000000000
G 2  22641970.740   118984358.445                                  
G 6  21180337.520   111303371.051    21180340.220    83116153.301  
G12  23033208.500   121040324.184                                  
G13  24467025.500   128575044.348                                  
G14  23467210.120   123320997.707    23467214.580    92090353.031  
G15  24698235.220   129790063.871                                  
G17  22046992.760   115857725.578                                  
G19  20371636.120   107053683.445                                  
G24  21077866.860   110764892.137    21077868.540    82714044.145  
G28  23037372.760   121062204.820                                  
E 2  23570301.740   123862763.492    23570303.840    92494916.816  
E 8  25947225.560   136353549.574    25947230.140   101822441.254  
E25  24805581.460   130354171.668    24805585.260    97342391.234  
E30  25709208.500   135102764.160    25709212.440   100888416.680  
> 2021  3 10 23 14 38.0000000  0 14       0.000000000000
G 2  22641398.720   118981352.430                                  
G 6  21180006.440   111301631.254    21180009.160    83114854.109  
G12  23032711.620   121037713.125                                  
G13  24467639.060   128578268.582                                  
G14  23467670.960   123323419.480    23467675.420    92092161.504  
G15  24698718.740   129792604.809                                  
G17  22047447.820   115860116.902                                  
G19  20371877.360   107054951.207                                  
G24  21077670.560   110763860.617    21077672.260    82713273.855  
G28  23037720.560   121064032.512                                  
E 2  23570144.640   123861937.957    23570146.740    92494300.348  
E 8  25947635.680   136355704.781    25947640.260   101824050.664  
E25  24805817.580   130355412.492    24805821.380    97343317.828  
E30  25708789.080   135100560.109    25708793.020   100886770.805  
> 2021  3 10 23 14 39.0000000  0 14       0.000000000000
G 2  22640826.740   118978346.715                                  
G 6  21179675.480   111299892.039    21179678.200    83113555.348  
G12  23032214.760   121035102.137                                  
G13  24468252.600   128581492.762                                  
G14  23468131.840   123325841.422    23468136.300    92093970.098  
G15  24699202.280   129795145.844                                  
G17  22047902.900   115862508.375                                  
G19  20372118.700   107056219.410                                  
G24  21077474.380   110762829.680    21077476.080    82712504.004  
G28  23038068.380   121065860.328                                  
E 2  23569987.580   123861112.586    23569989.680    92493684.004  
E 8  25948045.840   136357860.105    25948050.420   101825660.160  
E25  24806053.740   130356653.523    24806057.540    97344244.574  
E30  25708369.660   135098356.027    25708373.580   100885124.902  
> 2021  3 10 23 14 40.0000000  0 14       0.000000000000
G 2  22640254.840   118975341.305                                  
G 6  21179344.620   111298153.402    21179347.340    83112257.020  
G12  23031717.920   121032491.211                                  
G13  24468866.140   128584716.906                                  
G14  23468592.760   123328263.512    23468597.220    92095778.805  
G15  24699685.840   129797686.965                                  
G17  22048358.020   115864900.004                                  
G19  20372360.100   107057488.031                                  
G24  21077278.320   110761799.359    21077280.000    82711734.613  
G28  23038416.240   121067688.289                                  
E 2  23569830.540   123860287.363    23569832.640    92493067.773  
E 8  25948456.000   136360015.566    25948460.580   101827269.762  
E25  24806289.940   130357894.758    24806293.740    97345171.477  
E30  25707950.240   135096151.938    25707954.160   100883478.996  
> 2021  3 10 23 14 41.0000000  0 14       0.000000000000
G 2  22639682.980   118972336.199                                  
G 6  21179013.900   111296415.367    21179016.600    83110959.141  
G12  23031221.100   121029880.367                                  
G13  24469479.660   128587941.016                                  
G14  23469053.700   123330685.758    23469058.160    92097587.625  
G15  24700169.420   129800228.184                                  
G17  22048813.160   115867291.781                                  
G19  20372601.600   107058757.090                                  
G24  21077082.380   110760769.633    21077084.060    82710965.668  
G28  23038764.100   121069516.379                                  
E 2  23569673.540   123859462.320    23569675.640    92492451.672  
E 8  25948866.200   136362171.141    25948870.780   101828879.449  
E25  24806526.180   130359136.199    24806529.980    97346098.531  
E30  25707530.800   135093947.832    25707534.740   100881833.078  
> 2021  3 10 23 14 42.0000000  0 14       0.000000000000
G 2  22639111.180   118969331.410                                  
G 6  21178683.260   111294677.918    21178685.980    83109661.699  
G12  23030724.280   121027269.594                                  
G13  24470093.180   128591165.063                                  
G14  23469514.660   123333108.152    23469519.120    92099396.563  
G15  24700653.020   129802769.504                                  
G17  22049268.320   115869683.715                                  
G19  20372843.180   107060026.578                                  
G24  21076886.540   110759740.492    21076888.220    82710197.156  
G28  23039112.000   121071344.602                                  
E 2  23569516.560   123858637.422    23569518.660    92491835.684  
E 8  25949276.420   136364326.852    25949281.000   101830489.234  
E25  24806762.460   130360377.840    24806766.240    97347025.734  
E30  25707111.380   135091743.703    25707115.300   100880187.145  
> 2021  3 10 23 14 43.0000000  0 14       0.000000000000
G 2  22638539.440   118966326.918                                  
G 6  21178352.740   111292941.047    21178355.460    83108364.691  
G12  23030227.480   121024658.887                                  
G13  24470706.700   128594389.078                                  
G14  23469975.660   123335530.699    23469980.120    92101205.609  
G15  24701136.640   129805310.902                                  
G17  22049723.520   115872075.805                                  
G19  20373084.840   107061296.508                                  
G24  21076690.800   110758711.953    21076692.500    82709429.094  
G28  23039459.940   121073172.961                                  
E 2  23569359.620   123857812.699    23569361.720    92491219.820  
E 8  25949686.660   136366482.691    25949691.240   101832099.117  
E25  24806998.780   130361619.676    24807002.560    97347953.082  
E30  25706691.940   135089539.566    25706695.860   100878541.199  
> 2021  3 10 23 14 44.0000000  0 14       0.000000000000
G 2  22637967.760   118963322.730                                  
G 6  21178022.340   111291204.770    21178025.060    83107068.125  
G12  23029730.700   121022048.258                                  
G13  24471320.200   128597613.055                                  
G14  23470436.680   123337953.402    23470441.140    92103014.770  
G15  24701620.260   129807852.410                                  
G17  22050178.760   115874468.039                                  
G19  20373326.580   107062566.887                                  
G24  21076495.200   110757684.012    21076496.880    82708661.480  
G28  23039807.880   121075001.449                                  
E 2  23569202.720   123856988.129    23569204.820    92490604.074  
E 8  25950096.920   136368638.656    25950101.500   101833709.090  
E25  24807235.120   130362861.719    24807238.920    97348880.586  
E30  25706272.500   135087335.410    25706276.420   100876895.246  
> 2021  3 10 23 14 45.0000000  0 14       0.000000000000
G 2  22637396.140   118960318.844                                  
G 6  21177692.060   111289469.082    21177694.760    83105771.996  
G12  23029233.920   121019437.699                                  
G13  24471933.680   128600836.980                                  
G14  23470897.740   123340376.262    23470902.200    92104824.051  
G15  24702103.920   129810393.996                                  
G17  22050634.020   115876860.434                                  
G19  20373568.420   107063837.703                                  
G24  21076299.700   110756656.668    21076301.380    82707894.313  
G28  23040155.860   121076830.074                                  
E 2  23569045.840   123856163.734    23569047.940    92489988.457  
E 8  25950507.220   136370794.730    25950511.800   101835319.152  
E25  24807471.520   130364103.977    24807475.300    97349808.246  
E30  25705853.060   135085131.230    25705856.980   100875249.273  
> 2021  3 10 23 14 46.0000000  0 14       0.000000000000
G 2  22636824.580   118957315.266                                  
G 6  21177361.880   111287733.980    21177364.580    83104476.313  
G12  23028737.160   121016827.215                                  
G13  24472547.180   128604060.859                                  
G14  23471358.820   123342799.270    23471363.280    92106633.445  
G15  24702587.580   129812935.684                                  
G17  22051089.300   115879252.965                                  
G19  20373810.320   107065108.957                                  
G24  21076104.320   110755629.926    21076106.000    82707127.594  
G28  23040503.860   121078658.836                                  
E 2  23568889.000   123855339.484    23568891.080    92489372.953  
E 8  25950917.540   136372950.949    25950922.100   101836929.316  
E25  24807707.960   130365346.426    24807711.740    97350736.055  
E30  25705433.620   135082927.035    25705437.540   100873603.289  
> 2021  3 10 23 14 47.0000000  0 14       0.000000000000
G 2  22636253.080   118954311.992                                  
G 6  21177031.800   111285999.469    21177034.520    83103181.063  
G12  23028240.420   121014216.809                                  
G13  24473160.640   128607284.691                                  
G14  23471819.940   123345222.426    23471824.380    92108442.949  
G15  24703071.260   129815477.453                                  
G17  22051544.620   115881645.664                                  
G19  20374052.320   107066380.656                                  
G24  21075909.040   110754603.789    21075910.720    82706361.328  
G28  23040851.880   121080487.734                                  
E 2  23568732.180   123854515.406    23568734.260    92488757.574  
E 8  25951327.860   136375107.285    25951332.440   101838539.570  
E25  24807944.420   130366589.078    24807948.200    97351664.012  
E30  25705014.180   135080722.828    25705018.080   100871957.293  
> 2021  3 10 23 14 48.0000000  0 14       0.000000000000
G 2  22635681.640   118951309.023                                  
G 6  21176701.860   111284265.543    21176704.560    83101886.254  
G12  23027743.680   121011606.473                                  
G13  24473774.120   128610508.469                                  
G14  23472281.080   123347645.734    23472285.520    92110252.563  
G15  24703554.980   129818019.328                                  
G17  22051999.960   115884038.508                                  
G19  20374294.400   107067652.785                                  
G24  21075713.900   110753578.270    21075715.580    82705595.523  
G28  23041199.940   121082316.758                                  
E 2  23568575.380   123853691.477    23568577.480    92488142.305  
E 8  25951738.240   136377263.754    25951742.800   101840149.918  
E25  24808180.920   130367831.934    24808184.700    97352592.117  
E30  25704594.720   135078518.602    25704598.640   100870311.285  
> 2021  3 10 23 14 49.0000000  0 14       0.000000000000
G 2  22635110.240   118948306.367                                  
G 6  21176372.020   111282532.211    21176374.720    83100591.887  
G12  23027246.960   121008996.199                                  
G13  24474387.580   128613732.215                                  
G14  23472742.260   123350069.207    23472746.700    92112062.301  
G15  24704038.680   129820561.270                                  
G17  22052455.320   115886431.512                                  
G19  20374536.560   107068925.363                                  
G24  21075518.860   110752553.344    21075520.540    82704830.160  
G28  23041548.020   121084145.914                                  
E 2  23568418.640   123852867.734    23568420.720    92487527.172  
E 8  25952148.620   136379420.340    25952153.200   101841760.355  
E25  24808417.480   130369074.988    24808421.260    97353520.375  
E30  25704175.260   135076314.352    25704179.180   100868665.254  
> 2021  3 10 23 14 50.0000000  0 14       0.000000000000
G 2  22634538.920   118945304.004                                  
G 6  21176042.280   111280799.473    21176044.980    83099297.957  
G12  23026750.260   121006386.004                                  
G13  24475001.020   128616955.922                                  
G14  23473203.460   123352492.824    23473207.900    92113872.145  
G15  24704522.420   129823103.320                                  
G17  22052910.740   115888824.664                                  
G19  20374778.800   107070198.375                                  
G24  21075323.940   110751529.012    21075325.620    82704065.234  
G28  23041896.120   121085975.211                                  
E 2  23568261.900   123852044.133    23568264.000    92486912.145  
E 8  25952559.020   136381577.059    25952563.600   101843370.891  
E25  24808654.060   130370318.250    24808657.840    97354448.781  
E30  25703755.800   135074110.090    25703759.720   100867019.215  
> 2021  3 10 23 14 51.0000000  0 14       0.000000000000
G 2  22633967.640   118942301.961                                  
G 6  21175712.660   111279067.313    21175715.360    83098004.465  
G12  23026253.580   121003775.887                                  
G13  24475614.460   128620179.566                                  
G14  23473664.680   123354916.602    23473669.140    92115682.105  
G15  24705006.180   129825645.465                                  
G17  22053366.160   115891217.973                                  
G19  20375021.140   107071471.809                                  
G24  21075129.140   110750505.289    21075130.800    82703300.766  
G28  23042244.260   121087804.656                                  
E 2  23568105.220   123851220.703    23568107.300    92486297.246  
E 8  25952969.460   136383733.898    25952974.040   101844981.516  
E25  24808890.680   130371561.711    24808894.460    97355377.340  
E30  25703336.340   135071905.809    25703340.260   100865373.160  
> 2021  3 10 23 14 52.0000000  0 14       0.000000000000
G 2  22633396.420   118939300.215                                  
G 6  21175383.160   111277335.754    21175385.860    83096711.418  
G12  23025756.900   121001165.832                                  
G13  24476227.900   128623403.164                                  
G14  23474125.940   123357340.527    23474130.380    92117492.180  
G15  24705489.940   129828187.680                                  
G17  22053821.620   115893611.438                                  
G19  20375263.540   107072745.676                                  
G24  21074934.440   110749482.191    21074936.120    82702536.766  
G28  23042592.400   121089634.223                                  
E 2  23567948.560   123850397.441    23567950.640    92485682.473  
E 8  25953379.920   136385890.855    25953384.500   101846592.230  
E25  24809127.340   130372805.379    24809131.120    97356306.055  
E30  25702916.880   135069701.500    25702920.800   100863727.090  
> 2021  3 10 23 14 53.0000000  0 14       0.000000000000
G 2  22632825.280   118936298.785                                  
G 6  21175053.760   111275604.773    21175056.460    83095418.801  
G12  23025260.220   120998555.844                                  
G13  24476841.320   128626626.727                                  
G14  23474587.220   123359764.598    23474591.680    92119302.363  
G15  24705973.740   129830730.000                                  
G17  22054277.120   115896005.043                                  
G19  20375506.040   107074019.980                                  
G24  21074739.860   110748459.695    21074741.540    82701773.215  
G28  23042940.600   121091463.922                                  
E 2  23567791.920   123849574.324    23567794.020    92485067.805  
E 8  25953790.400   136388047.945    25953794.980   101848203.043  
E25  24809364.040   130374049.238    24809367.820    97357234.910  
E30  25702497.420   135067497.184    25702501.320   100862081.008  
> 2021  3 10 23 14 54.0000000  0 14       0.000000000000
G 2  22632254.180   118933297.660                                  
G 6  21174724.480   111273874.371    21174727.180    83094126.617  
G12  23024763.580   120995945.930                                  
G13  24477454.740   128629850.234                                  
G14  23475048.540   123362188.824    23475053.000    92121112.660  
G15  24706457.540   129833272.402                                  
G17  22054732.640   115898398.801                                  
G19  20375748.620   107075294.719                                  
G24  21074545.400   110747437.789    21074547.080    82701010.105  
G28  23043288.800   121093293.754                                  
E 2  23567635.320   123848751.379    23567637.420    92484453.270  
E 8  25954200.900   136390205.156    25954205.480   101849813.945  
E25  24809600.780   130375293.309    24809604.560    97358163.922  
E30  25702077.940   135065292.855    25702081.860   100860434.922  
> 2021  3 10 23 14 55.0000000  0 14       0.000000000000
G 2  22631683.140   118930296.832                                  
G 6  21174395.300   111272144.574    21174398.000    83092834.887  
G12  23024266.940   120993336.090                                  
G13  24478068.140   128633073.707                                  
G14  23475509.880   123364613.203    23475514.340    92122923.070  
G15  24706941.360   129835814.898                                  
G17  22055188.180   115900792.711                                  
G19  20375991.280   107076569.914                                  
G24  21074351.060   110746416.480    21074352.740    82700247.438  
G28  23043637.020   121095123.723                                  
E 2  23567478.740   123847928.590    23567480.840    92483838.848  
E 8  25954611.440   136392362.504    25954616.020   101851424.953  
E25  24809837.560   130376537.582    24809841.340    97359093.086  
E30  25701658.460   135063088.500    25701662.380   100858788.813  
> 2021  3 10 23 14 56.0000000  0 14       0.000000000000
G 2  22631112.160   118927296.324                                  
G 6  21174066.240   111270415.363    21174068.940    83091543.598  
G12  23023770.320   120990726.324                                  
G13  24478681.540   128636297.109                                  
G14  23475971.260   123367037.742    23475975.720    92124733.602  
G15  24707425.200   129838357.488                                  
G17  22055643.760   115903186.777                                  
G19  20376234.020   107077845.539                                  
G24  21074156.820   110745395.789    21074158.500    82699485.234  
G28  23043985.280   121096953.813                                  
E 2  23567322.200   123847105.969    23567324.300    92483224.551  
E 8  25955021.980   136394519.961    25955026.560   101853036.039  
E25  24810074.380   130377782.059    24810078.160    97360022.402  
E30  25701238.980   135060884.133    25701242.900   100857142.695  
> 2021  3 10 23 14 57.0000000  0 14       0.000000000000
G 2  22630541.240   118924296.117                                  
G 6  21173737.300   111268686.738    21173740.000    83090252.742  
G12  23023273.700   120988116.629                                  
G13  24479294.920   128639520.473                                  
G14  23476432.660   123369462.430    23476437.120    92126544.242  
G15  24707909.060   129840900.164                                  
G17  22056099.360   115905580.984                                  
G19  20376476.840   107079121.613                                  
G24  21073962.700   110744375.691    21073964.380    82698723.473  
G28  23044333.560   121098784.039                                  
E 2  23567165.700   123846283.512    23567167.800    92482610.383  
E 8  25955432.560   136396677.559    25955437.140   101854647.230  
E25  24810311.240   130379026.730    24810315.020    97360951.867  
E30  25700819.500   135058679.750    25700823.420   100855496.566  
> 2021  3 10 23 14 58.0000000  0 14       0.000000000000
G 2  22629970.380   118921296.211                                  
G 6  21173408.460   111266958.711    21173411.160    83088962.328  
G12  23022777.120   120985507.012                                  
G13  24479908.300   128642743.805                                  
G14  23476894.100   123371887.266    23476898.540    92128354.996  
G15  24708392.940   129843442.941                                  
G17  22056554.980   115907975.352                                  
G19  20376719.760   107080398.125                                  
G24  21073768.700   110743356.188    21073770.380    82697962.152  
G28  23044681.880   121100614.398                                  
E 2  23567009.220   123845461.219    23567011.320    92481996.332  
E 8  25955843.160   136398835.277    25955847.740   101856258.512  
E25  24810548.120   130380271.621    24810551.900    97361881.492  
E30  25700400.020   135056475.348    25700403.940   100853850.422  
> 2021  3 10 23 14 59.0000000  0 14       0.000000000000
G 2  22629399.560   118918296.613                                  
G 6  21173079.740   111265231.266    21173082.440    83087672.355  
G12  23022280.540   120982897.461                                  
G13  24480521.680   128645967.086                                  
G14  23477355.560   123374312.254    23477360.000    92130165.863  
G15  24708876.820   129845985.801                                  
G17  22057010.660   115910369.879                                  
G19  20376962.760   107081675.066                                  
G24  21073574.800   110742337.277    21073576.480    82697201.281  
G28  23045030.200   121102444.883                                  
E 2  23566852.780   123844639.074    23566854.860    92481382.395  
E 8  25956253.780   136400993.113    25956258.360   101857869.879  
E25  24810785.060   130381516.699    24810788.840    97362811.258  
E30  25699980.540   135054270.922    25699984.440   100852204.262  
> 2021  3 10 23 15  0.0000000  0 14       0.000000000000
G 2  22628828.820   118915297.324                                  
G 6  21172751.140   111263504.410    21172753.840    83086382.820  
G12  23021783.960   120980287.992                                  
G13  24481135.040   128649190.320                                  
G14  23477817.040   123376737.402    23477821.500    92131976.848  
G15  24709360.740   129848528.750                                  
G17  22057466.340   115912764.555                                  
G19  20377205.820   107082952.449                                  
G24  21073381.040   110741318.965    21073382.700    82696440.852  
G28  23045378.560   121104275.508                                  
E 2  23566696.360   123843817.105    23566698.440    92480768.586  
E 8  25956664.440   136403151.078    25956669.020   101859481.348  
E25  24811022.020   130382761.984    24811025.800    97363741.180  
E30  25699561.040   135052066.488    25699564.960   100850558.094  
> 2021  3 10 23 15  1.0000000  0 14       0.000000000000
G 2  22628258.140   118912298.348                                  
G 6  21172422.640   111261778.141    21172425.340    83085093.727  
G12  23021287.420   120977678.594                                  
G13  24481748.380   128652413.508                                  
G14  23478278.560   123379162.707    23478283.020    92133787.953  
G15  24709844.660   129851071.785                                  
G17  22057922.060   115915159.383                                  
G19  20377449.000   107084230.289                                  
G24  21073187.360   110740301.262    21073189.040    82695680.879  
G28  23045726.940   121106106.285                                  
E 2  23566539.980   123842995.301    23566542.060    92480154.898  
E 8  25957075.100   136405309.172    25957079.680   101861092.910  
E25  24811259.040   130384007.477    24811262.820    97364671.254  
E30  25699141.540   135049862.035    25699145.460   100848911.914  
> 2021  3 10 23 15  2.0000000  0 14       0.000000000000
G 2  22627687.500   118909299.676                                  
G 6  21172094.260   111260052.477    21172096.960    83083805.078  
G12  23020790.880   120975069.266                                  
G13  24482361.740   128655636.652                                  
G14  23478740.120   123381588.152    23478744.560    92135599.160  
G15  24710328.600   129853614.906                                  
G17  22058377.820   115917554.355                                  
G19  20377692.240   107085508.555                                  
G24  21072993.820   110739284.160    21072995.500    82694921.355  
G28  23046075.360   121107937.180                                  
E 2  23566383.620   123842173.652    23566385.700    92479541.332  
E 8  25957485.800   136407467.387    25957490.380   101862704.563  
E25  24811496.080   130385253.164    24811499.860    97365601.477  
E30  25698722.060   135047657.566    25698725.960   100847265.719  
> 2021  3 10 23 15  3.0000000  0 14       0.000000000000
G 2  22627116.920   118906301.305                                  
G 6  21171765.980   111258327.383    21171768.680    83082516.859  
G12  23020294.340   120972460.012                                  
G13  24482975.060   128658859.746                                  
G14  23479201.700   123384013.758    23479206.140    92137410.488  
G15  24710812.560   129856158.125                                  
G17  22058833.600   115919949.488                                  
G19  20377935.560   107086787.254                                  
G24  21072800.380   110738267.664    21072802.060    82694162.285  
G28  23046423.780   121109768.215                                  
E 2  23566227.300   123841352.168    23566229.380    92478927.883  
E 8  25957896.520   136409625.719    25957901.100   101864316.301  
E25  24811733.180   130386499.063    24811736.960    97366531.852  
E30  25698302.560   135045453.078    25698306.460   100845619.512  
> 2021  3 10 23 15  4.0000000  0 14       0.000000000000
G 2  22626546.420   118903303.242                                  
G 6  21171437.820   111256602.875    21171440.520    83081229.074  
G12  23019797.840   120969850.852                                  
G13  24483588.400   128662082.828                                  
G14  23479663.300   123386439.520    23479667.760    92139221.934  
G15  24711296.540   129858701.391                                  
G17  22059289.400   115922344.797                                  
G19  20378178.980   107088066.387                                  
G24  21072607.080   110737251.781    21072608.740    82693403.668  
G28  23046772.240   121111599.355                                  
E 2  23566071.000   123840530.844    23566073.100    92478314.559  
E 8  25958307.260   136411784.176    25958311.840   101865928.141  
E25  24811970.300   130387745.164    24811974.080    97367462.383  
E30  25697883.040   135043248.578    25697886.960   100843973.301  
> 2021  3 10 23 15  5.0000000  0 14       0.000000000000
G 2  22625975.960   118900305.492                                  
G 6  21171109.760   111254878.965    21171112.460    83079941.742  
G12  23019301.340   120967241.742                                  
G13  24484201.720   128665305.832                                  
G14  23480124.940   123388865.434    23480129.400    92141033.492  
G15  24711780.540   129861244.785                                  
G17  22059745.240   115924740.234                                  
G19  20378422.480   107089345.969                                  
G24  21072413.860   110736236.500    21072415.540    82692645.504  
G28  23047120.740   121113430.660                                  
E 2  23565914.740   123839709.688    23565916.840    92477701.355  
E 8  25958718.020   136413942.766    25958722.600   101867540.074  
E25  24812207.460   130388991.465    24812211.240    97368393.063  
E30  25697463.540   135041044.070    25697467.440   100842327.078  
> 2021  3 10 23 15  6.0000000  0 14       0.000000000000
G 2  22625405.560   118897308.020                                  
G 6  21170781.840   111253155.641    21170784.520    83078654.844  
G12  23018804.860   120964632.715                                  
G13  24484815.020   128668528.773                                  
G14  23480586.600   123391291.504    23480591.060    92142845.168  
G15  24712264.540   129863788.258                                  
G17  22060201.100   115927135.832                                  
G19  20378666.060   107090625.977                                  
G24  21072220.780   110735221.781    21072222.460    82691887.762  
G28  23047469.240   121115262.098                                  
E 2  23565758.520   123838888.695    23565760.600    92477088.273  
E 8  25959128.820   136416101.496    25959133.400   101869152.109  
E25  24812444.660   130390237.984    24812448.440    97369323.902  
E30  25697044.020   135038839.531    25697047.940   100840680.832  
> 2021  3 10 23 15  7.0000000  0 14       0.000000000000
G 2  22624835.220   118894310.855                                  
G 6  21170454.000   111251432.922    21170456.700    83077368.395  
G12  23018308.380   120962023.766                                  
G13  24485428.320   128671751.664                                  
G14  23481048.300   123393717.723    23481052.760    92144656.945  
G15  24712748.560   129866331.793                                  
G17  22060657.000   115929531.570                                  
G19  20378909.720   107091906.422                                  
G24  21072027.800   110734207.711    21072029.480    82691130.496  
G28  23047817.780   121117093.668                                  
E 2  23565602.320   123838067.879    23565604.400    92476475.328  
E 8  25959539.640   136418260.363    25959544.220   101870764.250  
E25  24812681.900   130391484.719    24812685.700    97370254.906  
E30  25696624.520   135036634.980    25696628.420   100839034.578  
> 2021  3 10 23 15  8.0000000  0 14       0.000000000000
G 2  22624264.960   118891314.070                                  
G 6  21170126.300   111249710.781    21170129.000    83076082.383  
G12  23017811.920   120959414.852                                  
G13  24486041.600   128674974.543                                  
G14  23481510.020   123396144.063    23481514.480    92146468.824  
G15  24713232.600   129868875.465                                  
G17  22061112.920   115931927.465                                  
G19  20379153.460   107093187.320                                  
G24  21071834.940   110733194.207    21071836.620    82690373.664  
G28  23048166.340   121118925.332                                  
E 2  23565446.140   123837247.191    23565448.240    92475862.477  
E 8  25959950.460   136420419.277    25959955.060   101872376.426  
E25  24812919.180   130392731.590    24812922.960    97371186.012  
E30  25696205.000   135034430.418    25696208.900   100837388.316  
> 2021  3 10 23 15  9.0000000  0 14       0.000000000000
G 2  22623694.720   118888317.543                                  
G 6  21169798.700   111247989.238    21169801.400    83074796.816  
G12  23017315.480   120956806.035                                  
G13  24486654.900   128678197.355                                  
G14  23481971.780   123398570.586    23481976.220    92148280.840  
G15  24713716.660   129871419.199                                  
G17  22061568.880   115934323.512                                  
G19  20379397.300   107094468.648                                  
G24  21071642.200   110732181.313    21071643.860    82689617.277  
G28  23048514.920   121120757.172                                  
E 2  23565290.000   123836426.688    23565292.100    92475249.762  
E 8  25960361.340   136422578.367    25960365.920   101873988.734  
E25  24813156.500   130393978.711    24813160.280    97372117.305  
E30  25695785.480   135032225.824    25695789.380   100835742.031  
> 2021  3 10 23 15 10.0000000  0 14       0.000000000000
G 2  22623124.560   118885321.328                                  
G 6  21169471.200   111246268.281    21169473.900    83073511.688  
G12  23016819.060   120954197.289                                  
G13  24487268.160   128681420.117                                  
G14  23482433.560   123400997.262    23482438.000    92150092.965  
G15  24714200.740   129873963.039                                  
G17  22062024.860   115936719.719                                  
G19  20379641.200   107095750.418                                  
G24  21071449.560   110731169.023    21071451.240    82688861.348  
G28  23048863.540   121122589.137                                  
E 2  23565133.900   123835606.348    23565136.000    92474637.172  
E 8  25960772.220   136424737.574    25960776.800   101875601.125  
E25  24813393.860   130395226.031    24813397.640    97373048.742  
E30  25695365.960   135030021.219    25695369.860   100834095.734  
> 2021  3 10 23 15 11.0000000  0 14       0.000000000000
G 2  22622554.460   118882325.418                                  
G 6  21169143.840   111244547.914    21169146.520    83072226.996  
G12  23016322.640   120951588.625                                  
G13  24487881.420   128684642.844                                  
G14  23482895.360   123403424.086    23482899.820    92151905.203  
G15  24714684.840   129876506.969                                  
G17  22062480.880   115939116.074                                  
G19  20379885.200   107097032.625                                  
G24  21071257.040   110730157.340    21071258.720    82688105.871  
G28  23049212.180   121124421.230                                  
E 2  23564977.820   123834786.168    23564979.920    92474024.699  
E 8  25961183.120   136426896.918    25961187.700   101877213.621  
E25  24813631.260   130396473.547    24813635.040    97373980.328  
E30  25694946.420   135027816.598    25694950.340   100832449.426  
> 2021  3 10 23 15 12.0000000  0 14       0.000000000000
G 2  22621984.420   118879329.816                                  
G 6  21168816.580   111242828.137    21168819.260    83070942.750  
G12  23015826.240   120948980.031                                  
G13  24488494.680   128687865.508                                  
G14  23483357.200   123405851.066    23483361.660    92153717.559  
G15  24715168.940   129879050.977                                  
G17  22062936.920   115941512.574                                  
G19  20380129.280   107098315.258                                  
G24  21071064.640   110729146.262    21071066.320    82687350.844  
G28  23049560.840   121126253.457                                  
E 2  23564821.780   123833966.148    23564823.880    92473412.352  
E 8  25961594.060   136429056.367    25961598.640   101878826.195  
E25  24813868.680   130397721.270    24813872.460    97374912.066  
E30  25694526.900   135025611.961    25694530.800   100830803.109  
> 2021  3 10 23 15 13.0000000  0 14       0.000000000000
G 2  22621414.440   118876334.523                                  
G 6  21168489.420   111241108.949    21168492.120    83069658.941  
G12  23015329.860   120946371.508                                  
G13  24489107.920   128691088.141                                  
G14  23483819.080   123408278.199    23483823.520    92155530.023  
G15  24715653.080   129881595.074                                  
G17  22063392.980   115943909.230                                  
G19  20380373.440   107099598.336                                  
G24  21070872.360   110728135.777    21070874.020    82686596.262  
G28  23049909.520   121128085.824                                  
E 2  23564665.760   123833146.301    23564667.860    92472800.125  
E 8  25962005.020   136431215.949    25962009.600   101880438.867  
E25  24814106.160   130398969.199    24814109.940    97375843.965  
E30  25694107.360   135023407.305    25694111.280   100829156.777  
